[
    {
        "website": "http://www.cybearcats.com",
        "name": "Urschel Laboratories Incorporated / Task Force Tips / Indiana Department of Workforce Development & Wheeler High School",
        "locality": "Valparaiso",
        "nickname": "Cybearcats",
        "region": "IN",
        "team_number": 1000,
        "location": "Valparaiso, IN, USA",
        "key": "frc1000",
        "country_name": "USA",
        "motto": null,
        "rookie_year": 2003
    },
    {
        "website": "http://sites.google.com/site/homeofbrushrobotics",
        "name": "NASA / Rockwell Automation & Charles F. Brush High School",
        "locality": "Lyndhurst",
        "nickname": "Hacksaw",
        "region": "OH",
        "team_number": 1001,
        "location": "Lyndhurst, OH, USA",
        "key": "frc1001",
        "country_name": "USA",
        "motto": null,
        "rookie_year": 2003
    },
    {
        "website": "http://www.circuitrunners.com/",
        "name": "TeraData/GE Volunteers/Capitol Special Risks/CostCo/Cobb EMC/Ryobi/Publix/Farleo Design, Inc./United Technologies-Automated Logic/Atlantis Waterjet/Sevaa Webgroup/Kennesaw State University/Lockheed Martin & Wheeler High School",
        "locality": "Marietta",
        "nickname": "The CircuitRunners",
        "region": "Georgia",
        "team_number": 1002,
        "location": "Marietta, Georgia 30068, USA",
        "key": "frc1002",
        "country_name": "USA",
        "motto": "Moving from Potential to Kinetic",
        "rookie_year": 2003
    },
    {
        "website": "http://portal.chaminade-stl.com",
        "name": "Cee Kay Supply/Lewis Pumps & Chaminade College Preparatory School",
        "locality": "St. Louis",
        "nickname": "Chaminade Robotics",
        "region": "MO",
        "team_number": 1005,
        "location": "St. Louis, MO, USA",
        "key": "frc1005",
        "country_name": "USA",
        "motto": null,
        "rookie_year": 2003
    },
    {
        "website": "http://www.team1006.ca",
        "name": "General Motors of Canada (Engng & Product Planning) & Port Perry High School",
        "locality": "Port Perry",
        "nickname": "Fast Eddie Robotics",
        "region": "ON",
        "team_number": 1006,
        "location": "Port Perry, ON, Canada",
        "key": "frc1006",
        "country_name": "Canada",
        "motto": null,
        "rookie_year": 2003
    },
    {
        "website": "http://www.shiloh.high.gwinnett.k12.ga.us/teachers/852/852.html",
        "name": "ST Realtor / CEC Controls Company, Inc. / Mechanical Engineering Consultant & Shiloh High School & YMVP & Gwinnett County Public Schools",
        "locality": "Snellville",
        "nickname": "The Tyrants",
        "region": "GA",
        "team_number": 1007,
        "location": "Snellville, GA, USA",
        "key": "frc1007",
        "country_name": "USA",
        "motto": null,
        "rookie_year": 2003
    },
    {
        "website": null,
        "name": "Tubular Techniques/Columbus City Schools/Shingle Belting/NASA/Chipotle/Romeo's Pizza/Keller Williams Capital Partners/Texas Roadhouse/Buffalo Wild Wings/Rooster's/Jersey Mikes",
        "locality": "Columbus",
        "nickname": "Team Lugnut",
        "region": "OH",
        "team_number": 1008,
        "location": "Columbus, OH, USA",
        "key": "frc1008",
        "country_name": "USA",
        "motto": null,
        "rookie_year": 2003
    },
    {
        "website": "http://www.boltaction1009.com",
        "name": "Georges Vanier Secondary School & TDSB",
        "locality": "North York",
        "nickname": "Bolt Action",
        "region": "ON",
        "team_number": 1009,
        "location": "North York, ON, Canada",
        "key": "frc1009",
        "country_name": "Canada",
        "motto": null,
        "rookie_year": 2003
    },
    {
        "website": "http://www.bhswebteam.com/robotics",
        "name": "Continental Teves & Brandon High School",
        "locality": "Ortonville",
        "nickname": "B.C. Hawks",
        "region": "MI",
        "team_number": 1010,
        "location": "Ortonville, MI, USA",
        "key": "frc1010",
        "country_name": "USA",
        "motto": null,
        "rookie_year": 2003
    },
    {
        "website": "http://www.crush1011.org",
        "name": "Sigma Technologies / Raytheon / Mr. Brian Maki / Industrial Metal Supply / Cindy Bingham / Brian Cloutier / APEX Technologies / Honeywell / IBM / Hanlon Engineering & Associates / M3 Engineering / CAID Automation / Sunland Asphalt & Sealcoating & Sonoran Science Academy - Tucson",
        "locality": "Tucson",
        "nickname": "CRUSH",
        "region": "Arizona",
        "team_number": 1011,
        "location": "Tucson, Arizona 85741, USA",
        "key": "frc1011",
        "country_name": "USA",
        "motto": "We Build More Than Robots!",
        "rookie_year": 2003
    },
    {
        "website": "http://team1013.org",
        "name": "The Boeing Company / BAE Systems / Arizona Science Foundation / Employees of Microchip / Magma Engineering Co / Queen Creek Unified School District / Parents of QCHS Robotics & Queen Creek HS",
        "locality": "Queen Creek",
        "nickname": "The Phoenix",
        "region": "AZ",
        "team_number": 1013,
        "location": "Queen Creek, AZ, USA",
        "key": "frc1013",
        "country_name": "USA",
        "motto": null,
        "rookie_year": 2003
    },
    {
        "website": "http://dublinrobotics.com",
        "name": "American Electric Power / Roxane Labs / Dublin AM Rotary / Denso / OSU FIRST / Honda / Dublin Foundation / Dublin Robotics Boosters & Dublin Coffman High School & Dublin Scioto High School & Dublin Jerome High School",
        "locality": "Dublin",
        "nickname": "Bad Robots",
        "region": "Ohio",
        "team_number": 1014,
        "location": "Dublin, Ohio 43017, USA",
        "key": "frc1014",
        "country_name": "USA",
        "motto": "Pay It Forward",
        "rookie_year": 2003
    },
    {
        "website": "http://PiHiSamurai.org",
        "name": "Yazaki North America & Pioneer High School",
        "locality": "Ann Arbor",
        "nickname": "Pi Hi Samurai",
        "region": "MI",
        "team_number": 1015,
        "location": "Ann Arbor, MI, USA",
        "key": "frc1015",
        "country_name": "USA",
        "motto": null,
        "rookie_year": 2003
    },
    {
        "website": "http://robots.darlington.k12.sc.us",
        "name": "Progress Energy/Wellman, Inc./Integrated Systems/Darlington Raceway & Darlington County High Schools",
        "locality": "Darlington",
        "nickname": "Evolution",
        "region": "SC",
        "team_number": 1016,
        "location": "Darlington, SC, USA",
        "key": "frc1016",
        "country_name": "USA",
        "motto": null,
        "rookie_year": 2003
    },
    {
        "website": null,
        "name": "GM & Homeschool",
        "locality": "Flint",
        "nickname": "Home Advantage",
        "region": "MI",
        "team_number": 1017,
        "location": "Flint, MI, USA",
        "key": "frc1017",
        "country_name": "USA",
        "motto": null,
        "rookie_year": 2003
    },
    {
        "website": "http://www.robodevils.com",
        "name": "Waterjet Cutting of Indiana/Rolls Royce/3M/Beckman Coulter Foundation/Chip Ganassi&Pike High School",
        "locality": "Indianapolis",
        "nickname": "Pike RoboDevils",
        "region": "Indiana",
        "team_number": 1018,
        "location": "Indianapolis, Indiana 46268, USA",
        "key": "frc1018",
        "country_name": "USA",
        "motto": null,
        "rookie_year": 2003
    },
    {
        "website": null,
        "name": "Westhampton Beach High School",
        "locality": "Westhampton Beach",
        "nickname": "Sons Of The Beach",
        "region": "NY",
        "team_number": 1019,
        "location": "Westhampton Beach, NY, USA",
        "key": "frc1019",
        "country_name": "USA",
        "motto": null,
        "rookie_year": 2003
    },
    {
        "website": "http://www.team1020.org",
        "name": "Delaware Machinery and Tool Company, Inc. & Ball State University & Indiana Academy",
        "locality": "Muncie",
        "nickname": "The Prank Monkeys",
        "region": "IN",
        "team_number": 1020,
        "location": "Muncie, IN, USA",
        "key": "frc1020",
        "country_name": "USA",
        "motto": null,
        "rookie_year": 2003
    },
    {
        "website": "http://www.archergeeks.org",
        "name": "General Electric/American Electric Power & South Side HS",
        "locality": "Fort Wayne",
        "nickname": "Archer GEeks",
        "region": "IN",
        "team_number": 1022,
        "location": "Fort Wayne, IN, USA",
        "key": "frc1022",
        "country_name": "USA",
        "motto": null,
        "rookie_year": 2003
    },
    {
        "website": "http://www.bedfordexpress.org",
        "name": "Michigan Department of Education/Heidtman Steel/Bill & Cheryl Sommers/The Staley Family/Integration Partners/Proservice Machine/Endocrine Specialists/Forestview Lanes&Bedford Senior High School",
        "locality": "Temperance",
        "nickname": "Bedford Express",
        "region": "Michigan",
        "team_number": 1023,
        "location": "Temperance, Michigan 48182, USA",
        "key": "frc1023",
        "country_name": "USA",
        "motto": "Engineers on Track",
        "rookie_year": 2003
    },
    {
        "website": "http://www.mckenzierobotics.org",
        "name": "MTD Products/Rolls-Royce Corporation/Indiana Department of Education & McKenzie Center for Innovation and Technology",
        "locality": "Indianapolis",
        "nickname": "Kil-A-Bytes",
        "region": "Indiana",
        "team_number": 1024,
        "location": "Indianapolis, Indiana 46256, USA",
        "key": "frc1024",
        "country_name": "USA",
        "motto": null,
        "rookie_year": 2003
    },
    {
        "website": "http://www.impirobotics.com",
        "name": "IMPI ROBOTICS/Schaeffler Group/FCA/FORD/Sapa/IBM/Ferndale School District/Ferndale PTA/Ferndale Education Foundation&Ferndale High School",
        "locality": "Ferndale",
        "nickname": "IMPI Robotics",
        "region": "Michigan",
        "team_number": 1025,
        "location": "Ferndale, Michigan 48220, USA",
        "key": "frc1025",
        "country_name": "USA",
        "motto": "Education is the most powerful weapon which you can use to change the world ",
        "rookie_year": 2003
    },
    {
        "website": "http://www.york.k12.sc.us",
        "name": "IMT York & Bank of York & Floyd D. Johnson Technology Center & York Comprehensive High School",
        "locality": "York",
        "nickname": "Cougars",
        "region": "SC",
        "team_number": 1026,
        "location": "York, SC, USA",
        "key": "frc1026",
        "country_name": "USA",
        "motto": null,
        "rookie_year": 2003
    },
    {
        "website": "http://www.team1027.com",
        "name": "Essential Power, LLC/Comcast & West Springfield High",
        "locality": "West Springfield",
        "nickname": "Project Jabberwocky",
        "region": "Massachusetts",
        "team_number": 1027,
        "location": "West Springfield, Massachusetts 01089, USA",
        "key": "frc1027",
        "country_name": "USA",
        "motto": null,
        "rookie_year": 2003
    },
    {
        "website": "http://www.firstubergeeks.com",
        "name": "Pratt & Whitney Automation & Madison County Schools",
        "locality": "Huntsville",
        "nickname": "UBERGEEKS",
        "region": "AL",
        "team_number": 1028,
        "location": "Huntsville, AL, USA",
        "key": "frc1028",
        "country_name": "USA",
        "motto": null,
        "rookie_year": 2003
    },
    {
        "website": null,
        "name": "Motorola & Belen Jesuit",
        "locality": "Miami",
        "nickname": "Wolverine Robotics",
        "region": "FL",
        "team_number": 1029,
        "location": "Miami, FL, USA",
        "key": "frc1029",
        "country_name": "USA",
        "motto": null,
        "rookie_year": 2003
    },
    {
        "website": "http://first.efcts.us",
        "name": "NASA/American Electric Power & Eastland Career Center",
        "locality": "Groveport",
        "nickname": "Combined Minds",
        "region": "OH",
        "team_number": 1030,
        "location": "Groveport, OH, USA",
        "key": "frc1030",
        "country_name": "USA",
        "motto": null,
        "rookie_year": 2003
    },
    {
        "website": "http://www.team1031.org",
        "name": "Google & John O'Connell High School",
        "locality": "San Francisco",
        "nickname": "The Boilermakers",
        "region": "CA",
        "team_number": 1031,
        "location": "San Francisco, CA, USA",
        "key": "frc1031",
        "country_name": "USA",
        "motto": null,
        "rookie_year": 2003
    },
    {
        "website": "http://www.teamclutch1033.com",
        "name": "FRC Hardship Grant/The Lathrop Family/Catie Cain/Solidworks & Benedictine High School",
        "locality": "Richmond",
        "nickname": "Team CLUTCH",
        "region": "Virginia",
        "team_number": 1033,
        "location": "Richmond, Virginia, USA",
        "key": "frc1033",
        "country_name": "USA",
        "motto": "Always CLUTCH!",
        "rookie_year": 2003
    },
    {
        "website": null,
        "name": "South Shore High School",
        "locality": "Chicago",
        "nickname": "Eclipse",
        "region": "IL",
        "team_number": 1034,
        "location": "Chicago, IL, USA",
        "key": "frc1034",
        "country_name": "USA",
        "motto": null,
        "rookie_year": 2003
    },
    {
        "website": "http://www.comaupico.com",
        "name": "Comau Pico & Washington High School",
        "locality": "Chicago",
        "nickname": "T12",
        "region": "IL",
        "team_number": 1035,
        "location": "Chicago, IL, USA",
        "key": "frc1035",
        "country_name": "USA",
        "motto": null,
        "rookie_year": 2003
    },
    {
        "website": "http://www.centraltech.ca",
        "name": "McDonald's Restaurants of Canada Limited/Toronto District School Board/Apollo Sheet Metal Contractors Limited/Vaughan Electrcial Supply Co. Ltd & Central Technical School",
        "locality": "Toronto",
        "nickname": "Central Tech Robotics",
        "region": "ON",
        "team_number": 1036,
        "location": "Toronto, ON, Canada",
        "key": "frc1036",
        "country_name": "Canada",
        "motto": null,
        "rookie_year": 2003
    },
    {
        "website": "http://teamfordfirst.org/Team1037",
        "name": "Ford Motor Company/Warren Industries, Inc./Metalmite Corporation & Stoney Creek High School & Rochester High School",
        "locality": "Rochester Hills",
        "nickname": "The SCREAM Team",
        "region": "MI",
        "team_number": 1037,
        "location": "Rochester Hills, MI, USA",
        "key": "frc1037",
        "country_name": "USA",
        "motto": null,
        "rookie_year": 2003
    },
    {
        "website": "http://www.lakotarobotics.com",
        "name": "Mission Communications LLC/Noxsel-Waddell Foundation/Rockwell Automation/Alexander & Associates/Northrop Grumman Xetron/Cincinnati, Inc./Milacron/Kroger/Terraqua Club/HB2Web, LLC/Forest Fair Village/Lakota Robotics Boosters/Lakota Robotics, LLC&Lakota East High School&Lakota West High School&Neighborhood Group",
        "locality": "Liberty Township",
        "nickname": "Lakota Robotics",
        "region": "Ohio",
        "team_number": 1038,
        "location": "Liberty Township, Ohio 45044, USA",
        "key": "frc1038",
        "country_name": "USA",
        "motto": "We Are FIRST!",
        "rookie_year": 2003
    },
    {
        "website": "http://www.team1039.org",
        "name": "kevinro.com/Seattle Robotics Society & Chief Sealth High School",
        "locality": "Seattle",
        "nickname": "Chief Sealth Robotics",
        "region": "WA",
        "team_number": 1039,
        "location": "Seattle, WA, USA",
        "key": "frc1039",
        "country_name": "USA",
        "motto": null,
        "rookie_year": 2003
    },
    {
        "website": null,
        "name": "Paideia School",
        "locality": "Atlanta",
        "nickname": "Pythons",
        "region": "GA",
        "team_number": 1040,
        "location": "Atlanta, GA, USA",
        "key": "frc1040",
        "country_name": "USA",
        "motto": null,
        "rookie_year": 2003
    },
    {
        "website": null,
        "name": "NASA/Lockheed Martin Aeronautics Company - Marietta & South Cobb High School",
        "locality": "Austell",
        "nickname": "",
        "region": "GA",
        "team_number": 1041,
        "location": "Austell, GA, USA",
        "key": "frc1041",
        "country_name": "USA",
        "motto": null,
        "rookie_year": 2003
    },
    {
        "website": null,
        "name": "South Shore Academy & GE Industrial Systems",
        "locality": "Chicago",
        "nickname": "",
        "region": "IL",
        "team_number": 1042,
        "location": "Chicago, IL, USA",
        "key": "frc1042",
        "country_name": "USA",
        "motto": null,
        "rookie_year": 2003
    },
    {
        "website": "http://www.kehillahhigh.org/robotics",
        "name": "Cortec Precision Sheetmetal/Best Buy & Kehillah Jewish High School",
        "locality": "San Jose",
        "nickname": "Batteries Not Included",
        "region": "CA",
        "team_number": 1043,
        "location": "San Jose, CA, USA",
        "key": "frc1043",
        "country_name": "USA",
        "motto": null,
        "rookie_year": 2003
    },
    {
        "website": "http://www.msjrobotics.com",
        "name": "Manav Enterprises & Mission San Jose High School",
        "locality": "Fremont",
        "nickname": "MSJ Robotics",
        "region": "CA",
        "team_number": 1045,
        "location": "Fremont, CA, USA",
        "key": "frc1045",
        "country_name": "USA",
        "motto": null,
        "rookie_year": 2003
    },
    {
        "website": "http://prismrobotics.org",
        "name": "Palm Desert High School Foundation & Palm Desert High School & Desert Sands Unified School District",
        "locality": "Palm Desert",
        "nickname": "Aztechs",
        "region": "CA",
        "team_number": 1046,
        "location": "Palm Desert, CA, USA",
        "key": "frc1046",
        "country_name": "USA",
        "motto": null,
        "rookie_year": 2003
    },
    {
        "website": "http://www.teamechoes.com/index.php?page=9",
        "name": "Raytheon Space and Airborne Systems/Boeing & Woodbridge High School",
        "locality": "Irvine",
        "nickname": "Team Echoes",
        "region": "CA",
        "team_number": 1047,
        "location": "Irvine, CA, USA",
        "key": "frc1047",
        "country_name": "USA",
        "motto": null,
        "rookie_year": 2003
    },
    {
        "website": "http://www.manvilleschools.org/manville/High%20School/Robotics%20Team",
        "name": "National Starch and Chemical Co., Inc/Brother International/ADP Foundation & Manville High School",
        "locality": "Manville",
        "nickname": "Mustang Robotics",
        "region": "NJ",
        "team_number": 1048,
        "location": "Manville, NJ, USA",
        "key": "frc1048",
        "country_name": "USA",
        "motto": null,
        "rookie_year": 2003
    },
    {
        "website": "http://www.archangelrobotics.com/index.php",
        "name": "St. Michael's College School",
        "locality": "Toronto",
        "nickname": "Archangel Robotics",
        "region": "ON",
        "team_number": 1049,
        "location": "Toronto, ON, Canada",
        "key": "frc1049",
        "country_name": "Canada",
        "motto": null,
        "rookie_year": 2003
    },
    {
        "website": "http://www.act.marion.k12.sc.us",
        "name": "Florence-Darlington Technical College & Academy for Careers and Technology",
        "locality": "Mullins",
        "nickname": "Technical Terminators",
        "region": "South Carolina",
        "team_number": 1051,
        "location": "Mullins, South Carolina 29574, USA",
        "key": "frc1051",
        "country_name": "USA",
        "motto": null,
        "rookie_year": 2003
    },
    {
        "website": null,
        "name": "Kleiner Perkins Caufield & Byers & Pinole Valley High School",
        "locality": "Pinole",
        "nickname": "",
        "region": "CA",
        "team_number": 1052,
        "location": "Pinole, CA, USA",
        "key": "frc1052",
        "country_name": "USA",
        "motto": null,
        "rookie_year": 2003
    },
    {
        "website": "http://www.gleberobotics.com",
        "name": "ScotiaBank/I.B.M/General Bearing Service/Loucon Metals/SkyWave/Lockheed Martin & Glebe Collegiate High School & O.C.D.S.B.",
        "locality": "Ottawa",
        "nickname": "Gears of Glebe",
        "region": "ON",
        "team_number": 1053,
        "location": "Ottawa, ON, Canada",
        "key": "frc1053",
        "country_name": "Canada",
        "motto": null,
        "rookie_year": 2003
    },
    {
        "website": "http://www.knightmarerobotics.com",
        "name": "Starcare Foundation / UVA Career Development Office / Kyanite Mining Corporation / Virginia Farm Bureau / Buckingham Farm Bureau / VA Gateway / Von Holtzbrinck Publishing Services & Buckingham County Public Schools",
        "locality": "Buckingham",
        "nickname": "Knightmares",
        "region": "VA",
        "team_number": 1054,
        "location": "Buckingham, VA, USA",
        "key": "frc1054",
        "country_name": "USA",
        "motto": null,
        "rookie_year": 2003
    },
    {
        "website": "http://www.fwpschool.org/FIRST",
        "name": "Newark-In-One & Francis W. Parker School",
        "locality": "Chicago",
        "nickname": "Frank's Garage",
        "region": "IL",
        "team_number": 1055,
        "location": "Chicago, IL, USA",
        "key": "frc1055",
        "country_name": "USA",
        "motto": null,
        "rookie_year": 2003
    },
    {
        "website": "http://www.firstinspires.org/",
        "name": "Hawaii Community Foundation/The Science Factory&Waiakea High School",
        "locality": "Hilo",
        "nickname": "Hot Rocks",
        "region": "Hawaii",
        "team_number": 1056,
        "location": "Hilo, Hawaii 96720, USA",
        "key": "frc1056",
        "country_name": "USA",
        "motto": "Don't finish last",
        "rookie_year": 2003
    },
    {
        "website": null,
        "name": "Thiele Kaolin/Sandersville Railroad/Burgess Pigment/Imerys/J. M. Huber/Sandersville Technical College & Brentwood School",
        "locality": "Sandersville",
        "nickname": "The Blue Knights",
        "region": "GA",
        "team_number": 1057,
        "location": "Sandersville, GA, USA",
        "key": "frc1057",
        "country_name": "USA",
        "motto": null,
        "rookie_year": 2003
    },
    {
        "website": "http://team1058.com/",
        "name": "Fleet Ready Corp. / BAE Systems / Show Ready Events / Dumpster Depot / JMD Industries / Veloxion / Willseal & Londonderry Senior High School",
        "locality": "Londonderry",
        "nickname": "PVC Pirates",
        "region": "New Hampshire",
        "team_number": 1058,
        "location": "Londonderry, New Hampshire 03053, USA",
        "key": "frc1058",
        "country_name": "USA",
        "motto": "You can't stop Team 1058",
        "rookie_year": 2003
    },
    {
        "website": "http://www.ethelwalker.org",
        "name": "EBA&D & Ethel Walker School",
        "locality": "Simsbury",
        "nickname": "",
        "region": "CT",
        "team_number": 1059,
        "location": "Simsbury, CT, USA",
        "key": "frc1059",
        "country_name": "USA",
        "motto": null,
        "rookie_year": 2003
    },
    {
        "website": null,
        "name": "River Valley High School",
        "locality": "Mohave Valley",
        "nickname": "Dust Devils",
        "region": "AZ",
        "team_number": 1060,
        "location": "Mohave Valley, AZ, USA",
        "key": "frc1060",
        "country_name": "USA",
        "motto": null,
        "rookie_year": 2003
    },
    {
        "website": "http://www.celhs.osceola.k12.fl.us/FIRST/index.html",
        "name": "Disney & Celebration High School",
        "locality": "Celebration",
        "nickname": "Storm Troopers",
        "region": "FL",
        "team_number": 1062,
        "location": "Celebration, FL, USA",
        "key": "frc1062",
        "country_name": "USA",
        "motto": null,
        "rookie_year": 2003
    },
    {
        "website": null,
        "name": "Toronto District School Board & Marc Garneau C.I.",
        "locality": "Toronto",
        "nickname": "Team MG",
        "region": "ON",
        "team_number": 1063,
        "location": "Toronto, ON, Canada",
        "key": "frc1063",
        "country_name": "Canada",
        "motto": null,
        "rookie_year": 2003
    },
    {
        "website": "http://www.firstwildbeast.com",
        "name": "Milwaukee School Of Engineering/IEEE Milwaukee Section/SME Milwaukee Chapter 4/Pentair Water Treatment/Milwaukee FIRST Support Organization & South Milwaukee High School",
        "locality": "South Milwaukee",
        "nickname": "Wild Beast",
        "region": "WI",
        "team_number": 1064,
        "location": "South Milwaukee, WI, USA",
        "key": "frc1064",
        "country_name": "USA",
        "motto": null,
        "rookie_year": 2003
    },
    {
        "website": "http://www.ohs.osceola.k12.fl.us/clubs/robotics/index.html",
        "name": "Lockheed Martin/OHS School Advisory Committee/Walt Disney World Ride and Show Engineering/Mad Genius Controllers/Entech Creative/NuWind/Kowboy Engineering & Osceola High School",
        "locality": "Kissimmee",
        "nickname": "The Moose",
        "region": "Florida",
        "team_number": 1065,
        "location": "Kissimmee, Florida 34744, USA",
        "key": "frc1065",
        "country_name": "USA",
        "motto": "The Moose is on the Loose",
        "rookie_year": 2003
    },
    {
        "website": "http://www.geocities.com/sluhrobotics",
        "name": "NASA/The Boeing Company/Troco, L.L.C. & Saint Louis University High School",
        "locality": "Saint Louis",
        "nickname": "Junior Billikens",
        "region": "MO",
        "team_number": 1067,
        "location": "Saint Louis, MO, USA",
        "key": "frc1067",
        "country_name": "USA",
        "motto": null,
        "rookie_year": 2003
    },
    {
        "website": "http://www.team1068.org",
        "name": "DeVRY University/Lockheed Martin & Maynard Evans High School",
        "locality": "Orlando",
        "nickname": "The Ninjaneers",
        "region": "FL",
        "team_number": 1068,
        "location": "Orlando, FL, USA",
        "key": "frc1068",
        "country_name": "USA",
        "motto": null,
        "rookie_year": 2003
    },
    {
        "website": "http://www.technobots.org",
        "name": "NASA/BMW/Michelin & Greer High School",
        "locality": "Greer",
        "nickname": "Technobots",
        "region": "SC",
        "team_number": 1069,
        "location": "Greer, SC, USA",
        "key": "frc1069",
        "country_name": "USA",
        "motto": null,
        "rookie_year": 2003
    },
    {
        "website": "http://In Progress",
        "name": "Dreamworks Animation skg / California State University, Northridge / Raytheon & Louisville High School",
        "locality": "Woodland Hills",
        "nickname": "Royal Robotrons",
        "region": "California",
        "team_number": 1070,
        "location": "Woodland Hills, California 91364, USA",
        "key": "frc1070",
        "country_name": "USA",
        "motto": "",
        "rookie_year": 2003
    },
    {
        "website": "http://www.max1071.com",
        "name": "UTC/Lockheed Martin SIkorsky/Wolcott Board of Education &Wolcott High School",
        "locality": "Wolcott",
        "nickname": "Team Max",
        "region": "Connecticut",
        "team_number": 1071,
        "location": "Wolcott, Connecticut 06716, USA",
        "key": "frc1071",
        "country_name": "USA",
        "motto": "To The MAX",
        "rookie_year": 2003
    },
    {
        "website": "http://robotics.harker.org/",
        "name": "Harker Foundation/Gorilla Metals & the Harker School",
        "locality": "San Jose",
        "nickname": "Harker Robotics",
        "region": "California",
        "team_number": 1072,
        "location": "San Jose, California 95129, USA",
        "key": "frc1072",
        "country_name": "USA",
        "motto": "Learning Through Guided Experience",
        "rookie_year": 2003
    },
    {
        "website": "http://www.theforceteam.com",
        "name": "UTC/Waters Corporation/Parker Hannifin/Diamond Casting/BAE Systems&Hollis-Brookline High School",
        "locality": "Hollis",
        "nickname": "The Force Team",
        "region": "New Hampshire",
        "team_number": 1073,
        "location": "Hollis, New Hampshire 03049, USA",
        "key": "frc1073",
        "country_name": "USA",
        "motto": "Sanity is Optional",
        "rookie_year": 2003
    },
    {
        "website": null,
        "name": null,
        "locality": null,
        "nickname": null,
        "region": null,
        "team_number": 1074,
        "location": "",
        "key": "frc1074",
        "country_name": null,
        "motto": null,
        "rookie_year": null
    },
    {
        "website": "http://www.wix.com/thesinclairsprockets/2012",
        "name": "GM Canada / Marwood Metal fabricators / Ontario Power Generation & Sinclair Secondary School & Sinclair Secondary School",
        "locality": "Whitby",
        "nickname": "Sprockets",
        "region": "Ontario",
        "team_number": 1075,
        "location": "Whitby, Ontario L1R 2K5, Canada",
        "key": "frc1075",
        "country_name": "Canada",
        "motto": "Rock it like the Sprockets!",
        "rookie_year": 2003
    },
    {
        "website": "http://pihisamurai.org",
        "name": "Maker Works/MDOE/Ford/Interstate All Battery Center Ann Arbor/Asana/Meldium/Olark/Hatch Stamping Company  & Pioneer High School",
        "locality": "Ann Arbor",
        "nickname": "Pi Hi Samurai",
        "region": "Michigan",
        "team_number": 1076,
        "location": "Ann Arbor, Michigan 48103, USA",
        "key": "frc1076",
        "country_name": "USA",
        "motto": null,
        "rookie_year": 2003
    },
    {
        "website": null,
        "name": "NASA/Environmental Aeroscience Corporation/Starbot Inc. & STAR Academy",
        "locality": "Miami",
        "nickname": "",
        "region": "FL",
        "team_number": 1077,
        "location": "Miami, FL, USA",
        "key": "frc1077",
        "country_name": "USA",
        "motto": null,
        "rookie_year": 2003
    },
    {
        "website": null,
        "name": "Economic Development Corporation of Southwest California/Guidant/Southern California Gas Company/Solid State Stamping/Magnecomp Corporation/Cosworth, Inc./Flashpoint Machine/Crowder Machine and Tool/Chaparral High School Education Foundation & Chaparral High School",
        "locality": "Temecula",
        "nickname": "Chaparral Robotic Eng And Tech Explorers Murrieta Amazing Grace Inventors Coalit",
        "region": "CA",
        "team_number": 1079,
        "location": "Temecula, CA, USA",
        "key": "frc1079",
        "country_name": "USA",
        "motto": null,
        "rookie_year": 2003
    },
    {
        "website": "http://www.teamclutch1033.com",
        "name": "KRIMAR Fishing LLC/Flexicell/The Lathrop Family/Solidworks & 4-H Youth Development Organization",
        "locality": "Henrico",
        "nickname": "Resurgence Robotics",
        "region": "Virginia",
        "team_number": 1080,
        "location": "Henrico, Virginia 23231, USA",
        "key": "frc1080",
        "country_name": "USA",
        "motto": "Always CLUTCH!",
        "rookie_year": 2003
    },
    {
        "website": null,
        "name": "Turner Broadcasting System, Inc./National Society of Black Engineers & North Atlanta High School",
        "locality": "Atlanta",
        "nickname": "Tech Warriors",
        "region": "GA",
        "team_number": 1081,
        "location": "Atlanta, GA, USA",
        "key": "frc1081",
        "country_name": "USA",
        "motto": null,
        "rookie_year": 2003
    },
    {
        "website": "http://shsrobot.greatnow.com",
        "name": "NASA/Nevada Space Grant Consortium & Sparks High School",
        "locality": "Sparks",
        "nickname": "Railroaders",
        "region": "NV",
        "team_number": 1082,
        "location": "Sparks, NV, USA",
        "key": "frc1082",
        "country_name": "USA",
        "motto": null,
        "rookie_year": 2003
    },
    {
        "website": "http://www.team-emoticons.com",
        "name": "Siemens Westinghouse/Walt Disney World/Devry University/Metal Essence, Inc. & Winter Park High School & Evans High School & University High School",
        "locality": "Orlando",
        "nickname": "Team Emoticons",
        "region": "FL",
        "team_number": 1083,
        "location": "Orlando, FL, USA",
        "key": "frc1083",
        "country_name": "USA",
        "motto": null,
        "rookie_year": 2003
    },
    {
        "website": null,
        "name": "Sunoco & St. Clair Secondary School",
        "locality": "Sarnia",
        "nickname": "IronColts",
        "region": "ON",
        "team_number": 1084,
        "location": "Sarnia, ON, Canada",
        "key": "frc1084",
        "country_name": "Canada",
        "motto": null,
        "rookie_year": 2003
    },
    {
        "website": "http://www.bluecheese1086.org/",
        "name": "Powertrain Control Solutions/Watson Machine Corp/Midas of Richmond&Deep Run High",
        "locality": "Glen Allen",
        "nickname": "Blue Cheese",
        "region": "Virginia",
        "team_number": 1086,
        "location": "Glen Allen, Virginia 23059, USA",
        "key": "frc1086",
        "country_name": "USA",
        "motto": "A Slice of FIRST",
        "rookie_year": 2003
    },
    {
        "website": "http://west.salkeiz.k12.or.us/contract/robotics/Robotics/index.htm",
        "name": "West Salem High Education Foundation / Hanard Machine Inc / Today's Hair / Schneider Charitable Foundation / West Salem Rotary / Meyer Memorial Trust & West Salem High School",
        "locality": "Salem",
        "nickname": "Titronics Digerati",
        "region": "OR",
        "team_number": 1087,
        "location": "Salem, OR, USA",
        "key": "frc1087",
        "country_name": "USA",
        "motto": null,
        "rookie_year": 2003
    },
    {
        "website": "http://www.swatt1088.com",
        "name": "Toronto District School Board/P S P Steel/My Office/Your Office/Integracon/Firestone Tire and Automotive Centre/Keybase Financial Group/Hart-Well Electrical Company Ltd/Civil Underground & Excavation Co./Metal Air Contractors Ltd./Koch Engineering Co. Ltd./Department of Foreign Affairs and International Trade/Home Hardware Dealers of the Greater Toronto Area/OPTECH INCORPORATED/Rotary Club of Scarborough/TD Waterhouse/International Brotherhood of Electrical Workers LU 353/Highland Creek Communit",
        "locality": "West Hill / Toronto",
        "nickname": "Scarborough Warriors At The Top",
        "region": "ON",
        "team_number": 1088,
        "location": "West Hill / Toronto, ON, Canada",
        "key": "frc1088",
        "country_name": "Canada",
        "motto": null,
        "rookie_year": 2003
    },
    {
        "website": "http://www.mercury1089.com",
        "name": "Bristol Myers-Squibb / nrg / East Windsor Regional School District / TRUMPF Photonics / Wizcom Corporation / Credit Suisse / J. Rupp Construction / Shiseido / East Windsor Dental Arts / East Windsor Education Association / DoD STEM & Hightstown High",
        "locality": "Hightstown",
        "nickname": "Team Mercury",
        "region": "New Jersey",
        "team_number": 1089,
        "location": "Hightstown, New Jersey 08520, USA",
        "key": "frc1089",
        "country_name": "USA",
        "motto": "The Team is what you make it",
        "rookie_year": 2003
    },
    {
        "website": null,
        "name": "NASA/Hereford Camera Co LLC/L.E. Mueller Ind./Sunnen Products Co. & Lindbergh High School",
        "locality": "St Louis",
        "nickname": "",
        "region": "MO",
        "team_number": 1090,
        "location": "St Louis, MO, USA",
        "key": "frc1090",
        "country_name": "USA",
        "motto": null,
        "rookie_year": 2003
    },
    {
        "website": "http://www.team1091.com",
        "name": "Wonderbox Technologies/GE Volunteers/Lutz Family Foundation/Mantz Automation/Kettle Moraine Lion's Club/Broan-Nutone&Hartford High",
        "locality": "Hartford",
        "nickname": "Oriole Assault",
        "region": "Wisconsin",
        "team_number": 1091,
        "location": "Hartford, Wisconsin 53027, USA",
        "key": "frc1091",
        "country_name": "USA",
        "motto": "It doesn\u2019t have to look pretty, it just has to work.",
        "rookie_year": 2003
    },
    {
        "website": "http://chsrabidrabbits.tripod.com",
        "name": "NASA & Campbell High School",
        "locality": "Smyrna",
        "nickname": "The Rabid Rabbits",
        "region": "GA",
        "team_number": 1092,
        "location": "Smyrna, GA, USA",
        "key": "frc1092",
        "country_name": "USA",
        "motto": null,
        "rookie_year": 2003
    },
    {
        "website": null,
        "name": "CAPTECH VENTURES, INC. & Collegiate School",
        "locality": "Richmond",
        "nickname": "Cougars",
        "region": "VA",
        "team_number": 1093,
        "location": "Richmond, VA, USA",
        "key": "frc1093",
        "country_name": "USA",
        "motto": null,
        "rookie_year": 2003
    },
    {
        "website": "http://channelcats.rivercityrobots.org/",
        "name": "The Boeing Company/Boeing Employees Community Fund/Nidec Motor Corporation/Cuivre River Electrical Coop/Toyota/Unisys/Ameren Missouri/Missouri State Technical College&River City Robots",
        "locality": "O Fallon",
        "nickname": "Channel Cats",
        "region": "Missouri",
        "team_number": 1094,
        "location": "O Fallon, Missouri 63366, USA",
        "key": "frc1094",
        "country_name": "USA",
        "motto": "Hooked on Technology",
        "rookie_year": 2003
    },
    {
        "website": null,
        "name": "Mid-Atlantic Broadband Communities Corporation / First Piedmont Corp. / Danville-Pittsylvania County Chamber of Commerce / Mecklenberg Electric Co-operative / Chatham Rotary Club / New London Technology / Pittsylvania Co. Schools & CHATHAM HIGH",
        "locality": "Chatham",
        "nickname": "Metal Minds",
        "region": "Virginia",
        "team_number": 1095,
        "location": "Chatham, Virginia, USA",
        "key": "frc1095",
        "country_name": "USA",
        "motto": null,
        "rookie_year": 2003
    },
    {
        "website": "http://www.radford.edu/~cougars",
        "name": "Virginia Business Education Partnership/Radford Univ & Pulaski County High School",
        "locality": "Radford",
        "nickname": "ZULU",
        "region": "VA",
        "team_number": 1096,
        "location": "Radford, VA, USA",
        "key": "frc1096",
        "country_name": "USA",
        "motto": null,
        "rookie_year": 2003
    },
    {
        "website": "http://robotics.jhs.net",
        "name": "Jesuit High School",
        "locality": "Carmichael",
        "nickname": "Site 3 Engineering",
        "region": "CA",
        "team_number": 1097,
        "location": "Carmichael, CA, USA",
        "key": "frc1097",
        "country_name": "USA",
        "motto": null,
        "rookie_year": 2003
    },
    {
        "website": "http://www.rockwoodrobotics.com",
        "name": "Boeing & Rockwood School District",
        "locality": "Wildwood",
        "nickname": "Rockwood Robotics \"Rock-Bots\"",
        "region": "MO",
        "team_number": 1098,
        "location": "Wildwood, MO, USA",
        "key": "frc1098",
        "country_name": "USA",
        "motto": null,
        "rookie_year": 2003
    },
    {
        "website": "http://www.team1099.org",
        "name": "UTC & Brookfield High School",
        "locality": "Brookfield",
        "nickname": "DiscoTechs",
        "region": "Connecticut",
        "team_number": 1099,
        "location": "Brookfield, Connecticut 06804, USA",
        "key": "frc1099",
        "country_name": "USA",
        "motto": "To inspire people in our community to become excited about and engaged in STEM.",
        "rookie_year": 2003
    },
    {
        "website": "http://www.team1100.org",
        "name": "DOW / Boston Scientific / Intel / NDEP & Algonquin Reg High",
        "locality": "Northboro",
        "nickname": "The T-Hawks",
        "region": "Massachusetts",
        "team_number": 1100,
        "location": "Northboro, Massachusetts 01532, USA",
        "key": "frc1100",
        "country_name": "USA",
        "motto": "Go Team1100!",
        "rookie_year": 2003
    },
    {
        "website": "http://piczo.com/SurreyRoboticsTeam?cr=6&rfm=y",
        "name": "University of North Dakota - & Surrey High School -",
        "locality": "Surrey",
        "nickname": "Mustangs",
        "region": "ND",
        "team_number": 1101,
        "location": "Surrey, ND, USA",
        "key": "frc1101",
        "country_name": "USA",
        "motto": null,
        "rookie_year": 2003
    },
    {
        "website": "http://www.aikencountyrobotics.org",
        "name": "Savannah River Nuclear Solutions/Aiken County Public Schools & Aiken High",
        "locality": "Aiken",
        "nickname": "MAiken Magic ",
        "region": "South Carolina",
        "team_number": 1102,
        "location": "Aiken, South Carolina 29801, USA",
        "key": "frc1102",
        "country_name": "USA",
        "motto": "Together with FIRST, we are M'Aiken Magic happen",
        "rookie_year": 2003
    },
    {
        "website": "http://www.frc1103.org",
        "name": "Thrivent Financial/Haskins Inc/Pentair Water/MPC & Delavan Darien High School",
        "locality": "Delavan",
        "nickname": "Frankenbots",
        "region": "WI",
        "team_number": 1103,
        "location": "Delavan, WI, USA",
        "key": "frc1103",
        "country_name": "USA",
        "motto": null,
        "rookie_year": 2003
    },
    {
        "website": "http://team1104.ozautomation.com",
        "name": "Kansas Space Grant Consortium and Axtell High School/OZ Automation & Axtell High School",
        "locality": "Axtell",
        "nickname": "TechnoEagles",
        "region": "KS",
        "team_number": 1104,
        "location": "Axtell, KS, USA",
        "key": "frc1104",
        "country_name": "USA",
        "motto": null,
        "rookie_year": 2003
    },
    {
        "website": null,
        "name": "NASA/USC MESA & Washington Prep HS",
        "locality": "Los Angeles",
        "nickname": "The Prep",
        "region": "CA",
        "team_number": 1105,
        "location": "Los Angeles, CA, USA",
        "key": "frc1105",
        "country_name": "USA",
        "motto": null,
        "rookie_year": 2003
    },
    {
        "website": null,
        "name": "North Dakota Space Grant Consortium/NASA & May-Port C.G. High School",
        "locality": "Mayville",
        "nickname": "patriots",
        "region": "ND",
        "team_number": 1106,
        "location": "Mayville, ND, USA",
        "key": "frc1106",
        "country_name": "USA",
        "motto": null,
        "rookie_year": 2003
    },
    {
        "website": "http://www.pantherrobotics.com",
        "name": "City of Paola/Dean Scherman Memorial Fund/The Baehr Foundation/KC Power Source/Kalmar Solutions/Monsanto Fund/National Instruments & Paola High",
        "locality": "Paola",
        "nickname": "Panther Robotics",
        "region": "Kansas",
        "team_number": 1108,
        "location": "Paola, Kansas 66071, USA",
        "key": "frc1108",
        "country_name": "USA",
        "motto": "A Panther among robots is a most fearsome thing.",
        "rookie_year": 2003
    },
    {
        "website": null,
        "name": "Lively District Secondary School",
        "locality": "Lively",
        "nickname": "The RoboHawks",
        "region": "ON",
        "team_number": 1109,
        "location": "Lively, ON, Canada",
        "key": "frc1109",
        "country_name": "Canada",
        "motto": null,
        "rookie_year": 2003
    },
    {
        "website": "http://hhsrobotics.circuitrunners.com",
        "name": "Lockheed Martin Aeronautics- Palmdale / Rancho Vista Development Corp / GIMJ Investment Group LLC-Wingstop Franchisees & Highland High School",
        "locality": "Palmdale",
        "nickname": "Binary Bulldogs",
        "region": "CA",
        "team_number": 1110,
        "location": "Palmdale, CA, USA",
        "key": "frc1110",
        "country_name": "USA",
        "motto": null,
        "rookie_year": 2003
    },
    {
        "website": "http://www.powerhawks.org/",
        "name": "The Power Hawks Robotics Club, Inc./NASA/Anne Arundel County Public Schools/Microsoft/Inovex Information Systems/Leidos/Daly Computers/Dover Networks LLC/Earth Observation Technologies LLC/Koons Ford of Annapolis/Family Veterinary Clinic/Koons Toyota of Annapolis/Selby Bay Marina/Hughes Remodeling LLC/NorthPoint Sign and Graphic Services/Bayside Nissan of Annapolis/Commodore Mayo Kiwanis Club/Uni-Tech Collision Repair/Google/BIT Solutions/Pro-Air, Inc./McCarter Welding/Systems Planning and Analysis, Inc./Mike & Pat Meinhold/Michelle & Robert Phibbons/Brumby Contracting Inc./Arundel Self Storage Annapolis & South River High",
        "locality": "Edgewater",
        "nickname": "The Power Hawks Robotics Team",
        "region": "Maryland",
        "team_number": 1111,
        "location": "Edgewater, Maryland 21037, USA",
        "key": "frc1111",
        "country_name": "USA",
        "motto": "\"Soaring to success\"",
        "rookie_year": 2003
    },
    {
        "website": null,
        "name": "TDSB & Timothy Eaton BTI",
        "locality": "Toronto",
        "nickname": "Huskies",
        "region": "ON",
        "team_number": 1112,
        "location": "Toronto, ON, Canada",
        "key": "frc1112",
        "country_name": "Canada",
        "motto": null,
        "rookie_year": 2003
    },
    {
        "website": null,
        "name": "Temple Engineering & High School of Engineering and Science",
        "locality": "Philadelphia",
        "nickname": "Urban Assault",
        "region": "PA",
        "team_number": 1113,
        "location": "Philadelphia, PA, USA",
        "key": "frc1113",
        "country_name": "USA",
        "motto": null,
        "rookie_year": 2003
    },
    {
        "website": "http://www.simbotics.org",
        "name": "Innovation First International/General Motors St. Catharines Powertrain & Governor Simcoe Secondary School",
        "locality": "St Catharines",
        "nickname": "Simbotics",
        "region": "Ontario",
        "team_number": 1114,
        "location": "St Catharines, Ontario L2N 2Z7, Canada",
        "key": "frc1114",
        "country_name": "Canada",
        "motto": "Ball so hard",
        "rookie_year": 2003
    },
    {
        "website": null,
        "name": "NASA & Santa Monica High School",
        "locality": "Santa Monica",
        "nickname": "Deus Ex Machina",
        "region": "CA",
        "team_number": 1115,
        "location": "Santa Monica, CA, USA",
        "key": "frc1115",
        "country_name": "USA",
        "motto": null,
        "rookie_year": 2003
    },
    {
        "website": null,
        "name": "NASA & Valley Alternative Schools",
        "locality": "La Puente",
        "nickname": "",
        "region": "CA",
        "team_number": 1116,
        "location": "La Puente, CA, USA",
        "key": "frc1116",
        "country_name": "USA",
        "motto": null,
        "rookie_year": 2003
    },
    {
        "website": "http://www.s-dhs.org",
        "name": "NASA/Kimberly-Clark Corp/University of Tennessee Knoxville/Phelps Engineering Company Inc. & South-Doyle High",
        "locality": "Knoxville",
        "nickname": "NERDS INC.",
        "region": "TN",
        "team_number": 1118,
        "location": "Knoxville, TN, USA",
        "key": "frc1118",
        "country_name": "USA",
        "motto": null,
        "rookie_year": 2003
    },
    {
        "website": null,
        "name": "FLEXTRONICS/NXP/City of Milpitas & Milpitas High School",
        "locality": "Milpitas",
        "nickname": "Milpitas Xtreme Robotics",
        "region": "CA",
        "team_number": 1120,
        "location": "Milpitas, CA, USA",
        "key": "frc1120",
        "country_name": "USA",
        "motto": null,
        "rookie_year": 2003
    },
    {
        "website": "http://none",
        "name": "NASA Glenn Research Center/GE Consumer Products-Lighting/RTA & Collinwood Computech Senior High School",
        "locality": "Cleveland",
        "nickname": "Railbots",
        "region": "OH",
        "team_number": 1122,
        "location": "Cleveland, OH, USA",
        "key": "frc1122",
        "country_name": "USA",
        "motto": null,
        "rookie_year": 2003
    },
    {
        "website": "http://www.aim-robotics.org",
        "name": "The Soter Group/Booz Allen Hamilton/General Dynamics Mission Systems/Da Bus&Neighborhood Group",
        "locality": "Fairfax",
        "nickname": "AIM Robotics",
        "region": "Virginia",
        "team_number": 1123,
        "location": "Fairfax, Virginia 22030, USA",
        "key": "frc1123",
        "country_name": "USA",
        "motto": "At AIM we build in heavy metal",
        "rookie_year": 2003
    },
    {
        "website": "http://www.uberbots.org",
        "name": "Avon Public Schools/UTC/OFS Fitel/Walmart/Wittman Battenfeld/Simsbury Bank&Avon High School",
        "locality": "Avon",
        "nickname": "UberBots",
        "region": "Connecticut",
        "team_number": 1124,
        "location": "Avon, Connecticut 06001, USA",
        "key": "frc1124",
        "country_name": "USA",
        "motto": "We eat Kryptonite for breakfast!",
        "rookie_year": 2003
    },
    {
        "website": "http://powayusd.sdcoe.k12.ca.us/pusdrbhs",
        "name": "Northrop-Grumman & Rancho Bernardo High School",
        "locality": "San Diego",
        "nickname": "Broncos",
        "region": "CA",
        "team_number": 1125,
        "location": "San Diego, CA, USA",
        "key": "frc1125",
        "country_name": "USA",
        "motto": null,
        "rookie_year": 2003
    },
    {
        "website": "http://www.gosparx.org",
        "name": "Xerox Corporation/Webster Central School District&Thomas High School&Webster-Schroeder High School",
        "locality": "Webster",
        "nickname": "SPARX",
        "region": "New York",
        "team_number": 1126,
        "location": "Webster, New York 14580, USA",
        "key": "frc1126",
        "country_name": "USA",
        "motto": null,
        "rookie_year": 2003
    },
    {
        "website": "http://www.firstinspires.org/",
        "name": "ViaSat/WIT/MB&R Engineering/TechTop & Milton High School",
        "locality": "Milton",
        "nickname": "Lotus Robotics",
        "region": "Georgia",
        "team_number": 1127,
        "location": "Milton, Georgia 30004, USA",
        "key": "frc1127",
        "country_name": "USA",
        "motto": "We love robotics!",
        "rookie_year": 2003
    },
    {
        "website": "http://www.geocities.com/rtcrobotproject/index.html",
        "name": "CAE Inc & Rosemount Technology  Centre",
        "locality": "Montreal",
        "nickname": "",
        "region": "QC",
        "team_number": 1129,
        "location": "Montreal, QC, Canada",
        "key": "frc1129",
        "country_name": "Canada",
        "motto": null,
        "rookie_year": 2003
    },
    {
        "website": null,
        "name": "Boeing/Albany Schools Foundation/Ashbrooke Independent School & South Albany High School",
        "locality": "Albany",
        "nickname": "Phantoms",
        "region": "OR",
        "team_number": 1130,
        "location": "Albany, OR, USA",
        "key": "frc1130",
        "country_name": "USA",
        "motto": null,
        "rookie_year": 2003
    },
    {
        "website": "http://www.team1131.com",
        "name": "NASA/Mack Truck/Washington County Public Schools & Washington County Technical High School",
        "locality": "Hagerstown",
        "nickname": "Robo-Techs",
        "region": "MD",
        "team_number": 1131,
        "location": "Hagerstown, MD, USA",
        "key": "frc1131",
        "country_name": "USA",
        "motto": null,
        "rookie_year": 2003
    },
    {
        "website": "http://www.raptar.net",
        "name": "Fredericksburg Academy & RAPTAR",
        "locality": "Ashland",
        "nickname": "R.A.P.T.A.R. (Robotics Adventure Professionals of Tidewater and Richmond)",
        "region": "VA",
        "team_number": 1132,
        "location": "Ashland, VA, USA",
        "key": "frc1132",
        "country_name": "USA",
        "motto": null,
        "rookie_year": 2003
    },
    {
        "website": null,
        "name": "NASA/Nevada Space Grant Consortium/University of Nevada, Reno & Procter Hug High School",
        "locality": "Reno",
        "nickname": "The Hug A Bots",
        "region": "NV",
        "team_number": 1133,
        "location": "Reno, NV, USA",
        "key": "frc1133",
        "country_name": "USA",
        "motto": null,
        "rookie_year": 2003
    },
    {
        "website": "http://home.earthlink.net/~whsrobotics",
        "name": "Raytheon/Brenner-Fiedler Pneumatics/Boeing/Shining Technology/Cardinal Pacific Escrow/JAGZ & Whitney High School",
        "locality": "Cerritos",
        "nickname": "WHS Schmoebotics",
        "region": "CA",
        "team_number": 1135,
        "location": "Cerritos, CA, USA",
        "key": "frc1135",
        "country_name": "USA",
        "motto": null,
        "rookie_year": 2003
    },
    {
        "website": "http://mt.miguelrobotics.8m.com",
        "name": "NASA/Navair & Mt. Miguel High School",
        "locality": "Spring Valley",
        "nickname": "Nutty Genius's",
        "region": "CA",
        "team_number": 1136,
        "location": "Spring Valley, CA, USA",
        "key": "frc1136",
        "country_name": "USA",
        "motto": null,
        "rookie_year": 2003
    },
    {
        "website": "http://firstteam1137.com/",
        "name": "Community of Mathews County, Virginia/Mathews High School/Mathews Community Foundation & Mathews High",
        "locality": "Mathews",
        "nickname": "Rocket Sauce",
        "region": "Virginia",
        "team_number": 1137,
        "location": "Mathews, Virginia 23109, USA",
        "key": "frc1137",
        "country_name": "USA",
        "motto": "prepare for the worst,expect the best",
        "rookie_year": 2003
    },
    {
        "website": "http://team1138robotics.com",
        "name": "Aerojet Rocketdyne/Xerox Corporation/The Boeing Company/Frazier Aviation/Numatc Engineering/Gardena Specialized Processing/ToyBuilder Labs/Solidworks/JRM Enterprises/McConnell, Montalvo& Assoc. Inc./Vico Tool and Die/Snap! Productions & Chaminade College Preparatory High School",
        "locality": "West Hills",
        "nickname": "Eagle Engineering",
        "region": "California",
        "team_number": 1138,
        "location": "West Hills, California 91304, USA",
        "key": "frc1138",
        "country_name": "USA",
        "motto": "We Build For a Better Tomorrow",
        "rookie_year": 2003
    },
    {
        "website": "http://geargrinders.net",
        "name": "Chamblee High School",
        "locality": "Chamblee",
        "nickname": "The Chamblee Gear Grinders",
        "region": "GA",
        "team_number": 1139,
        "location": "Chamblee, GA, USA",
        "key": "frc1139",
        "country_name": "USA",
        "motto": null,
        "rookie_year": 2003
    },
    {
        "website": "http://hollyareaschools.com/hhs/academics/robotics/index.html",
        "name": "Holly High School",
        "locality": "Holly",
        "nickname": "MAGNADON",
        "region": "MI",
        "team_number": 1140,
        "location": "Holly, MI, USA",
        "key": "frc1140",
        "country_name": "USA",
        "motto": null,
        "rookie_year": 2003
    },
    {
        "website": "http://www.tasrobotics.com",
        "name": "G.E. Volunteers & Thomas A. Stewart High School",
        "locality": "Peterborough",
        "nickname": "TAS Megawatts",
        "region": "ON",
        "team_number": 1141,
        "location": "Peterborough, ON, Canada",
        "key": "frc1141",
        "country_name": "Canada",
        "motto": null,
        "rookie_year": 2003
    },
    {
        "website": null,
        "name": "NASA & Mainland High School",
        "locality": "Daytona Beach",
        "nickname": "",
        "region": "FL",
        "team_number": 1142,
        "location": "Daytona Beach, FL, USA",
        "key": "frc1142",
        "country_name": "USA",
        "motto": null,
        "rookie_year": 2003
    },
    {
        "website": "http://www.cruzincomets.com",
        "name": "Lockheed Martin/One Point Inc./Abington Education Improvement Organization & Abington Heights Hs",
        "locality": "Clarks Summit",
        "nickname": "Cruzin' Comets",
        "region": "Pennsylvania",
        "team_number": 1143,
        "location": "Clarks Summit, Pennsylvania 18411, USA",
        "key": "frc1143",
        "country_name": "USA",
        "motto": null,
        "rookie_year": 2003
    },
    {
        "website": "http://www.coquitron.com",
        "name": "Ethicon LLC & Vocacional Antonio Fernos Isern & Baptist Private High School Caguas & Vocacional Republica de Costa Rica & Puerto Rico Christian School & Petra Mercado & Jos\u00e9 Campeche High School & Vocacional Antonio Fernos Isern & St. Mary's High School & Luis Mu\u00f1oz Rivera High School Utuado & Jose Gautiier Benitez High School & Vocacional Antonio Fernos Isern High School & A.C.I.S. High School & San Jose Private High School & Notre Dame High School & Jos\u00e9 Campeche High School",
        "locality": "San Lorenzo",
        "nickname": "Coquitron",
        "region": "PR",
        "team_number": 1144,
        "location": "San Lorenzo, PR, USA",
        "key": "frc1144",
        "country_name": "USA",
        "motto": null,
        "rookie_year": 2003
    },
    {
        "website": "http://www.menihekhigh.k12.nf.ca",
        "name": "Newfoundland & Labrador Hydro/IOC/Hodge Brothers/Wabush Mines/P&H/Town Wabush/Lab Glass & Alumium/Saan/Mother Woods/Scotia Bank/Fitz's Enterprizes/CWD/Office Works/Budget/CIBC/HJ O'Connell/Carol Auto/Town of Lab City & Menihek  High School",
        "locality": "Labrador City",
        "nickname": "Magic",
        "region": "NL",
        "team_number": 1146,
        "location": "Labrador City, NL, Canada",
        "key": "frc1146",
        "country_name": "Canada",
        "motto": null,
        "rookie_year": 2003
    },
    {
        "website": "http://www.freewebs.com/eghsrobotics",
        "name": "BAE Systems/Optimist Club/thermogenesis & Elk Grove High School",
        "locality": "Elk Grove",
        "nickname": "The Herdinators",
        "region": "CA",
        "team_number": 1147,
        "location": "Elk Grove, CA, USA",
        "key": "frc1147",
        "country_name": "USA",
        "motto": null,
        "rookie_year": 2003
    },
    {
        "website": "http://team1148.com/",
        "name": "Harvard-Westlake School",
        "locality": "Studio City",
        "nickname": "Wafflebots",
        "region": "California",
        "team_number": 1148,
        "location": "Studio City, California 91604, USA",
        "key": "frc1148",
        "country_name": "USA",
        "motto": null,
        "rookie_year": 2003
    },
    {
        "website": null,
        "name": "NASA & Thousand Oaks High School",
        "locality": "Thousand Oaks",
        "nickname": "",
        "region": "CA",
        "team_number": 1149,
        "location": "Thousand Oaks, CA, USA",
        "key": "frc1149",
        "country_name": "USA",
        "motto": null,
        "rookie_year": 2003
    },
    {
        "website": "http://n/a",
        "name": "NASA/Dr. C/Microchip Technology Inc./DeVry Institute-Phoenix & PACE Preparatory Academy",
        "locality": "Camp Verde",
        "nickname": "",
        "region": "AZ",
        "team_number": 1150,
        "location": "Camp Verde, AZ, USA",
        "key": "frc1150",
        "country_name": "USA",
        "motto": null,
        "rookie_year": 2003
    },
    {
        "website": "http://www.contracosta.edu/mchs/robotics",
        "name": "Contra Costa College/NASA/The Ed Fund/Tap Plastics/Honda of El Cerrito/TCI Aluminum North & Middle College High School",
        "locality": "San Pablo",
        "nickname": "The Hitchhikers",
        "region": "CA",
        "team_number": 1151,
        "location": "San Pablo, CA, USA",
        "key": "frc1151",
        "country_name": "USA",
        "motto": null,
        "rookie_year": 2003
    },
    {
        "website": null,
        "name": "Olin College & Community Academy of Science and Health & The Engineering School & Social Justice Academy",
        "locality": "Hyde Park",
        "nickname": "Blue Stars",
        "region": "MA",
        "team_number": 1152,
        "location": "Hyde Park, MA, USA",
        "key": "frc1152",
        "country_name": "USA",
        "motto": null,
        "rookie_year": 2003
    },
    {
        "website": "http://www.walpolerobotics.org/",
        "name": "The Gallivan Family/Dale Tool & Die/Merrikin Engineering/Waters Corporation/RiverTaw & Walpole High",
        "locality": "Walpole",
        "nickname": "Robo-Rebels",
        "region": "Massachusetts",
        "team_number": 1153,
        "location": "Walpole, Massachusetts 02081, USA",
        "key": "frc1153",
        "country_name": "USA",
        "motto": "Join The Revolution!",
        "rookie_year": 2003
    },
    {
        "website": null,
        "name": "Virginia Business Education Partnership/James Madison University College of Integrated Science and Technology & Harrisonburg High School",
        "locality": "Harrisonburburg",
        "nickname": "Harrisonburg High School Blue Streaks",
        "region": "VA",
        "team_number": 1154,
        "location": "Harrisonburburg, VA, USA",
        "key": "frc1154",
        "country_name": "USA",
        "motto": null,
        "rookie_year": 2003
    },
    {
        "website": "http://bxsciborgs.com/",
        "name": "The Alumni Association of The Bronx High School of Science/ConEdison/Bloomberg/Solon E. Summerfield Foundation, Inc. & Bronx High School of Science",
        "locality": "Bronx",
        "nickname": "SciBorgs",
        "region": "New York",
        "team_number": 1155,
        "location": "Bronx, New York 10468, USA",
        "key": "frc1155",
        "country_name": "USA",
        "motto": "Practice Random Acts of Genius",
        "rookie_year": 2003
    },
    {
        "website": "http://www.undercontrol1156.com",
        "name": "John Deere / PTC / National Instruments / Konrad Caminhoes / Novo Hamburgo City Hall / Severo Industria / Metalthaga / Courovale / LRB Qu\u00edmica  & Marista Pio XII ",
        "locality": "Novo Hamburgo",
        "nickname": "Under Control",
        "region": "Rio Grande do Sul",
        "team_number": 1156,
        "location": "Novo Hamburgo, Rio Grande do Sul 93510-060, Brazil",
        "key": "frc1156",
        "country_name": "Brazil",
        "motto": "Our mission is to build better people ",
        "rookie_year": 2003
    },
    {
        "website": "http://www.landsharkrobotics.org",
        "name": "Jim and Dede Bartlett Foundation/Ball Aerospace&Boulder High School&New Vista High School&September School&Watershed School",
        "locality": "Boulder",
        "nickname": "Landsharks",
        "region": "Colorado",
        "team_number": 1157,
        "location": "Boulder, Colorado 80302, USA",
        "key": "frc1157",
        "country_name": "USA",
        "motto": "\"Cable not Dish\"",
        "rookie_year": 2003
    },
    {
        "website": "http://www.eaglecorps.me",
        "name": "EnCana Oil & Gas / US Forest Service / Grimsley's / Collbran Job Corps Grand Mesa / Grand Junction Chrysler Jeep Dodge & Collbran Job Corps Grand Mesa High School",
        "locality": "Collbran",
        "nickname": "The Corps",
        "region": "CO",
        "team_number": 1158,
        "location": "Collbran, CO, USA",
        "key": "frc1158",
        "country_name": "USA",
        "motto": null,
        "rookie_year": 2003
    },
    {
        "website": "http://ramonarampage1159.com/",
        "name": "Boeing / Galvanix / Office of Senator Gil Cedillo / Northrop Grumman / California Institute of Technology / Macy's Foundation / Drs. Jack and Susan Blumenthal / Jet Propulsion Laboratory / Space X & Ramona Convent Secondary School",
        "locality": "Alhambra",
        "nickname": "Ramona Rampage",
        "region": "California",
        "team_number": 1159,
        "location": "Alhambra, California 91803, USA",
        "key": "frc1159",
        "country_name": "USA",
        "motto": "It's not ghetto; it's pragmatic.",
        "rookie_year": 2003
    },
    {
        "website": "http://www.titaniumrobotics.com",
        "name": "The Boeing Company/NASA-JPL/SMHS PTSA/Chinese Club of San Marino/The San Marino Tribune/San Marino City Club/Tony's Pizza&San Marino High",
        "locality": "San Marino",
        "nickname": "Titanium",
        "region": "California",
        "team_number": 1160,
        "location": "San Marino, California 91108, USA",
        "key": "frc1160",
        "country_name": "USA",
        "motto": "Feelings are important, but it's the Physics that matters!",
        "rookie_year": 2003
    },
    {
        "website": null,
        "name": "Machine Science/Nypro Inc & Tech Boston  Academy",
        "locality": "Brighton",
        "nickname": "",
        "region": "MA",
        "team_number": 1161,
        "location": "Brighton, MA, USA",
        "key": "frc1161",
        "country_name": "USA",
        "motto": null,
        "rookie_year": 2003
    },
    {
        "website": null,
        "name": "NASA White Sands Test Facility & Canutillo High / NMSU",
        "locality": "Canutillo",
        "nickname": "",
        "region": "TX",
        "team_number": 1162,
        "location": "Canutillo, TX, USA",
        "key": "frc1162",
        "country_name": "USA",
        "motto": null,
        "rookie_year": 2003
    },
    {
        "website": "http://nhm7792.k12.sd.us",
        "name": "Johnson Controls/SDSGC & Faulkton Area HS",
        "locality": "Faulkton",
        "nickname": "Trojan Horses",
        "region": "SD",
        "team_number": 1163,
        "location": "Faulkton, SD, USA",
        "key": "frc1163",
        "country_name": "USA",
        "motto": null,
        "rookie_year": 2003
    },
    {
        "website": "http://www.projectneo.net",
        "name": "NASA/Boeing/Coyote Cabling & Early College High School",
        "locality": "Las Cruces",
        "nickname": "Project NEO",
        "region": "New Mexico",
        "team_number": 1164,
        "location": "Las Cruces, New Mexico 88005, USA",
        "key": "frc1164",
        "country_name": "USA",
        "motto": "Project NEO Rocks",
        "rookie_year": 2003
    },
    {
        "website": "http://teamparadise1165.com",
        "name": "Bechtel & Paradise Valley High School",
        "locality": "Phoenix",
        "nickname": "Team Paradise",
        "region": "Arizona",
        "team_number": 1165,
        "location": "Phoenix, Arizona 85032, USA",
        "key": "frc1165",
        "country_name": "USA",
        "motto": "If it was easy, you didn't do it right.",
        "rookie_year": 2003
    },
    {
        "website": "http://www.savannah.chatham.k12.ga.us/groves/HighLander%20Index.htm",
        "name": "NASA/JCB Inc./US Army Corp of Engineers/Savannah Tech & Groves High School",
        "locality": "Garden City",
        "nickname": "Highlander Robotics",
        "region": "GA",
        "team_number": 1166,
        "location": "Garden City, GA, USA",
        "key": "frc1166",
        "country_name": "USA",
        "motto": null,
        "rookie_year": 2003
    },
    {
        "website": "http://www.savannah.chatham.k12.ga.us/schools/wfhs/index.html",
        "name": "NASA/Armstrong Atlantic State University/Armstrong & Windsor Forest High School",
        "locality": "Savannah",
        "nickname": "Knightmares",
        "region": "GA",
        "team_number": 1167,
        "location": "Savannah, GA, USA",
        "key": "frc1167",
        "country_name": "USA",
        "motto": null,
        "rookie_year": 2003
    },
    {
        "website": "http://team1168robotics.blogspot.com/",
        "name": "CTDI/Exelon Generation & Malvern Preparatory School",
        "locality": "Malvern",
        "nickname": "Malvern Robotics",
        "region": "Pennsylvania",
        "team_number": 1168,
        "location": "Malvern, Pennsylvania 19355, USA",
        "key": "frc1168",
        "country_name": "USA",
        "motto": null,
        "rookie_year": 2003
    },
    {
        "website": "http://www.geocities.com/kahoe1/indexdark.html",
        "name": "University of Alaska-Fairbanks/INRA/NASA/British Petroleum/Goldstream Lions/Met-Life/Gene's Crysler & West Valley High School & Lathrop High School",
        "locality": "Fairbanks",
        "nickname": "Fairbanks Robarctics",
        "region": "AK",
        "team_number": 1169,
        "location": "Fairbanks, AK, USA",
        "key": "frc1169",
        "country_name": "USA",
        "motto": null,
        "rookie_year": 2003
    },
    {
        "website": null,
        "name": "SMC Corporation & Richmond Technical Center",
        "locality": "Richmond",
        "nickname": "We Tek Too",
        "region": "VA",
        "team_number": 1172,
        "location": "Richmond, VA, USA",
        "key": "frc1172",
        "country_name": "USA",
        "motto": null,
        "rookie_year": 2003
    },
    {
        "website": "http://www.mechajagrobotics.org",
        "name": "Stephenson High School",
        "locality": "Stone Mountain",
        "nickname": "MECHA-JAGS",
        "region": "GA",
        "team_number": 1177,
        "location": "Stone Mountain, GA, USA",
        "key": "frc1177",
        "country_name": "USA",
        "motto": null,
        "rookie_year": 2003
    },
    {
        "website": "http://frcteam1178.webs.com",
        "name": "The Boeing Company & De Smet Jesuit High School",
        "locality": "Saint Louis",
        "nickname": "DuRT  (De Smet united Robotics Team)",
        "region": "Missouri",
        "team_number": 1178,
        "location": "Saint Louis, Missouri 63141, USA",
        "key": "frc1178",
        "country_name": "USA",
        "motto": null,
        "rookie_year": 2003
    },
    {
        "website": "http://www.smashers.org/PostNuke-0.750/html/index.php",
        "name": "Gulfstream Aerospace Corporation/Motion Industries & Sol C Johnson High School",
        "locality": "Thunderbolt",
        "nickname": "Atomsmashers",
        "region": "GA",
        "team_number": 1180,
        "location": "Thunderbolt, GA, USA",
        "key": "frc1180",
        "country_name": "USA",
        "motto": null,
        "rookie_year": 2003
    },
    {
        "website": null,
        "name": "Intesys & Mesquite High School",
        "locality": "Gilbert",
        "nickname": "",
        "region": "AZ",
        "team_number": 1181,
        "location": "Gilbert, AZ, USA",
        "key": "frc1181",
        "country_name": "USA",
        "motto": null,
        "rookie_year": 2003
    },
    {
        "website": null,
        "name": "The Boeing Company/Heat Transfer Systems/Savvis Inc./Electronic Support Systems/Rockwell Automation/Bendler Boiler/Dobbs Tire and Auto Centers",
        "locality": "Manchester",
        "nickname": "Patriots",
        "region": "MO",
        "team_number": 1182,
        "location": "Manchester, MO, USA",
        "key": "frc1182",
        "country_name": "USA",
        "motto": null,
        "rookie_year": null
    },
    {
        "website": null,
        "name": "Collins Hill High School",
        "locality": "Suwanee",
        "nickname": "Team Ascari",
        "region": "GA",
        "team_number": 1183,
        "location": "Suwanee, GA, USA",
        "key": "frc1183",
        "country_name": "USA",
        "motto": null,
        "rookie_year": 2003
    },
    {
        "website": "http://www.cobrarobotics.com",
        "name": "DeWALT/JE JACOBS/Army Research Laboratory & Harford Technical High School",
        "locality": "Bel Air",
        "nickname": "Cobra Robotics",
        "region": "MD",
        "team_number": 1184,
        "location": "Bel Air, MD, USA",
        "key": "frc1184",
        "country_name": "USA",
        "motto": null,
        "rookie_year": 2003
    },
    {
        "website": "http://www.rec.ri.cmu.edu/education/xbots/index.html",
        "name": "Schenley High School",
        "locality": "Pittsburgh",
        "nickname": "The X-Bots",
        "region": "PA",
        "team_number": 1185,
        "location": "Pittsburgh, PA, USA",
        "key": "frc1185",
        "country_name": "USA",
        "motto": null,
        "rookie_year": 2003
    },
    {
        "website": "http://www.geocities.com/firebird_1187",
        "name": "Mercedes Benz/NJIT & Newark Public Shcools  & University High School",
        "locality": "Newark",
        "nickname": "Brick City Flame",
        "region": "NJ",
        "team_number": 1187,
        "location": "Newark, NJ, USA",
        "key": "frc1187",
        "country_name": "USA",
        "motto": null,
        "rookie_year": 2003
    },
    {
        "website": "http://www.team1188.org",
        "name": "General Motors/Hitachi Automotive/Ford/FormTech Industries/Michigan Dept of Education/MecaPlast/NASA/kVA/ARC Investment&Royal Oak High School",
        "locality": "Royal Oak",
        "nickname": "RoboRavens",
        "region": "Michigan",
        "team_number": 1188,
        "location": "Royal Oak, Michigan 48073, USA",
        "key": "frc1188",
        "country_name": "USA",
        "motto": "Grace is courage under pressure. \"Hemmingway\"",
        "rookie_year": 2003
    },
    {
        "website": "http://gearheads1189.weebly.com",
        "name": "General Motors LLC/Grosse Pointe Foundation for Public Education. /Ray Laethem/Grosse Pointe Public Schools/Hella/FIRST Alumni and Mentor Network at Michigan &Grosse Pointe North High School&Grosse Pointe South High School",
        "locality": "Grosse Pointe",
        "nickname": "The Gearheads",
        "region": "Michigan",
        "team_number": 1189,
        "location": "Grosse Pointe, Michigan 48236, USA",
        "key": "frc1189",
        "country_name": "USA",
        "motto": "We're all Gearheads",
        "rookie_year": 2003
    },
    {
        "website": "http://www.anonobots-1190.com",
        "name": "Overland High School",
        "locality": "Aurora",
        "nickname": "ANONOBOTS",
        "region": "CO",
        "team_number": 1190,
        "location": "Aurora, CO, USA",
        "key": "frc1190",
        "country_name": "USA",
        "motto": null,
        "rookie_year": 2003
    },
    {
        "website": "http://www.kosd.org/FIRST",
        "name": "Keystone Oaks High School",
        "locality": "Pittsburgh",
        "nickname": "Eagles",
        "region": "PA",
        "team_number": 1191,
        "location": "Pittsburgh, PA, USA",
        "key": "frc1191",
        "country_name": "USA",
        "motto": null,
        "rookie_year": 2003
    },
    {
        "website": null,
        "name": "NASA/Michigan Technological University & Conserve School",
        "locality": "Land O Lakes",
        "nickname": "",
        "region": "WI",
        "team_number": 1192,
        "location": "Land O Lakes, WI, USA",
        "key": "frc1192",
        "country_name": "USA",
        "motto": null,
        "rookie_year": 2003
    },
    {
        "website": "http://www.patriots-ttc.org",
        "name": "United States Navy / Northrop Grumman / National Society of Black Engineers / The Custom District & Black Engineers & CHARLES HERBERT FLOWERS HIGH",
        "locality": "Springdale",
        "nickname": "S.O.A.R. (Students of Applied Robotics)",
        "region": "Maryland",
        "team_number": 1195,
        "location": "Springdale, Maryland, USA",
        "key": "frc1195",
        "country_name": "USA",
        "motto": null,
        "rookie_year": 2003
    },
    {
        "website": "http://www.team1197.com",
        "name": "Northrop Grumman/The Boeing Company/Raytheon/Team Engineering, Inc/Toyota Motor Sales, U.S.A./The Johnson Family/Moog Aircraft Group/El Camino College/Torrance Education Foundation/ExxonMobil/LA Solar/The Awesome Foundation - LA South Bay Chapter/Teradyne/Sonos/Glico/Facet Interactive/Torrance Police Department  & South High",
        "locality": "Torrance",
        "nickname": "TorBots",
        "region": "California",
        "team_number": 1197,
        "location": "Torrance, California 90505, USA",
        "key": "frc1197",
        "country_name": "USA",
        "motto": "Student run, student done",
        "rookie_year": 2003
    },
    {
        "website": null,
        "name": "Educational Robot Company & North Hills Senior High School",
        "locality": "Pittsburgh",
        "nickname": "",
        "region": "PA",
        "team_number": 1199,
        "location": "Pittsburgh, PA, USA",
        "key": "frc1199",
        "country_name": "USA",
        "motto": null,
        "rookie_year": 2003
    },
    {
        "website": null,
        "name": "Central Westmoreland CTC",
        "locality": "New Stanton",
        "nickname": "",
        "region": "PA",
        "team_number": 1200,
        "location": "New Stanton, PA, USA",
        "key": "frc1200",
        "country_name": "USA",
        "motto": null,
        "rookie_year": 2003
    },
    {
        "website": "http://www.csimonroe.com",
        "name": "NASA Stennis Space Center/Southern Tooling and Machine Works & Monroe County Vocational Center",
        "locality": "Aberdeen",
        "nickname": "CSI:Monroe",
        "region": "MS",
        "team_number": 1201,
        "location": "Aberdeen, MS, USA",
        "key": "frc1201",
        "country_name": "USA",
        "motto": null,
        "rookie_year": 2003
    },
    {
        "website": null,
        "name": "CTC Foundation & Forest Hills High School",
        "locality": "Sidman",
        "nickname": "",
        "region": "PA",
        "team_number": 1202,
        "location": "Sidman, PA, USA",
        "key": "frc1202",
        "country_name": "USA",
        "motto": null,
        "rookie_year": 2003
    },
    {
        "website": "http://shswbschools.sharpschool.com/staff_directory/technology_education/mr__de_Simone/robotics",
        "name": "",
        "locality": "West Babylon",
        "nickname": "PANDEMONIUM",
        "region": "NY",
        "team_number": 1203,
        "location": "West Babylon, NY, USA",
        "key": "frc1203",
        "country_name": "USA",
        "motto": null,
        "rookie_year": 2003
    },
    {
        "website": null,
        "name": "NASA & St. Edward High School",
        "locality": "Lakewood",
        "nickname": "Eagles",
        "region": "OH",
        "team_number": 1204,
        "location": "Lakewood, OH, USA",
        "key": "frc1204",
        "country_name": "USA",
        "motto": null,
        "rookie_year": 2003
    },
    {
        "website": "http://classroom.webb.esc1.net/webs/bhs/bhs_robotics.htm",
        "name": "AEP/FIRST Robotics/ARC Specialties/Houston Robotics/ESAB Cutting and Welding/Tymetal & Bruni High School Robotics",
        "locality": "Bruni",
        "nickname": "Badgerbots",
        "region": "TX",
        "team_number": 1205,
        "location": "Bruni, TX, USA",
        "key": "frc1205",
        "country_name": "USA",
        "motto": null,
        "rookie_year": 2003
    },
    {
        "website": "http://www.wrenchwarriors.cjb.net",
        "name": "NASA/Battelle Memorial Institute & Fairview High School",
        "locality": "Fairview Park",
        "nickname": "Wrench Warriors",
        "region": "OH",
        "team_number": 1206,
        "location": "Fairview Park, OH, USA",
        "key": "frc1206",
        "country_name": "USA",
        "motto": null,
        "rookie_year": 2003
    },
    {
        "website": "http://www.othsrobotics.com/",
        "name": "The Boeing Company/Verizon Wireless/Lockheed Martin/SAIC & O Fallon High School",
        "locality": "O Fallon",
        "nickname": "Metool Brigade",
        "region": "Illinois",
        "team_number": 1208,
        "location": "O Fallon, Illinois 62269, USA",
        "key": "frc1208",
        "country_name": "USA",
        "motto": "Fearless",
        "rookie_year": 2003
    },
    {
        "website": "http://btwrobotics.com",
        "name": "University of Tulsa/Booker T. Washington Foundation for Excellence/Hydra Service/Boeing/DOD-STEM/AEP/Frontier Electronic Systems/JLL/The Persimmon Group/Brown Patent Law/ESDC Engineering/Central Mechanical Systems/Gardner Springs/Russelectric&Booker T. Washington Hs",
        "locality": "Tulsa",
        "nickname": "Robo Hornets",
        "region": "Oklahoma",
        "team_number": 1209,
        "location": "Tulsa, Oklahoma 74106, USA",
        "key": "frc1209",
        "country_name": "USA",
        "motto": "Excellence is to do a common thing in an uncommon way.  Booker T. Washington",
        "rookie_year": 2003
    },
    {
        "website": "http://www.jracademy.com/~nyack/NYACKhomepage.html",
        "name": "Optimist International/St. Louis Junior Academy of Science \"Science Center\" & Normandy Senior High",
        "locality": "St Louis",
        "nickname": "Nyack",
        "region": "MO",
        "team_number": 1210,
        "location": "St Louis, MO, USA",
        "key": "frc1210",
        "country_name": "USA",
        "motto": null,
        "rookie_year": 2003
    },
    {
        "website": "http://www.shof515.com/autohs",
        "name": "Rajswasser-Flaherty Family/Bezo Family Foundation & Automotive High School  YABC & Friends of Automotive High School",
        "locality": "Brooklyn",
        "nickname": "Robotnics",
        "region": "NY",
        "team_number": 1211,
        "location": "Brooklyn, NY, USA",
        "key": "frc1211",
        "country_name": "USA",
        "motto": null,
        "rookie_year": 2003
    },
    {
        "website": "http://1212robotics.com",
        "name": "The Boeing Company & SETON CATHOLIC PREPARATORY HIGH SCHOOL",
        "locality": "Chandler",
        "nickname": "Sentinels",
        "region": "Arizona",
        "team_number": 1212,
        "location": "Chandler, Arizona 85224, USA",
        "key": "frc1212",
        "country_name": "USA",
        "motto": "\"It's only temporary unless it works\"",
        "rookie_year": 2003
    },
    {
        "website": null,
        "name": "US ARMY TARDEC/NPCrobotics.com & Birmingham Groves",
        "locality": "Beverly  Hills",
        "nickname": "GROVES",
        "region": "MI",
        "team_number": 1213,
        "location": "Beverly  Hills, MI, USA",
        "key": "frc1213",
        "country_name": "USA",
        "motto": null,
        "rookie_year": 2003
    },
    {
        "website": "http://www.cstem.com",
        "name": "ASME & Westbriar Middle School",
        "locality": "Houston",
        "nickname": "The Grizzlies",
        "region": "TX",
        "team_number": 1214,
        "location": "Houston, TX, USA",
        "key": "frc1214",
        "country_name": "USA",
        "motto": null,
        "rookie_year": 2003
    },
    {
        "website": "http://'www.fourrivers@washington.k12.mo.us",
        "name": "NASA/East Central Machine Tool Consortium & Four Rivers Career Center",
        "locality": "Washington",
        "nickname": "Machine Tool",
        "region": "MO",
        "team_number": 1215,
        "location": "Washington, MO, USA",
        "key": "frc1215",
        "country_name": "USA",
        "motto": null,
        "rookie_year": 2003
    },
    {
        "website": "http://www.team1216.com",
        "name": "i3 Detroit / BAE Systems & Oak Park High School",
        "locality": "Oak Park",
        "nickname": "Knights",
        "region": "MI",
        "team_number": 1216,
        "location": "Oak Park, MI, USA",
        "key": "frc1216",
        "country_name": "USA",
        "motto": null,
        "rookie_year": 2003
    },
    {
        "website": "http://www.Team1218.org",
        "name": "Vulcan Spring/Metal Edge International/Boeing Company/TE Connectivity /Fabspeed Motorsport/ErvTech International/William A. Killian Hardware&Chestnut Hill Academy&Springside School",
        "locality": "Philadelphia",
        "nickname": "Vulcan Robotics",
        "region": "Pennsylvania",
        "team_number": 1218,
        "location": "Philadelphia, Pennsylvania 19118, USA",
        "key": "frc1218",
        "country_name": "USA",
        "motto": "Building a better world, one robot at a time",
        "rookie_year": 2003
    },
    {
        "website": "http://ironeagles.net",
        "name": "Toronto District School Board & Emery Collegiate Institute",
        "locality": "Toronto",
        "nickname": "Iron Eagles",
        "region": "ON",
        "team_number": 1219,
        "location": "Toronto, ON, Canada",
        "key": "frc1219",
        "country_name": "Canada",
        "motto": null,
        "rookie_year": 2003
    },
    {
        "website": null,
        "name": "Rockwell Automation/Marquette University & Marquette University High School",
        "locality": "Milwaukee",
        "nickname": "",
        "region": "WI",
        "team_number": 1220,
        "location": "Milwaukee, WI, USA",
        "key": "frc1220",
        "country_name": "USA",
        "motto": null,
        "rookie_year": 2003
    },
    {
        "website": null,
        "name": "Synnex Canada Ltd. & St. Martin's Secondary School",
        "locality": "Mississauga",
        "nickname": "Nerdbotics",
        "region": "ON",
        "team_number": 1221,
        "location": "Mississauga, ON, Canada",
        "key": "frc1221",
        "country_name": "Canada",
        "motto": null,
        "rookie_year": 2003
    },
    {
        "website": "http://www.falconbot.com",
        "name": "AMF Automation Technologies & Huguenot High School",
        "locality": "Richmond",
        "nickname": "Falcons",
        "region": "VA",
        "team_number": 1222,
        "location": "Richmond, VA, USA",
        "key": "frc1222",
        "country_name": "USA",
        "motto": null,
        "rookie_year": 2003
    },
    {
        "website": "http://www.evitengineering.com",
        "name": "East Valley Institute of Technology",
        "locality": "Mesa",
        "nickname": "Twisted Dimension",
        "region": "AZ",
        "team_number": 1223,
        "location": "Mesa, AZ, USA",
        "key": "frc1223",
        "country_name": "USA",
        "motto": null,
        "rookie_year": 2003
    },
    {
        "website": "http://Team%201224-%20The%20Pius%20Princesses",
        "name": "Credit Suisse /MTA/Verizon & St. Pius V High School",
        "locality": "Bronx",
        "nickname": "Team 1224 - The Pius Princesses",
        "region": "NY",
        "team_number": 1224,
        "location": "Bronx, NY, USA",
        "key": "frc1224",
        "country_name": "USA",
        "motto": null,
        "rookie_year": 2003
    },
    {
        "website": "http://www.team1225.com",
        "name": "BorgWarner Turbo Systems & Henderson County Public Schools",
        "locality": "Hendersonville",
        "nickname": "The Gorillas",
        "region": "North Carolina",
        "team_number": 1225,
        "location": "Hendersonville, North Carolina 28739, USA",
        "key": "frc1225",
        "country_name": "USA",
        "motto": "Zip ties and duct tape because we can.",
        "rookie_year": 2003
    },
    {
        "website": null,
        "name": "Weldon E. Howitt Middle School",
        "locality": "Farmingdale",
        "nickname": "",
        "region": "NY",
        "team_number": 1226,
        "location": "Farmingdale, NY, USA",
        "key": "frc1226",
        "country_name": "USA",
        "motto": null,
        "rookie_year": 2003
    },
    {
        "website": "http://www.techno-gremlins.org",
        "name": "ITT Technical Institute/Smiths Areospace & Forest Hills Public Schools & Northview Public Schools",
        "locality": "Grand Rapids",
        "nickname": "Techno-Gremlins",
        "region": "MI",
        "team_number": 1227,
        "location": "Grand Rapids, MI, USA",
        "key": "frc1227",
        "country_name": "USA",
        "motto": null,
        "rookie_year": 2003
    },
    {
        "website": "http://www.team1228us.wix.com/robotribe  and new  http://team1228.org/",
        "name": "NASA/Infineum/A&M Industrial Supply & Rahway High",
        "locality": "Rahway",
        "nickname": "RoboTribe",
        "region": "New Jersey",
        "team_number": 1228,
        "location": "Rahway, New Jersey 07065, USA",
        "key": "frc1228",
        "country_name": "USA",
        "motto": " \u201cFail Often to Succeed Sooner\u201d",
        "rookie_year": 2003
    },
    {
        "website": "http://www.MasseyFirst.com",
        "name": "Anemia Institute for Research and Education/University of Windsor Faculty of Science/University of Windsor Faculty of Engineering/Centerline (Windsor) Ltd./Synexus Design Group Inc./Accucaps Industries Ltd./Moir KMJ Machinery Movers & Vincent Massey Secondary School Parent Council & Vincent Massey Secondary School Student Council",
        "locality": "Windsor",
        "nickname": "MASA",
        "region": "ON",
        "team_number": 1229,
        "location": "Windsor, ON, Canada",
        "key": "frc1229",
        "country_name": "Canada",
        "motto": null,
        "rookie_year": 2003
    },
    {
        "website": "http://firstlion1230.weebly.com/",
        "name": "Con Edison&Herbert H Lehman High School",
        "locality": "Bronx",
        "nickname": "The Lehman Lionics",
        "region": "New York",
        "team_number": 1230,
        "location": "Bronx, New York 10461, USA",
        "key": "frc1230",
        "country_name": "USA",
        "motto": null,
        "rookie_year": 2003
    },
    {
        "website": "http://www.ramsrobotics.com",
        "name": "Stratford Central S.S.",
        "locality": "Stratford",
        "nickname": "RAMS ROBOTICS",
        "region": "ON",
        "team_number": 1232,
        "location": "Stratford, ON, Canada",
        "key": "frc1232",
        "country_name": "Canada",
        "motto": null,
        "rookie_year": 2003
    },
    {
        "website": null,
        "name": "NASA Stennis Space Center & Mississippi School for Mathematics and Science",
        "locality": "Columbus",
        "nickname": "Maximum Strength",
        "region": "MS",
        "team_number": 1235,
        "location": "Columbus, MS, USA",
        "key": "frc1235",
        "country_name": "USA",
        "motto": null,
        "rookie_year": 2003
    },
    {
        "website": "http://web.dps.k12.va.us/galileo",
        "name": "Galileo Magnet High School",
        "locality": "Danville",
        "nickname": "Phoenix Rising",
        "region": "VA",
        "team_number": 1236,
        "location": "Danville, VA, USA",
        "key": "frc1236",
        "country_name": "USA",
        "motto": null,
        "rookie_year": 2003
    },
    {
        "website": "http://www.unhsrobotics.com",
        "name": "Credit Suisse/Bezos Family Foundation/NYC Transit/Goldman Sachs & University Neighborhood H.S.",
        "locality": "New York",
        "nickname": "Cybernetic Panthers",
        "region": "NY",
        "team_number": 1237,
        "location": "New York, NY, USA",
        "key": "frc1237",
        "country_name": "USA",
        "motto": null,
        "rookie_year": 2003
    },
    {
        "website": null,
        "name": "Verizon/Working in Support of Education & High School of Economics & Finance",
        "locality": "New York",
        "nickname": "",
        "region": "NY",
        "team_number": 1238,
        "location": "New York, NY, USA",
        "key": "frc1238",
        "country_name": "USA",
        "motto": null,
        "rookie_year": 2003
    },
    {
        "website": null,
        "name": "NASA/VitaMix & Olmsted Falls High School",
        "locality": "Olmsted Falls",
        "nickname": "Vita Dogs",
        "region": "OH",
        "team_number": 1239,
        "location": "Olmsted Falls, OH, USA",
        "key": "frc1239",
        "country_name": "USA",
        "motto": null,
        "rookie_year": 2004
    },
    {
        "website": "http://www.freewebs.com/lincolnrobotics",
        "name": "Lincoln High School",
        "locality": "Manitowoc",
        "nickname": "Sappers",
        "region": "WI",
        "team_number": 1240,
        "location": "Manitowoc, WI, USA",
        "key": "frc1240",
        "country_name": "USA",
        "motto": null,
        "rookie_year": 2004
    },
    {
        "website": "http://www.theory6.ca",
        "name": "Pratt & Whitney Canada / General Motors of Canada / Peel District School Board / CSC / City of Mississauga / Johnston Industrial Plastics Limited / Trans Canada / Templeton & Sons / Christie & Rick Hansen S.S",
        "locality": "Mississauga",
        "nickname": "THEORY6",
        "region": "Ontario",
        "team_number": 1241,
        "location": "Mississauga, Ontario L5V 1N6, Canada",
        "key": "frc1241",
        "country_name": "Canada",
        "motto": "Growing Technological Consciousness",
        "rookie_year": 2004
    },
    {
        "website": "http://www.dphdsrobotics.org",
        "name": "David Posnack Hebrew Day School",
        "locality": "Plantation",
        "nickname": "Team S.M.I.L.E.Y",
        "region": "FL",
        "team_number": 1242,
        "location": "Plantation, FL, USA",
        "key": "frc1242",
        "country_name": "USA",
        "motto": null,
        "rookie_year": 2004
    },
    {
        "website": "http://www.firstinspires.org/",
        "name": "General Motors Flint Truck Assembly/EFC Systems Inc/PRP Inc. & Swartz Creek High School",
        "locality": "Swartz Creek",
        "nickname": "Dragons",
        "region": "Michigan",
        "team_number": 1243,
        "location": "Swartz Creek, Michigan 48473, USA",
        "key": "frc1243",
        "country_name": "USA",
        "motto": "\"Every job on this team is important!\"",
        "rookie_year": 2004
    },
    {
        "website": "http://1244robotics.freehostia.com",
        "name": "Volvo Motor Graders/Town of Goderich & GDCI",
        "locality": "Goderich",
        "nickname": "Viking Robotics",
        "region": "ON",
        "team_number": 1244,
        "location": "Goderich, ON, Canada",
        "key": "frc1244",
        "country_name": "Canada",
        "motto": null,
        "rookie_year": 2004
    },
    {
        "website": "https://www.shazbots.org",
        "name": "Lockheed Martin/Accelaway/QuickLeft/Ball Aerospace/Premiere Credit Union&Monarch High School",
        "locality": "Louisville",
        "nickname": "MoHi Shazbots",
        "region": "Colorado",
        "team_number": 1245,
        "location": "Louisville, Colorado 80027, USA",
        "key": "frc1245",
        "country_name": "USA",
        "motto": "How high? Mo-Hi!",
        "rookie_year": 2004
    },
    {
        "website": "http://team1246.wordpress.com/",
        "name": "Rotary Club of Agincourt/Princess Auto/Co-operators Insurance&Agincourt Collegiate Institute",
        "locality": "Toronto",
        "nickname": "Agincourt Lancers",
        "region": "Ontario",
        "team_number": 1246,
        "location": "Toronto, Ontario M1S 1R6, Canada",
        "key": "frc1246",
        "country_name": "Canada",
        "motto": "We Get It Done in Time",
        "rookie_year": 2004
    },
    {
        "website": "http://www.roksbot.com",
        "name": "NDEP/Hypertherm & Kearsarge Regional High School",
        "locality": "North Sutton",
        "nickname": "Robotics of Kearsarge (ROK)",
        "region": "New Hampshire",
        "team_number": 1247,
        "location": "North Sutton, New Hampshire 03260, USA",
        "key": "frc1247",
        "country_name": "USA",
        "motto": null,
        "rookie_year": 2004
    },
    {
        "website": "http://team1248.org",
        "name": "Berea City School District / Nordson Corporation / NASA & Berea-Midpark High School & Berea High School",
        "locality": "Berea",
        "nickname": "TITANium Allies",
        "region": "Ohio",
        "team_number": 1248,
        "location": "Berea, Ohio 44017, USA",
        "key": "frc1248",
        "country_name": "USA",
        "motto": "We add up!",
        "rookie_year": 2004
    },
    {
        "website": "http://www.team1249.com",
        "name": "NASA/American Electric Power/Mingo County Schools/West Virginia Department of Career and Technical  Education & Mingo Central High School",
        "locality": "Delbarton",
        "nickname": "Robo Rats",
        "region": "West Virginia",
        "team_number": 1249,
        "location": "Delbarton, West Virginia 25670, USA",
        "key": "frc1249",
        "country_name": "USA",
        "motto": "Today's youth is tomorrow's future",
        "rookie_year": 2004
    },
    {
        "website": "http://www.gatorbots.org",
        "name": "Henry Ford Academy / Ford Motor Company / DADARA / Durr Systems / The Henry Ford & Henry Ford Academy",
        "locality": "Flat Rock",
        "nickname": "Gator-Bots",
        "region": "Michigan",
        "team_number": 1250,
        "location": "Flat Rock, Michigan 48134, USA",
        "key": "frc1250",
        "country_name": "USA",
        "motto": "\"Bringing advanced technology into historic places\"",
        "rookie_year": 2004
    },
    {
        "website": "http://www.team1251.org",
        "name": "Sonny's Enterprises, The Car Wash Factory/Google/Leidos/Florida, Power & Light/GIC Aluminum/Alro Metals/Metalworks Corp/Custom Precision&4-H Youth Development Organization",
        "locality": "Deerfield Beach",
        "nickname": "Tech-Tiger Robotics ",
        "region": "Florida",
        "team_number": 1251,
        "location": "Deerfield Beach, Florida 33442, USA",
        "key": "frc1251",
        "country_name": "USA",
        "motto": "Technology for the 21st Century",
        "rookie_year": 2004
    },
    {
        "website": "http://www.firstinspires.org/",
        "name": "Society of Plastics Engineers Western MI Section/Hinckley Research & Van Buren Technology Center",
        "locality": "Lawrence",
        "nickname": "Tech Force",
        "region": "Michigan",
        "team_number": 1254,
        "location": "Lawrence, Michigan 49064, USA",
        "key": "frc1254",
        "country_name": "USA",
        "motto": "Check the Flowchart",
        "rookie_year": 2004
    },
    {
        "website": "http://1255blarglefish.weebly.com/",
        "name": "Exxon/Covestro/Puzzometry/ACE Industry/Goose Creek CISD&Lee H S&Sterling H S&Goose Creek Memorial&Impact Early College H S",
        "locality": "Baytown",
        "nickname": "Blarglefish",
        "region": "Texas",
        "team_number": 1255,
        "location": "Baytown, Texas 77520, USA",
        "key": "frc1255",
        "country_name": "USA",
        "motto": "Where Imagination Runs Deep",
        "rookie_year": 2004
    },
    {
        "website": "http://http:/www.hhsengineering.com",
        "name": "",
        "locality": "Howell",
        "nickname": "Highlanders",
        "region": "MI",
        "team_number": 1256,
        "location": "Howell, MI, USA",
        "key": "frc1256",
        "country_name": "USA",
        "motto": null,
        "rookie_year": 2004
    },
    {
        "website": "http://www.team1257.org",
        "name": "TE Connectivity/Google/UTC/Picatinny Arsenal/Formlabs&Union Cty Voc Tech",
        "locality": "Scotch Plains",
        "nickname": "Parallel Universe",
        "region": "New Jersey",
        "team_number": 1257,
        "location": "Scotch Plains, New Jersey 07076, USA",
        "key": "frc1257",
        "country_name": "USA",
        "motto": null,
        "rookie_year": 2004
    },
    {
        "website": "http://www.seattlelutheran.org/events/robotics/robotics.html",
        "name": "The Boeing Company & Seattle Lutheran High School",
        "locality": "Seattle",
        "nickname": "SeaBot",
        "region": "Washington",
        "team_number": 1258,
        "location": "Seattle, Washington 98116, USA",
        "key": "frc1258",
        "country_name": "USA",
        "motto": null,
        "rookie_year": 2004
    },
    {
        "website": "http://firstteam1259.com",
        "name": "Pewaukee High School / Data Strategy / GE Healthcare / Dedicated Computing / Pewaukee High School Booster Club / Milwaukee School Of Engineering / TLX Technologies / Bowl-Rite Resurfacing / Gateway Plastics / Pewaukee Kiwanis / BSE Border States & Pewaukee High",
        "locality": "Pewaukee",
        "nickname": "Paradigm Shift",
        "region": "Wisconsin",
        "team_number": 1259,
        "location": "Pewaukee, Wisconsin 53072, USA",
        "key": "frc1259",
        "country_name": "USA",
        "motto": "Changing The Minds of Those Around Us",
        "rookie_year": 2004
    },
    {
        "website": "http://www.cprobotics.com",
        "name": "Cawthra Park",
        "locality": "Mississauga",
        "nickname": "Panthers",
        "region": "ON",
        "team_number": 1260,
        "location": "Mississauga, ON, Canada",
        "key": "frc1260",
        "country_name": "Canada",
        "motto": null,
        "rookie_year": 2004
    },
    {
        "website": "http://www.prhsrobotics.com/",
        "name": "TRS solutions/The Motorola Solutions Foundation/Maxxis Tires/Gwinnett County Public Schools/Automation Direct&Peachtree Ridge High School",
        "locality": "Suwanee",
        "nickname": "Robo  Lions",
        "region": "Georgia",
        "team_number": 1261,
        "location": "Suwanee, Georgia 30024, USA",
        "key": "frc1261",
        "country_name": "USA",
        "motto": "Fear the Roar",
        "rookie_year": 2004
    },
    {
        "website": "http://www.team1262.net",
        "name": "Mid-Atlantic Broadband Communities Corporation/Applied Felts, Inc./New College Institute/Dalton Enterprises/American Electric Power/Hooker Furniture Corporation/Eastman Chemical Company/Capps Home Building Center/Patrick Henry Community College & Piedmont Governor School",
        "locality": "Martinsville",
        "nickname": "the STAGS",
        "region": "Virginia",
        "team_number": 1262,
        "location": "Martinsville, Virginia 24112, USA",
        "key": "frc1262",
        "country_name": "USA",
        "motto": "\"Fear the Deer\"",
        "rookie_year": 2004
    },
    {
        "website": "http://www.ahsrobotics.org",
        "name": "Austin High School",
        "locality": "Decatur",
        "nickname": "Austin High School/Marshall Space Flight Center",
        "region": "AL",
        "team_number": 1263,
        "location": "Decatur, AL, USA",
        "key": "frc1263",
        "country_name": "USA",
        "motto": null,
        "rookie_year": 2004
    },
    {
        "website": "http://frc1266.com",
        "name": "Motorola Solutions Foundation/Qualcomm/Rockwell Collins/Raytheon Integrated Defense Systems/San Diego College, Career & Technical Education/Engineering for Kids&Madison High",
        "locality": "San Diego",
        "nickname": "The Devil Duckies",
        "region": "California",
        "team_number": 1266,
        "location": "San Diego, California 92117, USA",
        "key": "frc1266",
        "country_name": "USA",
        "motto": "Changing Perceptions - Changing Lives - Changing the Future",
        "rookie_year": 2004
    },
    {
        "website": "http://www.whs.edu/team1268/index.html",
        "name": "GE Volunteers / Rockwell Automation / Milwaukee Area Technical College & Washington High School",
        "locality": "Milwaukee",
        "nickname": "Purgolder Robotics",
        "region": "WI",
        "team_number": 1268,
        "location": "Milwaukee, WI, USA",
        "key": "frc1268",
        "country_name": "USA",
        "motto": null,
        "rookie_year": 2004
    },
    {
        "website": "http://1270.ytaccc.org",
        "name": "NASA Glenn Research Center/Youth Technology Academy of Cuyahoga Community College/Cleveland Metropolitan School District/Cuyahoga County Workforce Development Dept/Cleveland TechWorks",
        "locality": "Cleveland",
        "nickname": "Red Dragons",
        "region": "OH",
        "team_number": 1270,
        "location": "Cleveland, OH, USA",
        "key": "frc1270",
        "country_name": "USA",
        "motto": null,
        "rookie_year": 2004
    },
    {
        "website": "http://www.bloomingtonrobotics.com",
        "name": "Sabin Corporation/Cook Incorporated & Hoosier Hills Career Center",
        "locality": "Bloomington",
        "nickname": "Tyrannikal Mechanikal",
        "region": "IN",
        "team_number": 1272,
        "location": "Bloomington, IN, USA",
        "key": "frc1272",
        "country_name": "USA",
        "motto": null,
        "rookie_year": 2004
    },
    {
        "website": "http://berearobotics.webs.com",
        "name": "NASA Educational Programs Office / Safeguard / SMART Consortium / Martha Holden Jennings Foundation & Berea-Midpark High School & Middleburg Heights Junior High School",
        "locality": "Berea",
        "nickname": "Wolf Bytes",
        "region": "OH",
        "team_number": 1274,
        "location": "Berea, OH, USA",
        "key": "frc1274",
        "country_name": "USA",
        "motto": null,
        "rookie_year": 2004
    },
    {
        "website": "http://www.havergalrobotics.on.ca",
        "name": "Havergal College",
        "locality": "Toronto",
        "nickname": "Pi-Robots",
        "region": "ON",
        "team_number": 1275,
        "location": "Toronto, ON, Canada",
        "key": "frc1275",
        "country_name": "Canada",
        "motto": null,
        "rookie_year": 2004
    },
    {
        "website": "http://www.mcstrobotics.org",
        "name": "Midcoast School of Technology",
        "locality": "Rockland",
        "nickname": "Kaizen Blitz",
        "region": "ME",
        "team_number": 1276,
        "location": "Rockland, ME, USA",
        "key": "frc1276",
        "country_name": "USA",
        "motto": null,
        "rookie_year": 2004
    },
    {
        "website": "http://www.team1277.org/",
        "name": "Mercury Computer Systems/IBM/GE/L-3 Advanced Programs/Raytheon/Harris /Hollingsworth and Vose/Groton-Dunstable Education Foundation/Society of American Military Engineers/Justin J. Maynard Memorial STEM Innovation Scholarship Fund/Solidworks/4C Test Systems/MJR Engineering/Ted Lapres and Connie Keeran Fund/The Hughson Family/The Adams Family/The Breton Family/The Battles Family/The Orlando Family&Groton Dunstable Regional",
        "locality": "Groton",
        "nickname": "The Robotomies",
        "region": "Massachusetts",
        "team_number": 1277,
        "location": "Groton, Massachusetts 01450, USA",
        "key": "frc1277",
        "country_name": "USA",
        "motto": null,
        "rookie_year": 2004
    },
    {
        "website": "http://team1278.org",
        "name": "Lear Rome/Rockwell & North Royalton High School",
        "locality": "North Royalton",
        "nickname": "B.E.A.R.S",
        "region": "OH",
        "team_number": 1278,
        "location": "North Royalton, OH, USA",
        "key": "frc1278",
        "country_name": "USA",
        "motto": null,
        "rookie_year": 2004
    },
    {
        "website": "http://www.immaculatahighschool.org/page.cfm?p=1000",
        "name": "DOTC-STEM Picatinny/NDEP/Immaculata High School&Immaculata High School",
        "locality": "Somerville",
        "nickname": "Cold Fusion",
        "region": "New Jersey",
        "team_number": 1279,
        "location": "Somerville, New Jersey 08876, USA",
        "key": "frc1279",
        "country_name": "USA",
        "motto": "Fusion of the best!",
        "rookie_year": 2004
    },
    {
        "website": "http://www.srvhsrobotics.com",
        "name": "EMC Corporation / Robin Fall / San Ramon Valley High School PTSA / San Ramon Valley Education Foundation & San Ramon Valley High",
        "locality": "Danville",
        "nickname": "Ragin' C- Biscuits of San Ramon Valley High",
        "region": "California",
        "team_number": 1280,
        "location": "Danville, California 94526, USA",
        "key": "frc1280",
        "country_name": "USA",
        "motto": "",
        "rookie_year": 2004
    },
    {
        "website": "http://www.mustangrobotics.ca",
        "name": "Alexander Mackenzie High School & York Region District School Board",
        "locality": "Richmond Hill",
        "nickname": "Mustang Robotics",
        "region": "ON",
        "team_number": 1281,
        "location": "Richmond Hill, ON, Canada",
        "key": "frc1281",
        "country_name": "Canada",
        "motto": null,
        "rookie_year": 2004
    },
    {
        "website": "http://robotics.guntersville-high.com",
        "name": "Guntersville High School Robotics",
        "locality": "Guntersville",
        "nickname": "DART",
        "region": "AL",
        "team_number": 1284,
        "location": "Guntersville, AL, USA",
        "key": "frc1284",
        "country_name": "USA",
        "motto": null,
        "rookie_year": 2004
    },
    {
        "website": "http://www.firstinspires.org/",
        "name": "Pratt & Whittney/GM Canada/Christie/Trans Canada/Templeton & Sons/CSC & Rick hansen S.S",
        "locality": "Mississauga",
        "nickname": "The Big Bang",
        "region": "Ontario",
        "team_number": 1285,
        "location": "Mississauga, Ontario L5V1N6, Canada",
        "key": "frc1285",
        "country_name": "Canada",
        "motto": null,
        "rookie_year": 2004
    },
    {
        "website": "http://oakland.k12.mi.us/robotics1286",
        "name": "Cimatron / HITACHI Foundation / Mayo Welding / Faurecia Interior Systems - North America Division & Oakland School Technical Campus Southeast",
        "locality": "Royal Oak",
        "nickname": "Kevlar Cranes",
        "region": "MI",
        "team_number": 1286,
        "location": "Royal Oak, MI, USA",
        "key": "frc1286",
        "country_name": "USA",
        "motto": null,
        "rookie_year": 2004
    },
    {
        "website": "http://www.FRCTeam1287.com",
        "name": "Horry County Schools/Grand Strand Technology Council/Santee Cooper & Academy for Arts/Science/Technology",
        "locality": "Myrtle Beach",
        "nickname": "Aluminum Assault",
        "region": "South Carolina",
        "team_number": 1287,
        "location": "Myrtle Beach, South Carolina 29572, USA",
        "key": "frc1287",
        "country_name": "USA",
        "motto": "Best work, First time, On time",
        "rookie_year": 2004
    },
    {
        "website": "http://ravenrobotics.org",
        "name": "The Boeing Company / Francis Howell School District / Boeing Employees Community Fund / Royal Banks of Missouri & Francis Howell Central High & Francis Howell North High & Francis Howell High",
        "locality": "Saint Charles",
        "nickname": "RAVEN Robotics",
        "region": "Missouri",
        "team_number": 1288,
        "location": "Saint Charles, Missouri 63304, USA",
        "key": "frc1288",
        "country_name": "USA",
        "motto": null,
        "rookie_year": 2004
    },
    {
        "website": "http://www.lhsgearheadz.org/",
        "name": "Comcast/Raytheon/Farm Design&Math, Science & Technology High School",
        "locality": "Lawrence",
        "nickname": "Gearheadz",
        "region": "Massachusetts",
        "team_number": 1289,
        "location": "Lawrence, Massachusetts 01843, USA",
        "key": "frc1289",
        "country_name": "USA",
        "motto": "Kids sharing technology, one robot at a time",
        "rookie_year": 2004
    },
    {
        "website": "http://team1290.info",
        "name": "Orbital ATK/Boeing/Toyota Financial Services/School Tax Credit Sponsors/Si Se Puede/Big Surf Waterpark & Chandler High School",
        "locality": "Chandler",
        "nickname": "Robowolves",
        "region": "Arizona",
        "team_number": 1290,
        "location": "Chandler, Arizona 85225, USA",
        "key": "frc1290",
        "country_name": "USA",
        "motto": "Si Se Puede",
        "rookie_year": 2004
    },
    {
        "website": "http://www.scs.on.ca/robotics",
        "name": "MIAD Systems ltd./Advanced Presention Products/Active Surplus/John Mercer & Associates/Mercurial Communications & St. Clement's School",
        "locality": "Toronto",
        "nickname": "Circuit Breakers",
        "region": "ON",
        "team_number": 1291,
        "location": "Toronto, ON, Canada",
        "key": "frc1291",
        "country_name": "Canada",
        "motto": null,
        "rookie_year": 2004
    },
    {
        "website": null,
        "name": "Rothesay Netherwood School",
        "locality": "Rothesay",
        "nickname": "RNS Joysticks",
        "region": "NB",
        "team_number": 1292,
        "location": "Rothesay, NB, Canada",
        "key": "frc1292",
        "country_name": "Canada",
        "motto": null,
        "rookie_year": 2004
    },
    {
        "website": "http://d5robotics.org/",
        "name": "D5Robotics : School District Five of Lexington and Richland Counties/Blue Cross Blue Shield of South Carolina & Irmo High & Dutch Fork High & Chapin High",
        "locality": "Columbia",
        "nickname": "Pandamaniacs",
        "region": "South Carolina",
        "team_number": 1293,
        "location": "Columbia, South Carolina 29212, USA",
        "key": "frc1293",
        "country_name": "USA",
        "motto": "Be the bot.",
        "rookie_year": 2004
    },
    {
        "website": "http://www.team1294.org",
        "name": "Lake Washington Schools Foundation/Microsoft/donuts/FIRSTWA/SAE NW Section/OSPI/Eastlake Robotics Family Members/Google/Eastlake High School&Eastlake High School",
        "locality": "Sammamish",
        "nickname": "Top Gun",
        "region": "Washington",
        "team_number": 1294,
        "location": "Sammamish, Washington 98074, USA",
        "key": "frc1294",
        "country_name": "USA",
        "motto": "You get out of it, what you put into it. Stop Breaking It More!",
        "rookie_year": 2004
    },
    {
        "website": "http://robotics.rsgc.on.ca",
        "name": "Albert & Tammy Latner Foundation/Hinds Family/Loewen & Partners/Pinetree Capital & Royal St. George's College",
        "locality": "Toronto",
        "nickname": "The Golems",
        "region": "ON",
        "team_number": 1295,
        "location": "Toronto, ON, Canada",
        "key": "frc1295",
        "country_name": "Canada",
        "motto": null,
        "rookie_year": 2004
    },
    {
        "website": "http://www.rockwallrobotics.com",
        "name": "Rockwall Makerspace/Innovation First International, Inc/Special Products and Manufacturing/The PTR Group/Texas Workforce Commission/North Central Ford&Rockwall H S",
        "locality": "Rockwall",
        "nickname": "Full Metal Jackets",
        "region": "Texas",
        "team_number": 1296,
        "location": "Rockwall, Texas 75087, USA",
        "key": "frc1296",
        "country_name": "USA",
        "motto": "It's a cat(apult).",
        "rookie_year": 2004
    },
    {
        "website": null,
        "name": "Comau Pico & Sylacauga High School",
        "locality": "Sylacauga",
        "nickname": "",
        "region": "AL",
        "team_number": 1297,
        "location": "Sylacauga, AL, USA",
        "key": "frc1297",
        "country_name": "USA",
        "motto": null,
        "rookie_year": 2004
    },
    {
        "website": "http://www.jeffstateonline.com/first",
        "name": "Comau Pico/Jefferson State CC & Shades Valley High School & Huffman High School",
        "locality": "Birmingham",
        "nickname": "205 Terminators",
        "region": "AL",
        "team_number": 1298,
        "location": "Birmingham, AL, USA",
        "key": "frc1298",
        "country_name": "USA",
        "motto": null,
        "rookie_year": 2004
    },
    {
        "website": "http://www.phsdominators.com",
        "name": "NASA/Appalachian Technical College/Southern Polytechnic State Universtiy/Amicalola EMC/Royston LLC/Lexington Insulators & Pickens High School",
        "locality": "Jasper",
        "nickname": "Dominators",
        "region": "GA",
        "team_number": 1299,
        "location": "Jasper, GA, USA",
        "key": "frc1299",
        "country_name": "USA",
        "motto": null,
        "rookie_year": 2004
    },
    {
        "website": "http://www.loyola.haltonrc.edu.on.ca/robotics",
        "name": "Halton Catholic District School Board/Loyola School Council & St. Ignatius of Loyola Secondary School",
        "locality": "Oakville",
        "nickname": "EVO",
        "region": "ON",
        "team_number": 1300,
        "location": "Oakville, ON, Canada",
        "key": "frc1300",
        "country_name": "Canada",
        "motto": null,
        "rookie_year": 2004
    },
    {
        "website": "http://www.halerobotics.org",
        "name": "Bezos Family Foundation/Diggit, Inc. & Nathan Hale High School",
        "locality": "Seattle",
        "nickname": "The Robotic Raiders",
        "region": "WA",
        "team_number": 1301,
        "location": "Seattle, WA, USA",
        "key": "frc1301",
        "country_name": "USA",
        "motto": null,
        "rookie_year": 2004
    },
    {
        "website": "http://www.teamlionheart.webs.com",
        "name": "National Defense Education Program/Thor Labs/BAE Systems/Hudson Farm Foundation/High Point Solutions/Picatinny Arsenal/TechFlex & POPE JOHN XXIII HIGH SCHOOL",
        "locality": "Sparta",
        "nickname": "Team Lionheart",
        "region": "NJ",
        "team_number": 1302,
        "location": "Sparta, NJ, USA",
        "key": "frc1302",
        "country_name": "USA",
        "motto": null,
        "rookie_year": 2004
    },
    {
        "website": "http://www.wyohazardrobotics.org",
        "name": "Casper College/NCSD & Kelly Walsh High School",
        "locality": "Casper",
        "nickname": "WYOHAZARD",
        "region": "Wyoming",
        "team_number": 1303,
        "location": "Casper, Wyoming 82601, USA",
        "key": "frc1303",
        "country_name": "USA",
        "motto": "We don't just build robots, we build Experiences!",
        "rookie_year": 2004
    },
    {
        "website": "http://1304nobotics.webs.com",
        "name": "Tulane University",
        "locality": "New Orleans",
        "nickname": "N.O. Botics",
        "region": "LA",
        "team_number": 1304,
        "location": "New Orleans, LA, USA",
        "key": "frc1304",
        "country_name": "USA",
        "motto": null,
        "rookie_year": 2004
    },
    {
        "website": "http://www.team1305.org",
        "name": "Canadore College/Nipissing University/PEO North Bay Chapter/Near North District School Board & NNSRI ",
        "locality": "North Bay",
        "nickname": "Ice Cubed",
        "region": "Ontario",
        "team_number": 1305,
        "location": "North Bay, Ontario P1A 2P2, Canada",
        "key": "frc1305",
        "country_name": "Canada",
        "motto": "Tam insulsum est ut fortasse expediat!",
        "rookie_year": 2004
    },
    {
        "website": "http://www.badgerbots.org",
        "name": "Isthmus Engineering & Manufacturing/Plastic Ingenuity & BadgerBOTS Robotics",
        "locality": "Madison",
        "nickname": "BadgerBOTS",
        "region": "Wisconsin",
        "team_number": 1306,
        "location": "Madison, Wisconsin 53717, USA",
        "key": "frc1306",
        "country_name": "USA",
        "motto": "Building on Talented Students",
        "rookie_year": 2004
    },
    {
        "website": "http://www.firstinspires.org/",
        "name": "St Thomas Aquinas High School",
        "locality": "Dover",
        "nickname": "Robosaints",
        "region": "New Hampshire",
        "team_number": 1307,
        "location": "Dover, New Hampshire 03820, USA",
        "key": "frc1307",
        "country_name": "USA",
        "motto": null,
        "rookie_year": 2004
    },
    {
        "website": "http://www.firstinspires.org/",
        "name": "Dale F. Brown Science & Technology Fund/Parker Hannifin&St Ignatius High School",
        "locality": "Cleveland",
        "nickname": "Wildcats",
        "region": "Ohio",
        "team_number": 1308,
        "location": "Cleveland, Ohio 44113, USA",
        "key": "frc1308",
        "country_name": "USA",
        "motto": null,
        "rookie_year": 2004
    },
    {
        "website": null,
        "name": "Toronto District School Board & Emery Collegiate Institute",
        "locality": "Toronto",
        "nickname": "Diamond Eagles",
        "region": "ON",
        "team_number": 1309,
        "location": "Toronto, ON, Canada",
        "key": "frc1309",
        "country_name": "Canada",
        "motto": null,
        "rookie_year": 2004
    },
    {
        "website": "http://www.team1310.ca",
        "name": "Thales Group/Toronto District School Board/York Lions Club/Etobicoke Optimists/Investors Group & Runnymede Collegiate Institute",
        "locality": "Toronto",
        "nickname": "Runnymede Robotics",
        "region": "Ontario",
        "team_number": 1310,
        "location": "Toronto, Ontario M6S 4A3, Canada",
        "key": "frc1310",
        "country_name": "Canada",
        "motto": "Never Give Up!",
        "rookie_year": 2004
    },
    {
        "website": "http://www.kellrobotics.org",
        "name": "Kell Robotics/Kennesaw State University/Shaheen & Company/United Technologies/GE Volunteers/Novelis/Automated Logic/Lockheed-Martin Aeronautics/USG (University System of Georgia)/TCSG (Technical College System of Georgia)/R Design Works/Johnnys Pizza/Nypro/Peterson Aluminum/AM Castle/Georgia Power/STEM Leadership Foundation/AIAA/Cobb EMC/Arylessence/ASME/Dow/Clorox/Atkinson Construction&Kell High School&Kennesaw Mountain High School&North Cobb High School&Sprayberry High School&Harrison High School",
        "locality": "Kennesaw",
        "nickname": "Kell Robotics",
        "region": "Georgia",
        "team_number": 1311,
        "location": "Kennesaw, Georgia 30144, USA",
        "key": "frc1311",
        "country_name": "USA",
        "motto": "Creativity Unleashed",
        "rookie_year": 2004
    },
    {
        "website": "http://www.team1312.org",
        "name": "Bruce Power,/Power Workers' Union & Sacred Heart High School",
        "locality": "Walkerton",
        "nickname": "Syntax Error",
        "region": "ON",
        "team_number": 1312,
        "location": "Walkerton, ON, Canada",
        "key": "frc1312",
        "country_name": "Canada",
        "motto": null,
        "rookie_year": 2004
    },
    {
        "website": "http://www.roboknights.org",
        "name": "DaimlerChrysler St. Louis South Assembly Plant UAW Locals 100& 597 / Tyco Corp. / Imperial Ornamental Metal / DaimlerChrysler Corporation Fund / The Pillar Foundation & Christian Home Educated Students of St. Louis",
        "locality": "Pacific",
        "nickname": "Robo-Knights",
        "region": "MO",
        "team_number": 1315,
        "location": "Pacific, MO, USA",
        "key": "frc1315",
        "country_name": "USA",
        "motto": null,
        "rookie_year": 2004
    },
    {
        "website": "http://www.dfweb.org",
        "name": "Honda/American Electric Power/Meijer/Otterbein University&Family Friends",
        "locality": "Columbus",
        "nickname": "Digital Fusion",
        "region": "Ohio",
        "team_number": 1317,
        "location": "Columbus, Ohio 43209, USA",
        "key": "frc1317",
        "country_name": "USA",
        "motto": null,
        "rookie_year": 2004
    },
    {
        "website": "http://www.team1318.org",
        "name": "The Boeing Company/State of Washington OSPI/Triumph Aerospace&Issaquah High School",
        "locality": "Issaquah",
        "nickname": "Issaquah Robotics Society",
        "region": "Washington",
        "team_number": 1318,
        "location": "Issaquah, Washington 98027, USA",
        "key": "frc1318",
        "country_name": "USA",
        "motto": "Robots Don't Quit!",
        "rookie_year": 2004
    },
    {
        "website": "http://www.flash-1319.com",
        "name": "Synnex / Greenville County Schools / Hendricks Fabrication / aeSolutions / Walmart / EdNez Engineering / Johnson Controls / SolidWorks & Mauldin High",
        "locality": "Mauldin",
        "nickname": "Flash",
        "region": "South Carolina",
        "team_number": 1319,
        "location": "Mauldin, South Carolina 29662, USA",
        "key": "frc1319",
        "country_name": "USA",
        "motto": "We build great robots by first building great students.",
        "rookie_year": 2004
    },
    {
        "website": "http://www.berkeley.k12.sc.us/high/ths/First%20Robotics/Website%204706/home.htm",
        "name": "Albany International/Gates Corporation & Timberland High School & Berkeley High School & Cross High School",
        "locality": "St. Stephen",
        "nickname": "\"Beltway: The Learning Machine\"",
        "region": "SC",
        "team_number": 1320,
        "location": "St. Stephen, SC, USA",
        "key": "frc1320",
        "country_name": "USA",
        "motto": null,
        "rookie_year": 2004
    },
    {
        "website": "http://team1322.org/",
        "name": "GM/The Chrysler Foundation/Weber Electric/ZF TRW/Jon Sunstrom Trust/Richfield Industries/Creative Foam/Tram Tool/MMRA&Neighborhood Group&Home School",
        "locality": "Fenton",
        "nickname": "Genesee Robotics Area Youth Team (GRAYT)",
        "region": "Michigan",
        "team_number": 1322,
        "location": "Fenton, Michigan 48430, USA",
        "key": "frc1322",
        "country_name": "USA",
        "motto": "FEAR OUR BUBBLES",
        "rookie_year": 2004
    },
    {
        "website": "http://www.team1323.org",
        "name": "WestCoast Products/Boeing/The Brin Wojcicki Foundation/JBT FoodTech/B-K Lighting/Kiwanis Club/PTC/Madera Sunrise Rotary/Valley Industrial Partnership/GBS Hardware & Madera High",
        "locality": "Madera",
        "nickname": "MadTown Robotics",
        "region": "California",
        "team_number": 1323,
        "location": "Madera, California 93637, USA",
        "key": "frc1323",
        "country_name": "USA",
        "motto": "Make A Difference!",
        "rookie_year": 2004
    },
    {
        "website": "http://www.verdevalleyrobotics.org",
        "name": "Verde Valley Robotics, Inc./Combusion Dynamics & Sedona Red Rock High School & American Heritage Academy",
        "locality": "Sedona",
        "nickname": "Sporks",
        "region": "AZ",
        "team_number": 1324,
        "location": "Sedona, AZ, USA",
        "key": "frc1324",
        "country_name": "USA",
        "motto": null,
        "rookie_year": 2004
    },
    {
        "website": "http://www.team1325.com/",
        "name": "General Motors of Canada/Martinrea International/IMAX/Sable Metal Manufacturing/Agora Manufacturing/Yamana Gold Inc./Budget Rent-a-Car/Royal Bank of Canada/Hatch/Carpenters & Allied Workers Local 27/Sheridan College/Coremark/Gordon Graydon IBTP/Family and Friends of FRC Team 1325&Gordon Graydon Memorial Secondary School",
        "locality": "Mississauga",
        "nickname": "Inverse Paradox",
        "region": "Ontario",
        "team_number": 1325,
        "location": "Mississauga, Ontario L5E 2H8, Canada",
        "key": "frc1325",
        "country_name": "Canada",
        "motto": "We make the impossible, possible",
        "rookie_year": 2004
    },
    {
        "website": "http://www.cyridgerobotics.com",
        "name": "FMC Technologies/Houston Robotics/Stress Engineering Services & Cypress Ridge High School",
        "locality": "Houston",
        "nickname": "Cy-Ridge Robotics",
        "region": "TX",
        "team_number": 1326,
        "location": "Houston, TX, USA",
        "key": "frc1326",
        "country_name": "USA",
        "motto": null,
        "rookie_year": 2004
    },
    {
        "website": "http://sbotz.org",
        "name": "CTS Corp / Mack Tool Engineering / AEP-American Electric Power / Indiana Department of Workforce Development / Notre Dame & South Bend School Corporation",
        "locality": "South Bend",
        "nickname": "SBOTZ",
        "region": "IN",
        "team_number": 1327,
        "location": "South Bend, IN, USA",
        "key": "frc1327",
        "country_name": "USA",
        "motto": null,
        "rookie_year": 2004
    },
    {
        "website": "http://www.roborebels.com/",
        "name": "St. Louis Priory School/Visitation Academy/The Boeing Company/Google/Monsanto/Nidec Motor Corporation&St Louis Priory School&Visitation Academy of St Louis",
        "locality": "St. Louis",
        "nickname": "ROBOREBELS",
        "region": "Missouri",
        "team_number": 1329,
        "location": "St. Louis, Missouri 63141, USA",
        "key": "frc1329",
        "country_name": "USA",
        "motto": null,
        "rookie_year": 2004
    },
    {
        "website": "http://team1330.com",
        "name": "TDSB & Sir Robert L Borden Business & Technical Institute",
        "locality": "Toronto",
        "nickname": "Quiet Riot",
        "region": "ON",
        "team_number": 1330,
        "location": "Toronto, ON, Canada",
        "key": "frc1330",
        "country_name": "Canada",
        "motto": null,
        "rookie_year": 2004
    },
    {
        "website": "http://www.hhills.mccsc.edu/web%20stuff/website.htm",
        "name": "NASA/Boston Scientific/Raymond Foundation/Wilson Tool & Engineering/MCCSC Foundation & Hoosier Hills Career Center & Bloomington High School South",
        "locality": "Bloomington",
        "nickname": "Broot Force",
        "region": "IN",
        "team_number": 1331,
        "location": "Bloomington, IN, USA",
        "key": "frc1331",
        "country_name": "USA",
        "motto": null,
        "rookie_year": 2004
    },
    {
        "website": "http://www.pvrobotics1332.weebly.com",
        "name": "Laramie Energy, LLC/Town of Collbran/FCI Constructors, Inc./Collbran Auto Parts/Pinon Engineering Inc&Plateau Valley High School",
        "locality": "Collbran",
        "nickname": "Swift",
        "region": "Colorado",
        "team_number": 1332,
        "location": "Collbran, Colorado 81624, USA",
        "key": "frc1332",
        "country_name": "USA",
        "motto": null,
        "rookie_year": 2004
    },
    {
        "website": "http://www.1334.ca",
        "name": "Martinrea & Hydroform / Siemens / Hatch / Zzen / Optimist Club of Oakville / Professional Engineers of Ontario / Javelin Technolgies & Oakville-Trafalgar High School",
        "locality": "Oakville",
        "nickname": "Red Devils",
        "region": "Ontario",
        "team_number": 1334,
        "location": "Oakville, Ontario L6J 3L6, Canada",
        "key": "frc1334",
        "country_name": "Canada",
        "motto": "Where science takes action",
        "rookie_year": 2004
    },
    {
        "website": "http://www.team1335.org",
        "name": "Raymond High School",
        "locality": "Raymond",
        "nickname": "Cognitive Hazard",
        "region": "NH",
        "team_number": 1335,
        "location": "Raymond, NH, USA",
        "key": "frc1335",
        "country_name": "USA",
        "motto": null,
        "rookie_year": 2004
    },
    {
        "website": "http://www.lexington1.net/wkh/Robotics/index.htm",
        "name": "Intel Corporation & Lexington School District 1 & White Knoll High School",
        "locality": "Lexington",
        "nickname": "The Untouchables",
        "region": "SC",
        "team_number": 1336,
        "location": "Lexington, SC, USA",
        "key": "frc1336",
        "country_name": "USA",
        "motto": null,
        "rookie_year": 2004
    },
    {
        "website": null,
        "name": "Lockheed Martin/NASA/Ball Aerospace/Hewlett Packard/Information Handling Systems/Dillon Software/University of Denver/Lander Dental/General Electric Rail & Eaglecrest High School",
        "locality": "Aurora",
        "nickname": "Birds of Prey",
        "region": "CO",
        "team_number": 1338,
        "location": "Aurora, CO, USA",
        "key": "frc1338",
        "country_name": "USA",
        "motto": null,
        "rookie_year": 2004
    },
    {
        "website": "http://www.angelbotics.com",
        "name": "Denver Public Schools/Plasticare/Lockheed Martin/ULA/Stapleton Family Karate/EAFAF/Chipotle/Blue Flame Powder Coating/The Uber Sausage/Zancanella and Associates&East High School",
        "locality": "Denver",
        "nickname": "AngelBotics",
        "region": "Colorado",
        "team_number": 1339,
        "location": "Denver, Colorado 80206, USA",
        "key": "frc1339",
        "country_name": "USA",
        "motto": "hey lo lo hey lo lo hey",
        "rookie_year": 2004
    },
    {
        "website": "http://www.adamsrobotics.org",
        "name": "Bezos/Pershing Square",
        "locality": "Queens",
        "nickname": "Spartan Robotics",
        "region": "NY",
        "team_number": 1340,
        "location": "Queens, NY, USA",
        "key": "frc1340",
        "country_name": "USA",
        "motto": null,
        "rookie_year": null
    },
    {
        "website": null,
        "name": "Sun Hydraulics Corporation & Cardinal Mooney High School",
        "locality": "Sarasota",
        "nickname": "The Renegades",
        "region": "FL",
        "team_number": 1341,
        "location": "Sarasota, FL, USA",
        "key": "frc1341",
        "country_name": "USA",
        "motto": null,
        "rookie_year": 2004
    },
    {
        "website": "http://www.lordofthebots.org",
        "name": "Synapse Strategic Product Development/NASA & West Seattle High School",
        "locality": "Seattle",
        "nickname": "Lord of the Bots",
        "region": "WA",
        "team_number": 1342,
        "location": "Seattle, WA, USA",
        "key": "frc1342",
        "country_name": "USA",
        "motto": null,
        "rookie_year": 2004
    },
    {
        "website": null,
        "name": "Desert Vista Technology and Math Departments",
        "locality": "Phoenix",
        "nickname": "DV ROBOTICS",
        "region": "AZ",
        "team_number": 1343,
        "location": "Phoenix, AZ, USA",
        "key": "frc1343",
        "country_name": "USA",
        "motto": null,
        "rookie_year": 2004
    },
    {
        "website": "http://www.myschoolpages.com/schools/stranahanhs/magnet.cfm?subpage=489964",
        "name": "DeVry University & Stranahan High School",
        "locality": "Ft. Lauderdale",
        "nickname": "Platinum Dragons",
        "region": "FL",
        "team_number": 1345,
        "location": "Ft. Lauderdale, FL, USA",
        "key": "frc1345",
        "country_name": "USA",
        "motto": null,
        "rookie_year": 2004
    },
    {
        "website": "http://www.trobotics.ca",
        "name": "General Motors Canada & David Thompson Secondary School",
        "locality": "Vancouver",
        "nickname": "Trobotics",
        "region": "BC",
        "team_number": 1346,
        "location": "Vancouver, BC, Canada",
        "key": "frc1346",
        "country_name": "Canada",
        "motto": null,
        "rookie_year": 2004
    },
    {
        "website": "http://www.elmwoodedge.com/Robotics/Pages/pg_flashindex.html",
        "name": "Elmwood School",
        "locality": "Ottawa",
        "nickname": "E-Robotics",
        "region": "ON",
        "team_number": 1347,
        "location": "Ottawa, ON, Canada",
        "key": "frc1347",
        "country_name": "Canada",
        "motto": null,
        "rookie_year": 2004
    },
    {
        "website": "http://www.KennedyRobotics.com",
        "name": "Denver Public Schools/Rogue Engineering/Lockheed Martin Space Systems/Lockheed Martin/ProtoTest",
        "locality": "Denver",
        "nickname": "Electric Anarchy",
        "region": "CO",
        "team_number": 1348,
        "location": "Denver, CO, USA",
        "key": "frc1348",
        "country_name": "USA",
        "motto": null,
        "rookie_year": 2004
    },
    {
        "website": null,
        "name": "Flandreau Indian School",
        "locality": "Flandreau",
        "nickname": "Inter-tribal Robotics Group",
        "region": "SD",
        "team_number": 1349,
        "location": "Flandreau, SD, USA",
        "key": "frc1349",
        "country_name": "USA",
        "motto": null,
        "rookie_year": 2004
    },
    {
        "website": "http://rambots.net",
        "name": "Raytheon & La Salle Academy",
        "locality": "Providence",
        "nickname": "The Rambots",
        "region": "Rhode Island",
        "team_number": 1350,
        "location": "Providence, Rhode Island 02908, USA",
        "key": "frc1350",
        "country_name": "USA",
        "motto": "Rambots are what Rambots Do",
        "rookie_year": 2004
    },
    {
        "website": "http://www.amhsrobotics.com/",
        "name": "BAE Systems/Drake Welding, Inc./EMC Corporation/Google Inc./Gorilla Metals/HSC Electronic Supply/Intuitive Surgical, Inc./JetBrains/LUX Manufacturing Inc./Microsoft Corporation/Mike Schmit/ProxyIT, Inc./Valin Corporation&ARCHBISHOP MITTY HIGH SCHOOL",
        "locality": "San Jose",
        "nickname": "TKO",
        "region": "California",
        "team_number": 1351,
        "location": "San Jose, California 95129, USA",
        "key": "frc1351",
        "country_name": "USA",
        "motto": "Tenacity, Knowledge, Opportunity",
        "rookie_year": 2004
    },
    {
        "website": null,
        "name": "Novatronics & Stratford Northwestern Secondary School",
        "locality": "Stratford",
        "nickname": "Huskie Robotics",
        "region": "ON",
        "team_number": 1352,
        "location": "Stratford, ON, Canada",
        "key": "frc1352",
        "country_name": "Canada",
        "motto": null,
        "rookie_year": 2004
    },
    {
        "website": "http://www.lorneparkrobotics.com",
        "name": "Atomic Energy of Canada & Lorne Park Secondary School",
        "locality": "Mississauga",
        "nickname": "The Spartans",
        "region": "ON",
        "team_number": 1353,
        "location": "Mississauga, ON, Canada",
        "key": "frc1353",
        "country_name": "Canada",
        "motto": null,
        "rookie_year": 2004
    },
    {
        "website": "http://www.amdsb.ca/Madill/robotics/iron_stallions.html",
        "name": "Wescast & F.E. Madill Secondary School",
        "locality": "Wingham",
        "nickname": "Stallions",
        "region": "ON",
        "team_number": 1355,
        "location": "Wingham, ON, Canada",
        "key": "frc1355",
        "country_name": "Canada",
        "motto": null,
        "rookie_year": 2004
    },
    {
        "website": "http://www.www.com",
        "name": "\u00c9cole secondaire l'Essor",
        "locality": "Tecumseh",
        "nickname": "\u00c9coles secondaires l'Essor et Lajeunesse",
        "region": "ON",
        "team_number": 1356,
        "location": "Tecumseh, ON, Canada",
        "key": "frc1356",
        "country_name": "Canada",
        "motto": null,
        "rookie_year": 2004
    },
    {
        "website": "http://tvrobotics.googlepages.com",
        "name": "SRT / Agilent Technologies, Inc. / Spatial Corp. & Thompson Valley High School",
        "locality": "Loveland",
        "nickname": "High Voltage",
        "region": "CO",
        "team_number": 1357,
        "location": "Loveland, CO, USA",
        "key": "frc1357",
        "country_name": "USA",
        "motto": null,
        "rookie_year": 2004
    },
    {
        "website": "http://www.levittownschools.com",
        "name": "The Macarthur Generals",
        "locality": "Levittown",
        "nickname": "The Generals",
        "region": "NY",
        "team_number": 1358,
        "location": "Levittown, NY, USA",
        "key": "frc1358",
        "country_name": "USA",
        "motto": null,
        "rookie_year": 2004
    },
    {
        "website": "http://www.scalawags.org",
        "name": "Linn Benton Community College/Oregon Dept of Eduacation/ImTech, Inc./Rotary Club of Greater Albany/Rotary Club of Albany/Concept Systems, Inc./IBEW Local 280/First Tech Credit Union & Venture Crew 308",
        "locality": "Lebanon",
        "nickname": "Scalawags",
        "region": "Oregon",
        "team_number": 1359,
        "location": "Lebanon, Oregon 97355, USA",
        "key": "frc1359",
        "country_name": "USA",
        "motto": "Prepare to be boarded",
        "rookie_year": 2004
    },
    {
        "website": "http://www.1360.ca",
        "name": "Sheridan College/Pratt & Whitney Canada/TransCanada Corporation/SolidWorks/CEC Controls/Teradata/Empire Wire/Optimist Club of Oakville/Gerrie Electric/TD/Cisco&Oakville Community FIRST Robotics",
        "locality": "Oakville",
        "nickname": "Orbit Robotics",
        "region": "Ontario",
        "team_number": 1360,
        "location": "Oakville, Ontario L6J 3H1, Canada",
        "key": "frc1360",
        "country_name": "Canada",
        "motto": null,
        "rookie_year": 2004
    },
    {
        "website": "http://www.firstinspires.org/",
        "name": "SIERRA HIGH SCHOOL",
        "locality": "Colorado Springs",
        "nickname": "Nightmare Robotics",
        "region": "Colorado",
        "team_number": 1361,
        "location": "Colorado Springs, Colorado, USA",
        "key": "frc1361",
        "country_name": "USA",
        "motto": "?",
        "rookie_year": 2004
    },
    {
        "website": null,
        "name": "Ryobi/Marathon Ashland & Kennesaw Mountain HS",
        "locality": "Kennesaw",
        "nickname": "",
        "region": "GA",
        "team_number": 1364,
        "location": "Kennesaw, GA, USA",
        "key": "frc1364",
        "country_name": "USA",
        "motto": null,
        "rookie_year": 2004
    },
    {
        "website": "http://www.thesouthsidesurgeons.freeservers.com",
        "name": "Beauty Mark & Christian Fenger Academy",
        "locality": "Chicago",
        "nickname": "The Bot Docs",
        "region": "IL",
        "team_number": 1365,
        "location": "Chicago, IL, USA",
        "key": "frc1365",
        "country_name": "USA",
        "motto": null,
        "rookie_year": 2004
    },
    {
        "website": null,
        "name": "The Port Authority of NY & NJ / NJIT, Newark Public Schools & Newark Public Schools & West Side High School",
        "locality": "Newark",
        "nickname": "Roughriders",
        "region": "NJ",
        "team_number": 1366,
        "location": "Newark, NJ, USA",
        "key": "frc1366",
        "country_name": "USA",
        "motto": null,
        "rookie_year": 2004
    },
    {
        "website": null,
        "name": "SRT",
        "locality": "Newark",
        "nickname": "Blue Bears",
        "region": "NJ",
        "team_number": 1367,
        "location": "Newark, NJ, USA",
        "key": "frc1367",
        "country_name": "USA",
        "motto": null,
        "rookie_year": 2004
    },
    {
        "website": "http://www.firstbots.org",
        "name": "Raytheon & Countryside High School",
        "locality": "Clearwater",
        "nickname": "Perpetual Motion",
        "region": "FL",
        "team_number": 1368,
        "location": "Clearwater, FL, USA",
        "key": "frc1368",
        "country_name": "USA",
        "motto": null,
        "rookie_year": 2004
    },
    {
        "website": "http://www.FRC1369Minotaur.com",
        "name": "Suncoast Federal Credit Union/Lockheed Martin/JP Morgan Chase/Verizon/State of Florida/Tintri/Bay Area Manufacturers Association/VF Corporation/PRL Technologies, Inc./Tampa Bay Association of Environmental Professionals/Illinois Tool Works/Squire Patton Boggs (US) LLP/West Coast Medical Resources/Lindon Ventures/Third Gate Partners/Winder Insurance Group, LLC/Cardio Command/Middleton Magnet STEM Booster Club/CFS Metal Products/Discovery World Academy/On Wings of Gold/EngineArmor Performance Coating/Photos by Trace/SOFWERX/CEOMom&Middleton High School",
        "locality": "Tampa",
        "nickname": "Minotaur",
        "region": "Florida",
        "team_number": 1369,
        "location": "Tampa, Florida 33610-6207, USA",
        "key": "frc1369",
        "country_name": "USA",
        "motto": "Where Engineers are Born!",
        "rookie_year": 2004
    },
    {
        "website": "http://www.team1370.org/",
        "name": "Appoquinimink School District/Friends of Middletown Robotics/Town of Middletown, DE/Chesapeak Inn/Big Ball Maraton&Appoquinimink High School&Middletown High School",
        "locality": "Middletown",
        "nickname": "Thermogenesis",
        "region": "Delaware",
        "team_number": 1370,
        "location": "Middletown, Delaware 19709, USA",
        "key": "frc1370",
        "country_name": "USA",
        "motto": "Construimus.  Certamus.  Movemus.",
        "rookie_year": 2004
    },
    {
        "website": "http://www.douglasshighastros.com",
        "name": "Center for Engineering and Applied Technology",
        "locality": "Atlanta",
        "nickname": "Cosmic Gold",
        "region": "GA",
        "team_number": 1371,
        "location": "Atlanta, GA, USA",
        "key": "frc1371",
        "country_name": "USA",
        "motto": null,
        "rookie_year": 2004
    },
    {
        "website": "http://lambdacubed.com",
        "name": "Autodesk/Qualcomm",
        "locality": "San Diego",
        "nickname": "Lambda^3",
        "region": "CA",
        "team_number": 1372,
        "location": "San Diego, CA, USA",
        "key": "frc1372",
        "country_name": "USA",
        "motto": null,
        "rookie_year": 2004
    },
    {
        "website": "http://www.eosrobotics.org",
        "name": "UCONN & E.O.Smith",
        "locality": "Storrs",
        "nickname": "Spontaneous Combustion",
        "region": "CT",
        "team_number": 1373,
        "location": "Storrs, CT, USA",
        "key": "frc1373",
        "country_name": "USA",
        "motto": null,
        "rookie_year": 2004
    },
    {
        "website": null,
        "name": "OAKVILLE TRAFALGAR HIGH SCHOOL",
        "locality": "Oakville",
        "nickname": "Amped Up",
        "region": "Ontario",
        "team_number": 1374,
        "location": "Oakville, Ontario l6j 3l6, Canada",
        "key": "frc1374",
        "country_name": "Canada",
        "motto": null,
        "rookie_year": 2004
    },
    {
        "website": "http://www.team1375.com",
        "name": "Raytheon Company/Northrop Grumman Corporation & Aurora Central High School & Denver School of Science and Technology",
        "locality": "Aurora",
        "nickname": "The Drifters",
        "region": "CO",
        "team_number": 1375,
        "location": "Aurora, CO, USA",
        "key": "frc1375",
        "country_name": "USA",
        "motto": null,
        "rookie_year": 2004
    },
    {
        "website": "http://www.geocities.com/teamspaceballs/home.html",
        "name": "GCPS & South Gwinnett High School",
        "locality": "Snellville",
        "nickname": "The Spaceballs",
        "region": "GA",
        "team_number": 1376,
        "location": "Snellville, GA, USA",
        "key": "frc1376",
        "country_name": "USA",
        "motto": null,
        "rookie_year": 2004
    },
    {
        "website": "http://www.team1377.com",
        "name": "DeVry University/jcpenney/Ball Aerospace & Technologies Corp & Bollman Center",
        "locality": "Thornton",
        "nickname": "Adams 12 Aliens",
        "region": "CO",
        "team_number": 1377,
        "location": "Thornton, CO, USA",
        "key": "frc1377",
        "country_name": "USA",
        "motto": null,
        "rookie_year": 2004
    },
    {
        "website": "http://www.hilovikingrobotics.com",
        "name": "Ryan Nakasato / Hilo High School Foundation / Hawaii Electric Light Company / Subaru Telescope NAOJ / Rotary Club of Hilo Bay / BAE Systems / Submillimeter Array / 2014 FRC Hardship Grant / Hilo Steel Works / Stick-It Hawaii / Hawaii Community College & Hilo High School",
        "locality": "Hilo",
        "nickname": "Hilo Viking Robotics",
        "region": "Hawaii",
        "team_number": 1378,
        "location": "Hilo, Hawaii 96720, USA",
        "key": "frc1378",
        "country_name": "USA",
        "motto": "#WSF (Work/Safety/Fun)",
        "rookie_year": 2004
    },
    {
        "website": "http://www.geardevils.org",
        "name": "EMS Technologies of Honeywell / Gwinnett County Public Schools / Nordson Corporation & NORCROSS HIGH SCHOOL",
        "locality": "Norcross",
        "nickname": "Gear Devils",
        "region": "GA",
        "team_number": 1379,
        "location": "Norcross, GA, USA",
        "key": "frc1379",
        "country_name": "USA",
        "motto": null,
        "rookie_year": 2004
    },
    {
        "website": "http://www.berkmarteched.com",
        "name": "Berkmar High School",
        "locality": "Lilburn",
        "nickname": "",
        "region": "GA",
        "team_number": 1380,
        "location": "Lilburn, GA, USA",
        "key": "frc1380",
        "country_name": "USA",
        "motto": null,
        "rookie_year": 2004
    },
    {
        "website": "http://team1382.com.br",
        "name": "Escola Tecnica Prof. Everardo Passos",
        "locality": "Sao Jose dos Campos",
        "nickname": "ETEP Team",
        "region": "S\u00e3o Paulo",
        "team_number": 1382,
        "location": "Sao Jose dos Campos, S\u00e3o Paulo 12242-800, Brazil",
        "key": "frc1382",
        "country_name": "Brazil",
        "motto": null,
        "rookie_year": 2004
    },
    {
        "website": "http://www.vinelandrobotics.tk",
        "name": "Vineland High School",
        "locality": "Vineland",
        "nickname": "Vineland High School Fighting Clan",
        "region": "NJ",
        "team_number": 1384,
        "location": "Vineland, NJ, USA",
        "key": "frc1384",
        "country_name": "USA",
        "motto": null,
        "rookie_year": 2004
    },
    {
        "website": "http://www.wcirobotics.com",
        "name": "University of Waterloo/Research In Motion/University of Waterloo & Waterloo Collegiate",
        "locality": "Waterloo",
        "nickname": "The Brainstormers",
        "region": "ON",
        "team_number": 1385,
        "location": "Waterloo, ON, Canada",
        "key": "frc1385",
        "country_name": "Canada",
        "motto": null,
        "rookie_year": 2004
    },
    {
        "website": "http://www.trobots.com",
        "name": "The Timken Company/Leghart & Associates inc./Union Metal/Lockheed Martin/Premier Dental/Rolls-Royce/Graco/IEEE of Akron/ASME & Timken Senior High School",
        "locality": "Canton",
        "nickname": "The Trobots",
        "region": "OH",
        "team_number": 1386,
        "location": "Canton, OH, USA",
        "key": "frc1386",
        "country_name": "USA",
        "motto": null,
        "rookie_year": 2004
    },
    {
        "website": null,
        "name": "Sacramento Waldorf School",
        "locality": "Fair Oaks",
        "nickname": "Rudy's Rangers",
        "region": "CA",
        "team_number": 1387,
        "location": "Fair Oaks, CA, USA",
        "key": "frc1387",
        "country_name": "USA",
        "motto": null,
        "rookie_year": 2004
    },
    {
        "website": "http://www.eaglerobotics.com",
        "name": "Melfred Borzall/College of the Canyons/Boeing/Pacific Gas & Electric & Arroyo Grande High",
        "locality": "Arroyo Grande",
        "nickname": "Eagle Robotics",
        "region": "California",
        "team_number": 1388,
        "location": "Arroyo Grande, California 93420, USA",
        "key": "frc1388",
        "country_name": "USA",
        "motto": "Engage, Challenge, Inspire",
        "rookie_year": 2004
    },
    {
        "website": "http://www.team1389.com",
        "name": "Lockheed Martin/Booz Allen Hamilton/Castlewood Builders/Chipotle/Mama Lucia's/national Metal Fabricators/RenewablE Energy Company & Walt Whitman High",
        "locality": "Bethesda",
        "nickname": "The Body Electric ",
        "region": "Maryland",
        "team_number": 1389,
        "location": "Bethesda, Maryland 20817, USA",
        "key": "frc1389",
        "country_name": "USA",
        "motto": "Building Leaders and Community One Robot At A Time",
        "rookie_year": 2004
    },
    {
        "website": "http://mekheads1390.webs.com",
        "name": "Harmony High School & Osceola County School for the Arts & Saint Cloud High School & TECO Paths High School",
        "locality": "St. Cloud & Harmony",
        "nickname": "MEKHEADS",
        "region": "FL",
        "team_number": 1390,
        "location": "St. Cloud & Harmony, FL, USA",
        "key": "frc1390",
        "country_name": "USA",
        "motto": null,
        "rookie_year": 2004
    },
    {
        "website": "http://www.firstinspires.org/",
        "name": "IMC Construction/Adaptive Textiles/Tullman Walker Racing/Superion Technology/Arnold Investment Group/The Rue Crew/LoweRiders Bikes & Boards/Sandgate Technologies/PetRad, LLC. & Westtown School",
        "locality": "West Chester",
        "nickname": "The METAL MOOSE",
        "region": "Pennsylvania",
        "team_number": 1391,
        "location": "West Chester, Pennsylvania 193828, USA",
        "key": "frc1391",
        "country_name": "USA",
        "motto": "the moose is loose",
        "rookie_year": 2004
    },
    {
        "website": null,
        "name": "J. Clarke Richardson Collegiate",
        "locality": "Ajax",
        "nickname": "KINEMATRIX",
        "region": "ON",
        "team_number": 1392,
        "location": "Ajax, ON, Canada",
        "key": "frc1392",
        "country_name": "Canada",
        "motto": null,
        "rookie_year": 2004
    },
    {
        "website": "http://www.cecrobotics.com",
        "name": "NASA/Sandia National Labs/Lockheed Martin/Albuquerque JOURNAL & Career Enrichment Center",
        "locality": "Albuquerque",
        "nickname": "Nordic Legions",
        "region": "NM",
        "team_number": 1393,
        "location": "Albuquerque, NM, USA",
        "key": "frc1393",
        "country_name": "USA",
        "motto": null,
        "rookie_year": 2004
    },
    {
        "website": "http://www.masteryrobotics.org",
        "name": "Mastery High School Robotics",
        "locality": "Philadelphia",
        "nickname": "The Juggernaut",
        "region": "PA",
        "team_number": 1394,
        "location": "Philadelphia, PA, USA",
        "key": "frc1394",
        "country_name": "USA",
        "motto": null,
        "rookie_year": 2004
    },
    {
        "website": null,
        "name": "NASA/Lockheed/Ball/HP/IHS/DU & Adams City High School",
        "locality": "Commerce City",
        "nickname": "Los Picachos",
        "region": "CO",
        "team_number": 1395,
        "location": "Commerce City, CO, USA",
        "key": "frc1395",
        "country_name": "USA",
        "motto": null,
        "rookie_year": 2004
    },
    {
        "website": "http://pyrobots.org/",
        "name": "NYS Senator Andrew Lanza / JCC Beacon Program / Lee Ann Realty / Clove Auto Body & Tottenville High School",
        "locality": "Staten Island",
        "nickname": "Pyrobots",
        "region": "New York",
        "team_number": 1396,
        "location": "Staten Island, New York 10312, USA",
        "key": "frc1396",
        "country_name": "USA",
        "motto": "Keep it simple",
        "rookie_year": 2004
    },
    {
        "website": "http://www.ajaxhs.com",
        "name": "OPG, /SailRail/Bon-l/Carlyon Drywall & Ajax High School",
        "locality": "Ajax",
        "nickname": "Oh! know",
        "region": "ON",
        "team_number": 1397,
        "location": "Ajax, ON, Canada",
        "key": "frc1397",
        "country_name": "Canada",
        "motto": null,
        "rookie_year": 2004
    },
    {
        "website": "http://tinyurl.com/team1398",
        "name": "Richland School District One/It-oLogy/American Association of Blacks in Energy/USC College of Engineering & W.J. Keenan High",
        "locality": "Columbia",
        "nickname": "Robo-Raiders",
        "region": "South Carolina",
        "team_number": 1398,
        "location": "Columbia, South Carolina 29203, USA",
        "key": "frc1398",
        "country_name": "USA",
        "motto": "We build together and achieve together.  It's just a REAL thing.",
        "rookie_year": 2004
    },
    {
        "website": "http://www.geocities.com/mechanikatz/Mechanikatz.html",
        "name": "Laureate/FESTO Neumatics & Universidad del Valle de Mexico",
        "locality": "Naucalpan",
        "nickname": "Mekanicats",
        "region": "MEX",
        "team_number": 1401,
        "location": "Naucalpan, MEX, Mexico",
        "key": "frc1401",
        "country_name": "Mexico",
        "motto": null,
        "rookie_year": 2004
    },
    {
        "website": null,
        "name": "DeVry University/Phu Space/Walt Disney world & Freedom High School",
        "locality": "Orlando",
        "nickname": "Freedom FORCE",
        "region": "FL",
        "team_number": 1402,
        "location": "Orlando, FL, USA",
        "key": "frc1402",
        "country_name": "USA",
        "motto": null,
        "rookie_year": 2004
    },
    {
        "website": "http://www.cougarrobotics.com/",
        "name": "Montgomery Township School District/nrg energy/Bristol-Myers Squibb/National Defense Education Program & Hopewell",
        "locality": "Skillman",
        "nickname": "Cougar Robotics",
        "region": "New Jersey",
        "team_number": 1403,
        "location": "Skillman, New Jersey 08558, USA",
        "key": "frc1403",
        "country_name": "USA",
        "motto": null,
        "rookie_year": 2004
    },
    {
        "website": null,
        "name": "TDSB & Dr Norman Bethune CI",
        "locality": "Toronto",
        "nickname": "Shocks",
        "region": "ON",
        "team_number": 1404,
        "location": "Toronto, ON, Canada",
        "key": "frc1404",
        "country_name": "Canada",
        "motto": null,
        "rookie_year": 2004
    },
    {
        "website": "http://team1405robotics.com/index.html",
        "name": "The Hoselton Foundation/Golisano Institute for Sustainability at RIT/Xerox/Finger Lakes Tram/Cook Iron/Techwell Solutions/Arrow Electronics/Klein Steele/Canandaigua National Bank/United Methodist Church of North Chili/LEAH Homeschoolers/RGE & Charles Finney School",
        "locality": "Penfield",
        "nickname": "Finney Falcons",
        "region": "New York",
        "team_number": 1405,
        "location": "Penfield, New York 14526, USA",
        "key": "frc1405",
        "country_name": "USA",
        "motto": null,
        "rookie_year": 2004
    },
    {
        "website": null,
        "name": "NASA & Fulton Cty Charter HS of Math & Sc",
        "locality": "Roswell",
        "nickname": "Team Robius",
        "region": "GA",
        "team_number": 1406,
        "location": "Roswell, GA, USA",
        "key": "frc1406",
        "country_name": "USA",
        "motto": null,
        "rookie_year": 2004
    },
    {
        "website": "http://www.ahstechnology.com",
        "name": "NASA/innovation Plus, Inc. & Apalachee High School",
        "locality": "Winder",
        "nickname": "The ElectroCats",
        "region": "GA",
        "team_number": 1407,
        "location": "Winder, GA, USA",
        "key": "frc1407",
        "country_name": "USA",
        "motto": null,
        "rookie_year": 2004
    },
    {
        "website": null,
        "name": "Jefferson High School",
        "locality": "Edgewater",
        "nickname": "The Saintinators",
        "region": "CO",
        "team_number": 1408,
        "location": "Edgewater, CO, USA",
        "key": "frc1408",
        "country_name": "USA",
        "motto": null,
        "rookie_year": 2004
    },
    {
        "website": null,
        "name": "LEGO & Simon's Rock College",
        "locality": "Great Barrington",
        "nickname": "",
        "region": "MA",
        "team_number": 1409,
        "location": "Great Barrington, MA, USA",
        "key": "frc1409",
        "country_name": "USA",
        "motto": null,
        "rookie_year": 2004
    },
    {
        "website": "http://www.frc1410.org",
        "name": "Denver Public Schools/Comcast NBC Universal/Ball Aerospace & Technologies Corp./Technetronic Solutions/Walmart/US Engineering/Cartasite/TreanorHL/Barnes & Noble&George Washington High School",
        "locality": "Denver",
        "nickname": "The Kraken",
        "region": "Colorado",
        "team_number": 1410,
        "location": "Denver, Colorado 80224, USA",
        "key": "frc1410",
        "country_name": "USA",
        "motto": "Release the Kraken!",
        "rookie_year": 2004
    },
    {
        "website": "http://www.tfcrobotics.tk",
        "name": "Industrial Machine Services (IMS) & Turner Fenton Secondary School",
        "locality": "Brampton",
        "nickname": "Trojens",
        "region": "ON",
        "team_number": 1411,
        "location": "Brampton, ON, Canada",
        "key": "frc1411",
        "country_name": "Canada",
        "motto": null,
        "rookie_year": 2004
    },
    {
        "website": "http://site2.hackensackschools.org",
        "name": "Mercedes Benz USA & Hackensack High School",
        "locality": "Hackensack",
        "nickname": "The Comet Warriors",
        "region": "NJ",
        "team_number": 1412,
        "location": "Hackensack, NJ, USA",
        "key": "frc1412",
        "country_name": "USA",
        "motto": null,
        "rookie_year": 2004
    },
    {
        "website": "http://www.skrappy1413.org",
        "name": "Mecklenburg County Public Schools/MBC/Longwood University Institute for Teaching through Technology and Innovative Practices/Southside Virginia Regional Technology Consortium/Clarksville Ruritans/Mecklenburg County Business Education Partnership/Mecklenburg Electric Co operative & Bluestone  High",
        "locality": "Skipwith",
        "nickname": "Skrappy 1413",
        "region": "Virginia",
        "team_number": 1413,
        "location": "Skipwith, Virginia 23968, USA",
        "key": "frc1413",
        "country_name": "USA",
        "motto": "Gracious Professionalism",
        "rookie_year": 2004
    },
    {
        "website": "http://www.ihotrobotics.org",
        "name": "Atlanta International School/Pattillo Industrial Real Estate/SolidWorks/WIT & Atlanta International School",
        "locality": "Atlanta",
        "nickname": "IHOT",
        "region": "Georgia",
        "team_number": 1414,
        "location": "Atlanta, Georgia 30305, USA",
        "key": "frc1414",
        "country_name": "USA",
        "motto": "Who's Hot, iHOT",
        "rookie_year": 2004
    },
    {
        "website": "http://www.picturemewords.com/firstrobotics",
        "name": "Pratt & Whitney & Northside High School",
        "locality": "Columbus",
        "nickname": "The Flying Pumpkins",
        "region": "GA",
        "team_number": 1415,
        "location": "Columbus, GA, USA",
        "key": "frc1415",
        "country_name": "USA",
        "motto": null,
        "rookie_year": 2004
    },
    {
        "website": "http://www.overlake.org/Robotics/index.htm",
        "name": "NASA & The Overlake School",
        "locality": "Redmond",
        "nickname": "Overlake Robotics Branch",
        "region": "WA",
        "team_number": 1416,
        "location": "Redmond, WA, USA",
        "key": "frc1416",
        "country_name": "USA",
        "motto": null,
        "rookie_year": 2004
    },
    {
        "website": "http://www.rcs.k12.va.us/hvhs/activity/First%20robotics%202004.htm",
        "name": "GE Drives & Controls, Inc & Hidden Valley",
        "locality": "Roanoke",
        "nickname": "Titans",
        "region": "VA",
        "team_number": 1417,
        "location": "Roanoke, VA, USA",
        "key": "frc1417",
        "country_name": "USA",
        "motto": null,
        "rookie_year": 2004
    },
    {
        "website": "http://1418.team",
        "name": "City of Falls Church Public Schools / Booz Allen Hamilton / Clark Construction Group, LLC / Markon Solutions / The Borja Family / Mr. Stan Fendley / AT &T / AFCEA NOVA / VirginiaFIRST / Mission Analytics, LLC / Falls Church Education Foundation / AV3, Incorporated / The Rondon Family / SAIC / Janice C. Nette, Quilter Extraordinaire / Financial Management Institute / Steve Miller and Anne Polivka / Kieran and Barbara Sharpe & George Mason High",
        "locality": "Falls Church",
        "nickname": "Vae Victis",
        "region": "Virginia",
        "team_number": 1418,
        "location": "Falls Church, Virginia 22043, USA",
        "key": "frc1418",
        "country_name": "USA",
        "motto": "Vae Victis",
        "rookie_year": 2004
    },
    {
        "website": "http://courseweb.interarts.ca/course/view.php?id=9",
        "name": "Ontario Power Generation & Courtice Secondary School",
        "locality": "Courtice",
        "nickname": "Rustic Roboteers",
        "region": "ON",
        "team_number": 1419,
        "location": "Courtice, ON, Canada",
        "key": "frc1419",
        "country_name": "Canada",
        "motto": null,
        "rookie_year": 2004
    },
    {
        "website": null,
        "name": "NASA/Sylvan Learning Center/Prism Technical Mgmt & Mktg/Home Depot & Southwestern High School",
        "locality": "Baltimore",
        "nickname": "Dept. of Exceptional Robots",
        "region": "MD",
        "team_number": 1420,
        "location": "Baltimore, MD, USA",
        "key": "frc1420",
        "country_name": "USA",
        "motto": null,
        "rookie_year": 2004
    },
    {
        "website": "https://www.facebook.com/FRCTEAMCHAOS1421",
        "name": "NASA/International Paper/Aerojet Rocketdyne/Mississippi Power Company/Lockheed Martin/Picayune Eye Clinic/Thomas Pump and Machinery/A2Research/United States Marine Inc. & Picayune Memorial High School & Pearl River Central High School",
        "locality": "Picayune",
        "nickname": "Team Chaos",
        "region": "Mississippi",
        "team_number": 1421,
        "location": "Picayune, Mississippi 39466, USA",
        "key": "frc1421",
        "country_name": "USA",
        "motto": "The Keys to knowledge and inspiration lie within the Chaos of ourselves.",
        "rookie_year": 2004
    },
    {
        "website": "http://team1422.com",
        "name": "Professional Engineers in California Government / NASA - The Robotics Alliance Project / Valley Chrome / Excelsior Metals, Inc. / Milne Photography / Robotics Workshop / Divine Logic / Bone Construction - Airport Specialities / SolidWorks / California State University Fresno / E and T Electric & Clovis West High",
        "locality": "Fresno",
        "nickname": "The Neon Knights",
        "region": "California",
        "team_number": 1422,
        "location": "Fresno, California 93720, USA",
        "key": "frc1422",
        "country_name": "USA",
        "motto": "Look to the neon lights, it's  where you'll find The Neon Knights!",
        "rookie_year": 2004
    },
    {
        "website": "http://www.wilsonvillerobotics.com",
        "name": "Xerox/Lam Research/City Of Wilsonville/Maxim Integrated Products/3D Systems/Mentor Graphics/Rockwell Collins/TE Connectivity/A-dec/Shields Manufacturing/Oregon Technology/Apex Plastics & Wilsonville High School",
        "locality": "Wilsonville",
        "nickname": "Error Code Xero",
        "region": "Oregon",
        "team_number": 1425,
        "location": "Wilsonville, Oregon 97070, USA",
        "key": "frc1425",
        "country_name": "USA",
        "motto": "Building Robots...Building People",
        "rookie_year": 2004
    },
    {
        "website": null,
        "name": "NASA-White Sands Test Facility/New Mexico State University & Lynn Middle School",
        "locality": "Las Cruces",
        "nickname": "Cougartronics",
        "region": "NM",
        "team_number": 1426,
        "location": "Las Cruces, NM, USA",
        "key": "frc1426",
        "country_name": "USA",
        "motto": null,
        "rookie_year": 2004
    },
    {
        "website": null,
        "name": "Bishop Manogue Catholic High School",
        "locality": "Reno",
        "nickname": "",
        "region": "NV",
        "team_number": 1427,
        "location": "Reno, NV, USA",
        "key": "frc1427",
        "country_name": "USA",
        "motto": null,
        "rookie_year": 2004
    },
    {
        "website": null,
        "name": "Zuni High School",
        "locality": "Zuni",
        "nickname": "T-Birds",
        "region": "NM",
        "team_number": 1428,
        "location": "Zuni, NM, USA",
        "key": "frc1428",
        "country_name": "USA",
        "motto": null,
        "rookie_year": 2004
    },
    {
        "website": "http://www.teamkaosrobotics.com",
        "name": "GE & GALENA PARK H S",
        "locality": "Galena Park",
        "nickname": "TEAM KAOS",
        "region": "TX",
        "team_number": 1429,
        "location": "Galena Park, TX, USA",
        "key": "frc1429",
        "country_name": "USA",
        "motto": null,
        "rookie_year": 2004
    },
    {
        "website": "http://www.wrong.tk",
        "name": "AREA/NASA & West Anchorage High School",
        "locality": "Anchorage",
        "nickname": "WRONG Doers",
        "region": "AK",
        "team_number": 1430,
        "location": "Anchorage, AK, USA",
        "key": "frc1430",
        "country_name": "USA",
        "motto": null,
        "rookie_year": 2004
    },
    {
        "website": "http://team1432.org",
        "name": "Knights of Pythias Ivanhoe Lodge No. 1/S.E. Portland Rotary/The Boeing Company/Free Geek/2015 FRC Hardship Grant & Explorer Post 89",
        "locality": "Portland",
        "nickname": "Metal Beavers",
        "region": "Oregon",
        "team_number": 1432,
        "location": "Portland, Oregon 97206, USA",
        "key": "frc1432",
        "country_name": "USA",
        "motto": "There's a time for science and a time for hitting stuff with hammers",
        "rookie_year": 2004
    },
    {
        "website": null,
        "name": "NASA & Newberg High School",
        "locality": "Newberg",
        "nickname": "Tiger Techies",
        "region": "OR",
        "team_number": 1433,
        "location": "Newberg, OR, USA",
        "key": "frc1433",
        "country_name": "USA",
        "motto": null,
        "rookie_year": 2004
    },
    {
        "website": "http://phs.psdr3.org",
        "name": "Pattonville High School",
        "locality": "Maryland Heights",
        "nickname": "The pi-Rats",
        "region": "MO",
        "team_number": 1435,
        "location": "Maryland Heights, MO, USA",
        "key": "frc1435",
        "country_name": "USA",
        "motto": null,
        "rookie_year": 2004
    },
    {
        "website": "http://www.pltw-fmhs.org",
        "name": "Black & Decker & Fort Mill High School",
        "locality": "Fort Mill",
        "nickname": "Jackets",
        "region": "SC",
        "team_number": 1436,
        "location": "Fort Mill, SC, USA",
        "key": "frc1436",
        "country_name": "USA",
        "motto": null,
        "rookie_year": 2004
    },
    {
        "website": "http://www.robotrams1437.org",
        "name": "General Motors Foundation/Val-Tec Hydraulics, Inc & Riverview Gardens",
        "locality": "St. Louis",
        "nickname": "Robot Rams",
        "region": "MO",
        "team_number": 1437,
        "location": "St. Louis, MO, USA",
        "key": "frc1437",
        "country_name": "USA",
        "motto": null,
        "rookie_year": 2004
    },
    {
        "website": "http://anaheim.auhsd.k12.ca.us/robotics/?rn=4987",
        "name": "The Boeing Company/Raytheon/MAES/VXB Ball Bearings/2015 FRC Hardship Grant & Anaheim High",
        "locality": "Anaheim",
        "nickname": "The A Team",
        "region": "California",
        "team_number": 1438,
        "location": "Anaheim, California 92805, USA",
        "key": "frc1438",
        "country_name": "USA",
        "motto": "I pity thy fool!",
        "rookie_year": 2004
    },
    {
        "website": null,
        "name": "jcpenney/WIT & Benjamin E. Mays High School",
        "locality": "Atlanta",
        "nickname": "Mays RBOT",
        "region": "GA",
        "team_number": 1439,
        "location": "Atlanta, GA, USA",
        "key": "frc1439",
        "country_name": "USA",
        "motto": null,
        "rookie_year": 2004
    },
    {
        "website": "http://www.lopatta.us/robotics",
        "name": "NASA & H.V. Jenkins High School",
        "locality": "Savannah",
        "nickname": "Warriors",
        "region": "GA",
        "team_number": 1440,
        "location": "Savannah, GA, USA",
        "key": "frc1440",
        "country_name": "USA",
        "motto": null,
        "rookie_year": 2004
    },
    {
        "website": null,
        "name": "Forest Ridge School",
        "locality": "Bellevue",
        "nickname": "RAVENS",
        "region": "WA",
        "team_number": 1441,
        "location": "Bellevue, WA, USA",
        "key": "frc1441",
        "country_name": "USA",
        "motto": null,
        "rookie_year": 2004
    },
    {
        "website": "http://www.usuarios.lycos.es/ehecatlrobotics",
        "name": "Johnson and Johnson & Preparatoria Chamizal",
        "locality": "Juarez",
        "nickname": "Ehecatl",
        "region": "CHH",
        "team_number": 1442,
        "location": "Juarez, CHH, Mexico",
        "key": "frc1442",
        "country_name": "Mexico",
        "motto": null,
        "rookie_year": 2004
    },
    {
        "website": "http://www.first1444.com",
        "name": "The Boeing Company / Rolla Alumni of Beta Sigma Psi / Nidec Motor Corporation / HTE Technologies / Engineered Sales & Engineering and Technology for Lutheran Youth",
        "locality": "Saint Louis",
        "nickname": "The Lightning Lancers",
        "region": "Missouri",
        "team_number": 1444,
        "location": "Saint Louis, Missouri 63123, USA",
        "key": "frc1444",
        "country_name": "USA",
        "motto": null,
        "rookie_year": 2004
    },
    {
        "website": "http://www.firstinspires.org/",
        "name": "Friendship Public Charter School/NASA/BAE Systems/National Defense Education Program & FRIENDSHIP PCS WOODSON COLLEGIATE CAMPUS",
        "locality": "Washington",
        "nickname": "Robo Knights",
        "region": "District of Columbia",
        "team_number": 1446,
        "location": "Washington, District of Columbia 20019, USA",
        "key": "frc1446",
        "country_name": "USA",
        "motto": null,
        "rookie_year": 2004
    },
    {
        "website": "http://www.dndtech.us/clhs",
        "name": "Daimler Chrysler Fund / GM CCRW / Tank Truck Service and Sales, Inc / Mopar & Center Line High School",
        "locality": "Center Line",
        "nickname": "Panther Robotics",
        "region": "MI",
        "team_number": 1447,
        "location": "Center Line, MI, USA",
        "key": "frc1447",
        "country_name": "USA",
        "motto": null,
        "rookie_year": 2004
    },
    {
        "website": "http://www.vikingnet.net/phs/robotics",
        "name": "Parsons Area Community Foundation/Taylor Products & Parsons Sr High",
        "locality": "Parsons",
        "nickname": "Parsons Vikings",
        "region": "Kansas",
        "team_number": 1448,
        "location": "Parsons, Kansas 67357, USA",
        "key": "frc1448",
        "country_name": "USA",
        "motto": null,
        "rookie_year": 2004
    },
    {
        "website": "http://www.wcboe.k12.md.us/custom_pages/430/tabler/robotics06/index.htm",
        "name": "JERR-DAN Corporation/Hagerstown / Washington County Industrial Foundation, Inc/Volvo Powertrain/Longmeadow Rotary Internatinal/The Maryland Space Business Roundtable, Inc./Washington County Public Schools/Regan-Matonak & Associates Structural Engineers & Williamsport High School & Parents and Friends of WHSrobocats",
        "locality": "Williamsport",
        "nickname": "Robocats",
        "region": "MD",
        "team_number": 1449,
        "location": "Williamsport, MD, USA",
        "key": "frc1449",
        "country_name": "USA",
        "motto": null,
        "rookie_year": 2004
    },
    {
        "website": "http://www.xq-robotix.com",
        "name": "Xerox Corp & Vanguard Collegiate High School & Integrated Arts and Technology High School",
        "locality": "Rochester",
        "nickname": "XQ RobotiX",
        "region": "New York",
        "team_number": 1450,
        "location": "Rochester, New York 14621, USA",
        "key": "frc1450",
        "country_name": "USA",
        "motto": "To Achieve is to Accomplish Your Dreams...",
        "rookie_year": 2004
    },
    {
        "website": "http://www.triad.madison.k12.il.us/robotics/index.htm",
        "name": "Troy Chamber of Commerce & Triad High School",
        "locality": "Troy",
        "nickname": "RoboKnights",
        "region": "IL",
        "team_number": 1451,
        "location": "Troy, IL, USA",
        "key": "frc1451",
        "country_name": "USA",
        "motto": null,
        "rookie_year": 2004
    },
    {
        "website": "http://team1452.com",
        "name": "Boeing/Windward School Robotics/Mr. and Mrs. Stephen and Jill Petty & Windward School",
        "locality": "Los Angeles",
        "nickname": "Omnicats",
        "region": "California",
        "team_number": 1452,
        "location": "Los Angeles, California 90066, USA",
        "key": "frc1452",
        "country_name": "USA",
        "motto": "Student Designed,  Student Built.",
        "rookie_year": 2004
    },
    {
        "website": null,
        "name": "Loyola High School",
        "locality": "Los Angeles",
        "nickname": "RoboCubs",
        "region": "CA",
        "team_number": 1453,
        "location": "Los Angeles, CA, USA",
        "key": "frc1453",
        "country_name": "USA",
        "motto": null,
        "rookie_year": 2004
    },
    {
        "website": "http://n/a",
        "name": "NASA/ & Eastern & Cheltenham",
        "locality": "Wyncote",
        "nickname": "NEC",
        "region": "PA",
        "team_number": 1455,
        "location": "Wyncote, PA, USA",
        "key": "frc1455",
        "country_name": "USA",
        "motto": null,
        "rookie_year": 2004
    },
    {
        "website": null,
        "name": "Intel & Basha High School",
        "locality": "Chandler",
        "nickname": "GrizzlyBots",
        "region": "AZ",
        "team_number": 1456,
        "location": "Chandler, AZ, USA",
        "key": "frc1456",
        "country_name": "USA",
        "motto": null,
        "rookie_year": 2004
    },
    {
        "website": "http://team1457.cecnv.org/Welcome.html",
        "name": "Miles Construction / Rosendale Technologies / Mactrek Consultants & Coral Academy of Science",
        "locality": "Reno",
        "nickname": "TRONN",
        "region": "NV",
        "team_number": 1457,
        "location": "Reno, NV, USA",
        "key": "frc1457",
        "country_name": "USA",
        "motto": null,
        "rookie_year": 2004
    },
    {
        "website": "http://www.team1458.com",
        "name": "Powermatic Associates / Bishop Wisecarver / Apple & Monte Vista High",
        "locality": "Danville",
        "nickname": "Red Tie Robotics",
        "region": "California",
        "team_number": 1458,
        "location": "Danville, California 94526, USA",
        "key": "frc1458",
        "country_name": "USA",
        "motto": "Take pride in your work",
        "rookie_year": 2004
    },
    {
        "website": "http://www.pilotpointisd.com/PPISD/Pphs/Robotics/index.htm",
        "name": "Peterbilt/Pilot Point Ace Hardware & Supply/Street Custom Homes (J&M Street, Inc.)/Sonic Drive-in of Pilot Point & Pilot Point High School",
        "locality": "Pilot Point",
        "nickname": "BearCats",
        "region": "TX",
        "team_number": 1459,
        "location": "Pilot Point, TX, USA",
        "key": "frc1459",
        "country_name": "USA",
        "motto": null,
        "rookie_year": 2004
    },
    {
        "website": "http://www.alief.isd.tenet.edu",
        "name": "Shell International Exploration",
        "locality": "Houston",
        "nickname": "Robolution",
        "region": "TX",
        "team_number": 1460,
        "location": "Houston, TX, USA",
        "key": "frc1460",
        "country_name": "USA",
        "motto": null,
        "rookie_year": 2004
    },
    {
        "website": null,
        "name": "DeVry University - South Florida & Miami Springs Senior High School",
        "locality": "Miami Springs",
        "nickname": "Golden Hawks",
        "region": "FL",
        "team_number": 1461,
        "location": "Miami Springs, FL, USA",
        "key": "frc1461",
        "country_name": "USA",
        "motto": null,
        "rookie_year": 2004
    },
    {
        "website": "http://www.team1462.org",
        "name": "School of Cooperative Technical Education",
        "locality": "New York",
        "nickname": "Tekeez",
        "region": "NY",
        "team_number": 1462,
        "location": "New York, NY, USA",
        "key": "frc1462",
        "country_name": "USA",
        "motto": null,
        "rookie_year": 2004
    },
    {
        "website": null,
        "name": "NASA/Home Depot & Lake Braddock Secondary School",
        "locality": "Burke",
        "nickname": "Transformers",
        "region": "VA",
        "team_number": 1463,
        "location": "Burke, VA, USA",
        "key": "frc1463",
        "country_name": "USA",
        "motto": null,
        "rookie_year": 2004
    },
    {
        "website": "http://www.team1464.org%20",
        "name": "Carroll County Career and Technology Center",
        "locality": "Westminster",
        "nickname": "Wolves",
        "region": "MD",
        "team_number": 1464,
        "location": "Westminster, MD, USA",
        "key": "frc1464",
        "country_name": "USA",
        "motto": null,
        "rookie_year": 2004
    },
    {
        "website": null,
        "name": "NASA & Dewitt Clinton High School",
        "locality": "Bronx",
        "nickname": "Code Breakers",
        "region": "NY",
        "team_number": 1465,
        "location": "Bronx, NY, USA",
        "key": "frc1465",
        "country_name": "USA",
        "motto": null,
        "rookie_year": 2004
    },
    {
        "website": "http://www.webbrobotics.org",
        "name": "Radio Systems Corporation/First Priority Title/Alcoa Inc./Tennessee Valley Authority/Consolidated Nuclear Security/Baird and Wilson Sheet Metal Fabrication/Calloway Oil Company/Ross and Emily Dempster/United States Air Force/Laura Ann Anderson&Webb School of Knoxville",
        "locality": "Knoxville",
        "nickname": "Webb Robotics",
        "region": "Tennessee",
        "team_number": 1466,
        "location": "Knoxville, Tennessee 37923, USA",
        "key": "frc1466",
        "country_name": "USA",
        "motto": "\"principes non homines\"",
        "rookie_year": 2004
    },
    {
        "website": "http://www.hsro.us",
        "name": "National Institute of Aeronautics & Home School Robotics Organization, Inc.",
        "locality": "Midlothian",
        "nickname": "HSRO",
        "region": "VA",
        "team_number": 1467,
        "location": "Midlothian, VA, USA",
        "key": "frc1467",
        "country_name": "USA",
        "motto": null,
        "rookie_year": 2004
    },
    {
        "website": "http://www.firstinspires.org/",
        "name": "BAE SYSTEMS & Hicksville High School",
        "locality": "Hicksville",
        "nickname": "Hicksville J-Birds",
        "region": "New York",
        "team_number": 1468,
        "location": "Hicksville, New York 11801, USA",
        "key": "frc1468",
        "country_name": "USA",
        "motto": "Heart.....builds robots",
        "rookie_year": 2004
    },
    {
        "website": "http://www.smithfirstteam.freehomepage.com",
        "name": "NC A&T & Smith",
        "locality": "Greensboro",
        "nickname": "The Labcoats",
        "region": "NC",
        "team_number": 1469,
        "location": "Greensboro, NC, USA",
        "key": "frc1469",
        "country_name": "USA",
        "motto": null,
        "rookie_year": 2004
    },
    {
        "website": "http://10.17.1.6/library/library.html",
        "name": "University of Pittsburgh & Oliver H. S. & Communities In Schools",
        "locality": "Pittsburgh",
        "nickname": "DA Bears",
        "region": "PA",
        "team_number": 1470,
        "location": "Pittsburgh, PA, USA",
        "key": "frc1470",
        "country_name": "USA",
        "motto": null,
        "rookie_year": 2004
    },
    {
        "website": "http://x-ile.info/genesis/home.php",
        "name": "NASA/Exxon Chemical Company/High School for Engineering Professions/Shell Chemical Company & Scotlandville Magnet High School",
        "locality": "Baton Rouge",
        "nickname": "GENESIS",
        "region": "LA",
        "team_number": 1472,
        "location": "Baton Rouge, LA, USA",
        "key": "frc1472",
        "country_name": "USA",
        "motto": null,
        "rookie_year": 2004
    },
    {
        "website": "http://www.tewksburyrobotics.org",
        "name": "Holt & Bugbee/Qualcomm/Advanced Polymer Coatings Ltd./Mercury Computer Systems Inc./Raytheon&Tewksbury Memorial High",
        "locality": "Tewksbury",
        "nickname": "Master Link Militia",
        "region": "Massachusetts",
        "team_number": 1474,
        "location": "Tewksbury, Massachusetts 01876, USA",
        "key": "frc1474",
        "country_name": "USA",
        "motto": null,
        "rookie_year": 2004
    },
    {
        "website": "http://www.looseconnections.dynu.com",
        "name": "Hoosier Toolmaking & Engineering/Raytheon & Leo High School",
        "locality": "Leo",
        "nickname": "LOOSE CONNECTIONS",
        "region": "IN",
        "team_number": 1475,
        "location": "Leo, IN, USA",
        "key": "frc1475",
        "country_name": "USA",
        "motto": null,
        "rookie_year": 2004
    },
    {
        "website": null,
        "name": "Vitec & University Preparatory High School",
        "locality": "Detroit",
        "nickname": "Der Eisenflug",
        "region": "MI",
        "team_number": 1476,
        "location": "Detroit, MI, USA",
        "key": "frc1476",
        "country_name": "USA",
        "motto": null,
        "rookie_year": 2004
    },
    {
        "website": "http://www.texastorque.org",
        "name": "Baker Hughes/ABB/ETSZONE/Laird Plastics/Conroe ISD/Halliburton/Anadarko/NRG/NEMA Enclosures/Crow Corp/Sherry and Alan Coats/Texas Workforce Commission/FIRST in Texas/DS SolidWorks&College Park H S",
        "locality": "Conroe",
        "nickname": "Texas Torque",
        "region": "Texas",
        "team_number": 1477,
        "location": "Conroe, Texas 77384, USA",
        "key": "frc1477",
        "country_name": "USA",
        "motto": "Building futures, one robot at a time.",
        "rookie_year": 2004
    },
    {
        "website": "http://team1478.ozautomation.com",
        "name": "OZ Automation & Nemaha Valley High School",
        "locality": "Seneca",
        "nickname": "The OZ Men",
        "region": "KS",
        "team_number": 1478,
        "location": "Seneca, KS, USA",
        "key": "frc1478",
        "country_name": "USA",
        "motto": null,
        "rookie_year": 2004
    },
    {
        "website": "http://www.nsbe-hsc.org",
        "name": "HArtman MS",
        "locality": "Houston",
        "nickname": "SWAT Team",
        "region": "TX",
        "team_number": 1479,
        "location": "Houston, TX, USA",
        "key": "frc1479",
        "country_name": "USA",
        "motto": null,
        "rookie_year": 2004
    },
    {
        "website": "http://hs.houstonisd.org/DavisHS/robotoslocos/home.html",
        "name": "MAES/Houston Robotics/Bezos Foundation & Jefferson Davis High School",
        "locality": "Houston",
        "nickname": "Robatos Locos",
        "region": "TX",
        "team_number": 1480,
        "location": "Houston, TX, USA",
        "key": "frc1480",
        "country_name": "USA",
        "motto": null,
        "rookie_year": 2004
    },
    {
        "website": "http://1481robotics.wix.com/the-riveters#!blog/c1gie",
        "name": "Autodesk/Novelis/FCA/Ford/Metro Bolt & Fastener/Wright Beamer, PLC&Mercy High School",
        "locality": "Farmington Hills",
        "nickname": "The Riveters",
        "region": "Michigan",
        "team_number": 1481,
        "location": "Farmington Hills, Michigan 48331, USA",
        "key": "frc1481",
        "country_name": "USA",
        "motto": "We can do it!",
        "rookie_year": 2004
    },
    {
        "website": "http://www.frc1482.ca",
        "name": "Tenaris / General Motors of Canada & Bishop Grandin High School",
        "locality": "Calgary",
        "nickname": "Ghosts",
        "region": "Alberta",
        "team_number": 1482,
        "location": "Calgary, Alberta T2V 2Y2, Canada",
        "key": "frc1482",
        "country_name": "Canada",
        "motto": null,
        "rookie_year": 2004
    },
    {
        "website": "http://www.hoggzilla.com",
        "name": "NASA Robotics Alliance Project/Houston Robotics/Jordan Fundamentals & Hogg Middle School",
        "locality": "Houston",
        "nickname": "Hoggzilla",
        "region": "TX",
        "team_number": 1484,
        "location": "Houston, TX, USA",
        "key": "frc1484",
        "country_name": "USA",
        "motto": null,
        "rookie_year": 2004
    },
    {
        "website": null,
        "name": "Houston Robotics & Wheatley High School",
        "locality": "Houston",
        "nickname": "",
        "region": "TX",
        "team_number": 1485,
        "location": "Houston, TX, USA",
        "key": "frc1485",
        "country_name": "USA",
        "motto": null,
        "rookie_year": 2004
    },
    {
        "website": "http://www.knightsrobotics.ca",
        "name": "Southern Alberta Insititute of Technology & Queen Elizabeth Campus",
        "locality": "Calgary",
        "nickname": "Knight Robotics",
        "region": "AB",
        "team_number": 1486,
        "location": "Calgary, AB, Canada",
        "key": "frc1486",
        "country_name": "Canada",
        "motto": null,
        "rookie_year": 2004
    },
    {
        "website": null,
        "name": "Shuert Industries & Roeper School",
        "locality": "Birmingham",
        "nickname": "Blood Sweat Gears",
        "region": "MI",
        "team_number": 1489,
        "location": "Birmingham, MI, USA",
        "key": "frc1489",
        "country_name": "USA",
        "motto": null,
        "rookie_year": 2004
    },
    {
        "website": null,
        "name": "Scarborough High School",
        "locality": "Houston",
        "nickname": "Sparta's Rockets",
        "region": "TX",
        "team_number": 1490,
        "location": "Houston, TX, USA",
        "key": "frc1490",
        "country_name": "USA",
        "motto": null,
        "rookie_year": 2004
    },
    {
        "website": "http://www.teamcautionrobotics.org",
        "name": "Microchip/UTC Aerospace Systems/Burns & McDonnell/Intel/Salt River Project/Friends of CAUTION&Family/Community",
        "locality": "Tempe",
        "nickname": "Team CAUTION",
        "region": "Arizona",
        "team_number": 1492,
        "location": "Tempe, Arizona 85281, USA",
        "key": "frc1492",
        "country_name": "USA",
        "motto": "The 10th time is the charm.",
        "rookie_year": 2004
    },
    {
        "website": "http://www.firstteam1493.com/index.html",
        "name": "National Grid/RPI/Albany Public Schools/New York Tech Valley FIRST Sponsors/Gene Haas Foundation/MILL at Rensselaer/NYSTAR/CATS/Stewart's Shops/Thomas-Fessler Family/Harple Family & Albany High School",
        "locality": "Albany",
        "nickname": " Falcons",
        "region": "New York",
        "team_number": 1493,
        "location": "Albany, New York 12203, USA",
        "key": "frc1493",
        "country_name": "USA",
        "motto": null,
        "rookie_year": 2004
    },
    {
        "website": "http://sites.google.com/site/roboticsteam1495/home",
        "name": "Avon Grove Hs",
        "locality": "West Grove",
        "nickname": "Red Devils",
        "region": "Pennsylvania",
        "team_number": 1495,
        "location": "West Grove, Pennsylvania 19390, USA",
        "key": "frc1495",
        "country_name": "USA",
        "motto": null,
        "rookie_year": 2004
    },
    {
        "website": null,
        "name": "Colegio Liceo del Valle",
        "locality": "Quito",
        "nickname": "IGUANA #1496",
        "region": "P",
        "team_number": 1496,
        "location": "Quito, P, Ecuador",
        "key": "frc1496",
        "country_name": "Ecuador",
        "motto": null,
        "rookie_year": 2004
    },
    {
        "website": "http://www.englewoodhighschool.org",
        "name": "",
        "locality": "Jacksonville",
        "nickname": "Ram Robotics",
        "region": "FL",
        "team_number": 1497,
        "location": "Jacksonville, FL, USA",
        "key": "frc1497",
        "country_name": "USA",
        "motto": null,
        "rookie_year": 2004
    }
]