[
    {
        "website": "http://www.firstinspires.org/",
        "name": "Shalhevet School",
        "locality": "Los Angeles",
        "nickname": "Firehawk Robotics",
        "region": "California",
        "team_number": 6000,
        "location": "Los Angeles, California 90035, USA",
        "key": "frc6000",
        "country_name": "USA",
        "motto": null,
        "rookie_year": 2016
    },
    {
        "website": "http://ciprobotica.weebly.com/",
        "name": "Montessori School Medellin / The Columbus School / Marymount School Medellin / Colegio San Jose de las Vegas / Colegio Colombo Britanico Medellin / Compania de Maria Medellin & Colombian Innovation Program",
        "locality": "Medellin",
        "nickname": "CIP",
        "region": "Antioquia",
        "team_number": 6001,
        "location": "Medellin, Antioquia 00000, Colombia",
        "key": "frc6001",
        "country_name": "Colombia",
        "motto": null,
        "rookie_year": 2016
    },
    {
        "website": "http://kcentralrobotics.blogspot.com/",
        "name": "F&A FABRICATING /  Michigan Department of Education / Argosy Foundation / ALRO Steel & Kalamazoo Central High School",
        "locality": "Kalamazoo",
        "nickname": "ZooBOTix",
        "region": "Michigan",
        "team_number": 6002,
        "location": "Kalamazoo, Michigan 49006, USA",
        "key": "frc6002",
        "country_name": "USA",
        "motto": null,
        "rookie_year": 2016
    },
    {
        "website": "http://www.facebook.com/sumrobotics",
        "name": "Campbell University/Argosy Foundation & Triton High & Harnett Central High & Overhills High School",
        "locality": "Buies Creek",
        "nickname": "SUM",
        "region": "North Carolina",
        "team_number": 6003,
        "location": "Buies Creek, North Carolina 27506, USA",
        "key": "frc6003",
        "country_name": "USA",
        "motto": "Embrace the Chaos",
        "rookie_year": 2016
    },
    {
        "website": "http://team6004.com/",
        "name": "f(x) Robotics/Duke Energy Foundation/Leidos/Town of Smithfield&Smithfield-Selma High",
        "locality": "Smithfield",
        "nickname": "f(x) Robotics",
        "region": "North Carolina",
        "team_number": 6004,
        "location": "Smithfield, North Carolina 27577, USA",
        "key": "frc6004",
        "country_name": "USA",
        "motto": null,
        "rookie_year": 2016
    },
    {
        "website": "http://cardinaltronics6005.weebly.com/",
        "name": "Pennies from Heaven/FRC Rookie Grant/State of Michigan/OxyChem/MetalWorks/Mason County Eastern Schools/Custer VFW/Mason-Lake Oceana Math and Science Network&Mason County Eastern Junior High/High School",
        "locality": "Custer",
        "nickname": "Cardinaltronics",
        "region": "Michigan",
        "team_number": 6005,
        "location": "Custer, Michigan 49405, USA",
        "key": "frc6005",
        "country_name": "USA",
        "motto": "Small school, big dreams",
        "rookie_year": 2016
    },
    {
        "website": "http://www.firstinspires.org/",
        "name": "Murray High School",
        "locality": "Albury",
        "nickname": "Albury High School",
        "region": "New South Wales",
        "team_number": 6006,
        "location": "Albury, New South Wales 2640, Australia",
        "key": "frc6006",
        "country_name": "Australia",
        "motto": null,
        "rookie_year": 2016
    },
    {
        "website": "http://www.firstinspires.org/",
        "name": "Camden Haven High School",
        "locality": "laurieton",
        "nickname": "RoboPod",
        "region": "New South Wales",
        "team_number": 6007,
        "location": "laurieton, New South Wales 2443, Australia",
        "key": "frc6007",
        "country_name": "Australia",
        "motto": null,
        "rookie_year": 2016
    },
    {
        "website": "http://www.firstinspires.org/",
        "name": "Princess Margaret Secondary",
        "locality": "Surrey",
        "nickname": "Lions",
        "region": "British Columbia",
        "team_number": 6008,
        "location": "Surrey, British Columbia V3W2M9, Canada",
        "key": "frc6008",
        "country_name": "Canada",
        "motto": null,
        "rookie_year": 2016
    },
    {
        "website": "http://www.firstinspires.org/",
        "name": "Argosy Foundation 2016 Rookie Grant/Toronto Catholic District School Board/Carpenters and Allied Workers Local 27/Ellard-Willson Engineering Ltd./Corel Contracting Inc./Sheet Metal Workers' & Roofers' Local 30/703 Promotions/Parent Council-Father John Redmond&Father John Redmond C.S.S.",
        "locality": "Toronto",
        "nickname": "cyberheart",
        "region": "Ontario",
        "team_number": 6009,
        "location": "Toronto, Ontario M8V 4B7, Canada",
        "key": "frc6009",
        "country_name": "Canada",
        "motto": "cursum consumavi fidem servavi",
        "rookie_year": 2016
    },
    {
        "website": "Coming Soon",
        "name": "Universidad Tecmilenio Campus Mazatl\u00e1n",
        "locality": "Mazatl\u00e1n",
        "nickname": "Teravolts",
        "region": "Sinaloa",
        "team_number": 6010,
        "location": "Mazatl\u00e1n, Sinaloa 8211, Mexico",
        "key": "frc6010",
        "country_name": "Mexico",
        "motto": null,
        "rookie_year": 2016
    },
    {
        "website": "http://www.firstinspires.org/",
        "name": "Sturgis High School",
        "locality": "Sturgis",
        "nickname": "Cyber Trojans",
        "region": "Michigan",
        "team_number": 6011,
        "location": "Sturgis, Michigan 49091, USA",
        "key": "frc6011",
        "country_name": "USA",
        "motto": null,
        "rookie_year": 2016
    },
    {
        "website": "http://www.frc6012.org",
        "name": "Indiana University School of Informatics and Computing/Argosy Foundation/Allied Automation/Sandy & Danny Daugherty/DoD STEM/Lawrence County STEAM/The PI Labs/Turner Contracting Inc/Bedford Federal Savings Bank/INFAB/Tri-County Builders/Stimulus Engineering/Indiana Steel & Engineering Corp/Architectural Stone Fabricators/Whitney Tool Company/BowHead/Atchison Eye Care/Remax Realty/Southern Indiana Home Inspections/PYNCO/Limestone Robotics&Family/Community",
        "locality": "Bedford",
        "nickname": "STEAMROLLERS",
        "region": "Indiana",
        "team_number": 6012,
        "location": "Bedford, Indiana 47421, USA",
        "key": "frc6012",
        "country_name": "USA",
        "motto": null,
        "rookie_year": 2016
    },
    {
        "website": "http://www.firstinspires.org/",
        "name": "ZF-TRW & Cornerstone Health+Technology High School",
        "locality": "Detroit",
        "nickname": "Robowolves",
        "region": "Michigan",
        "team_number": 6013,
        "location": "Detroit, Michigan 48235, USA",
        "key": "frc6013",
        "country_name": "USA",
        "motto": null,
        "rookie_year": 2016
    },
    {
        "website": "http://rcroboteam.com",
        "name": "Alonet Bilgi Teknolojileri A.\u015e. / Microsoft / Mavi Jeans / Tefa\u015f A.\u015e. / \u00c7evik M\u00fchendislik Makina Sanayi ve Ticaret LTD. \u015eT\u0130. / Yamiba / Beyoglu Rotaract Club & Robert College",
        "locality": "Istanbul",
        "nickname": "RC Roboteam",
        "region": "Istanbul",
        "team_number": 6014,
        "location": "Istanbul, Istanbul 34345, Turkey",
        "key": "frc6014",
        "country_name": "Turkey",
        "motto": "kids of today, engineers of tomorrow",
        "rookie_year": 2016
    },
    {
        "website": "http://n/a",
        "name": "Juicy Platters / MAR ROBOTICS / FIRST ROBOTICS ROOKIE GRANT & Hackensack High",
        "locality": "Hackensack",
        "nickname": "Juicy Bots",
        "region": "New Jersey",
        "team_number": 6015,
        "location": "Hackensack, New Jersey 07601, USA",
        "key": "frc6015",
        "country_name": "USA",
        "motto": "N/A",
        "rookie_year": 2016
    },
    {
        "website": "http://www.firstinspires.org/",
        "name": "Hackettstown High",
        "locality": "Hackettstown",
        "nickname": "Tiger Robotics",
        "region": "New Jersey",
        "team_number": 6016,
        "location": "Hackettstown, New Jersey 07840, USA",
        "key": "frc6016",
        "country_name": "USA",
        "motto": null,
        "rookie_year": 2016
    },
    {
        "website": "http://cyberius.team",
        "name": "Tecnol\u00f3gico de Monterrey, Campus Santa Catarina/General Motors Mexico/Nexcon Auomation/I-CTEC - Instituto de Ciencias y Tecnolog\u00edas Aplicadas/Planta Mitras, SA de CV/RDLP Arquitectos&Tecnologico de Monterrey, Campus Santa Catarina. ",
        "locality": "Santa Catarina",
        "nickname": "Cyberius",
        "region": "Nuevo Le\u00f3n",
        "team_number": 6017,
        "location": "Santa Catarina, Nuevo Le\u00f3n 66180, Mexico",
        "key": "frc6017",
        "country_name": "Mexico",
        "motto": "Thrive beyond success.",
        "rookie_year": 2016
    },
    {
        "website": "http://www.firstinspires.org/",
        "name": "High School Attached to Northwestern Normal University",
        "locality": "Lanzhou",
        "nickname": "TICK",
        "region": "Gansu",
        "team_number": 6018,
        "location": "Lanzhou, Gansu 730070, China",
        "key": "frc6018",
        "country_name": "China",
        "motto": null,
        "rookie_year": 2016
    },
    {
        "website": "http://www.firstinspires.org/",
        "name": "Home School",
        "locality": "Lapeer ",
        "nickname": "Metabots",
        "region": "Michigan",
        "team_number": 6019,
        "location": "Lapeer , Michigan 48446, USA",
        "key": "frc6019",
        "country_name": "USA",
        "motto": null,
        "rookie_year": 2016
    },
    {
        "website": "http://www.firstinspires.org/",
        "name": "John Glenn High School",
        "locality": "Bay City",
        "nickname": "JGHS",
        "region": "Michigan",
        "team_number": 6020,
        "location": "Bay City, Michigan 48706, USA",
        "key": "frc6020",
        "country_name": "USA",
        "motto": null,
        "rookie_year": 2016
    },
    {
        "website": "http://www.firstinspires.org/",
        "name": "Sussex Central High",
        "locality": "Sussex",
        "nickname": "Team T.I.G.E.R.S",
        "region": "Virginia",
        "team_number": 6021,
        "location": "Sussex, Virginia 23884, USA",
        "key": "frc6021",
        "country_name": "USA",
        "motto": null,
        "rookie_year": 2016
    },
    {
        "website": "http://www.wrenchwarmers6022.com/",
        "name": "Minimizer/Metal Services/Boeing/Blooming Prairie Education Foundation/First Farmers & Merchants&Blooming Prairie Secondary",
        "locality": "Blooming Prairie",
        "nickname": "Wrench Warmers",
        "region": "Minnesota",
        "team_number": 6022,
        "location": "Blooming Prairie, Minnesota 55917, USA",
        "key": "frc6022",
        "country_name": "USA",
        "motto": null,
        "rookie_year": 2016
    },
    {
        "website": "https://www.facebook.com/discbots2015/?fref=ts",
        "name": "Novelis/Johnson Research & Development/100 Scholars Robotics Alliance/Argosy Foundation/Lockheed Martin/DoD STEM/Five Star Hospitality & Development/Lee's Grocery Store&International Student Center",
        "locality": "Decatur",
        "nickname": "DISCBOTS",
        "region": "Georgia",
        "team_number": 6023,
        "location": "Decatur, Georgia 30032, USA",
        "key": "frc6023",
        "country_name": "USA",
        "motto": "Inspire thru unity",
        "rookie_year": 2016
    },
    {
        "website": "http://rfactor-frc6024.com/",
        "name": "Larsen & Toubro/Wellspun India Limited/Infosys Foundation&Neighborhood Group",
        "locality": "Mumbai",
        "nickname": "R Factor",
        "region": "Maharashtra",
        "team_number": 6024,
        "location": "Mumbai, Maharashtra 400056, India",
        "key": "frc6024",
        "country_name": "India",
        "motto": null,
        "rookie_year": 2016
    },
    {
        "website": "http://team6025.com/",
        "name": "Bahcesehir Anatolian Highschool",
        "locality": "Istanbul",
        "nickname": "Adroit Androids",
        "region": "Istanbul",
        "team_number": 6025,
        "location": "Istanbul, Istanbul 34538, Turkey",
        "key": "frc6025",
        "country_name": "Turkey",
        "motto": null,
        "rookie_year": 2016
    },
    {
        "website": "http://team6026.com",
        "name": "Tactical Electronics/NASA/FlightSafety International/Broken Arrow Public Schools&Broken Arrow Hs",
        "locality": "Broken Arrow",
        "nickname": "Tiger Strike",
        "region": "Oklahoma",
        "team_number": 6026,
        "location": "Broken Arrow, Oklahoma 74012, USA",
        "key": "frc6026",
        "country_name": "USA",
        "motto": null,
        "rookie_year": 2016
    },
    {
        "website": "http://www.firstinspires.org/",
        "name": "Owens Corning Science & Technology / Hopewell Dental / Ashcraft Machine and Supply Company / John Wallace / Newark Catholic High School / Newark Catholic High School Faculty / Park National Bank & Newark Catholic High School",
        "locality": "Newark",
        "nickname": "Brain Waves",
        "region": "Ohio",
        "team_number": 6027,
        "location": "Newark, Ohio 43055, USA",
        "key": "frc6027",
        "country_name": "USA",
        "motto": null,
        "rookie_year": 2016
    },
    {
        "website": "http://www.firstinspires.org/",
        "name": "Shenzhen DADALELE Culture Communication Co., LTD  & WUHAN RAYSON SCHOOL",
        "locality": "Wuhan",
        "nickname": "Rs Artisan",
        "region": "Hubei",
        "team_number": 6028,
        "location": "Wuhan, Hubei 430000, China",
        "key": "frc6028",
        "country_name": "China",
        "motto": null,
        "rookie_year": 2016
    },
    {
        "website": "http://www.firstinspires.org/",
        "name": "Wayne Metropolitan Community Action Agency/Ford Motor Company/21st CCLC-Lincoln Park High School/Lincoln Park Exchange Club&Lincoln Park High School",
        "locality": "Lincoln Park",
        "nickname": "Railbots",
        "region": "Michigan",
        "team_number": 6029,
        "location": "Lincoln Park, Michigan 48146, USA",
        "key": "frc6029",
        "country_name": "USA",
        "motto": null,
        "rookie_year": 2016
    },
    {
        "website": null,
        "name": "Tarbiya 360",
        "locality": "Sacramento",
        "nickname": "Tarbiya 360",
        "region": "CA",
        "team_number": 6030,
        "location": "Sacramento, CA, USA",
        "key": "frc6030",
        "country_name": "USA",
        "motto": null,
        "rookie_year": 2016
    },
    {
        "website": null,
        "name": null,
        "locality": "Pentwater",
        "nickname": "Falcons",
        "region": "MI",
        "team_number": 6031,
        "location": "Pentwater, MI, USA",
        "key": "frc6031",
        "country_name": "USA",
        "motto": null,
        "rookie_year": 2016
    },
    {
        "website": "http://www.firstinspires.org/",
        "name": "NASA/DMax/Dayton Progress/Yaskawa Motoman/Reynolds Machinery/Chapel Electric/South Metro Regional Chamber of Commerce/Insignia Graphics/Farmers Merchant Bank/SolidWorks&West Carrollton High School",
        "locality": "West Carrollton",
        "nickname": "Pirate Robotics",
        "region": "Ohio",
        "team_number": 6032,
        "location": "West Carrollton, Ohio 45066, USA",
        "key": "frc6032",
        "country_name": "USA",
        "motto": null,
        "rookie_year": 2016
    },
    {
        "website": "http://www.firstinspires.org/",
        "name": "Weber Brothers Sawmill, INC/Pro Comm Inc. /Hammer Restoration, Inc./Ken N. Krystal Myers/Mears Corporation/Great Lakes Bay Reigon/Finnerty Builders&Beal City High School",
        "locality": "Mount Pleasant",
        "nickname": "Gaget Agents",
        "region": "Michigan",
        "team_number": 6033,
        "location": "Mount Pleasant, Michigan 48858, USA",
        "key": "frc6033",
        "country_name": "USA",
        "motto": null,
        "rookie_year": 2016
    },
    {
        "website": "http://www.firstinspires.org/",
        "name": "Boeing & North Technical",
        "locality": "Florissant",
        "nickname": "Eagle Storm",
        "region": "Missouri",
        "team_number": 6034,
        "location": "Florissant, Missouri 63033, USA",
        "key": "frc6034",
        "country_name": "USA",
        "motto": "Without Struggle There is No Success",
        "rookie_year": 2016
    },
    {
        "website": "http://FB house of ulladulla Game of drones",
        "name": "Ulladulla High School",
        "locality": "Ulladulla",
        "nickname": "House of Ulladulla",
        "region": "New South Wales",
        "team_number": 6035,
        "location": "Ulladulla, New South Wales 2539, Australia",
        "key": "frc6035",
        "country_name": "Australia",
        "motto": null,
        "rookie_year": 2016
    },
    {
        "website": "http://www.team6036.weebly.com",
        "name": "Apple/Argosy Foundation/BAE Systems/Verizon/Genentech&Palo Alto Youth Robotics Association",
        "locality": "Palo Alto",
        "nickname": "Peninsula Robotics",
        "region": "California",
        "team_number": 6036,
        "location": "Palo Alto, California 94306, USA",
        "key": "frc6036",
        "country_name": "USA",
        "motto": null,
        "rookie_year": 2016
    },
    {
        "website": null,
        "name": "North Mecklenburg High",
        "locality": "Huntersville",
        "nickname": "Vikings 51",
        "region": "NC",
        "team_number": 6037,
        "location": "Huntersville, NC, USA",
        "key": "frc6037",
        "country_name": "USA",
        "motto": null,
        "rookie_year": 2016
    },
    {
        "website": "http://team6038.com",
        "name": "SAMSUNG ACADEMY / SAMSUNG ELECTRONICS /FIKRET YUKSEL FOUNDATION/ISTANBUL CHAMBER OF COMMERCE/TURKISH AIRLINES&\u0130stanbul Ticaret Odas\u0131 Anadolu Meslek Lisesi",
        "locality": "Bayrampasa",
        "nickname": "ITOBOT",
        "region": "Istanbul",
        "team_number": 6038,
        "location": "Bayrampasa, Istanbul 34030, Turkey",
        "key": "frc6038",
        "country_name": "Turkey",
        "motto": "Listen To We, Be Happy.",
        "rookie_year": 2016
    },
    {
        "website": "http://cypresscircuits.com",
        "name": "Stevenson School - Pebble Beach Campus",
        "locality": "Pebble Beach",
        "nickname": "PiRobotics",
        "region": "California",
        "team_number": 6039,
        "location": "Pebble Beach, California 93953, USA",
        "key": "frc6039",
        "country_name": "USA",
        "motto": null,
        "rookie_year": 2016
    },
    {
        "website": "http://www.firstinspires.org/",
        "name": "Argosy Foundation / Concordia Institute of Aerospace Design and Innovation (CIADI) / MTL Bagel / Dominoes Cote St-Luc / Dagwoods Lachine / Concordia Mechanical and Industrial Engineering Department / Law Garoub / Podio / VEXPro and CTR / Le Virunga & Family Friends & Tyndale St-Georges Community Center & Pierre Laporte High School",
        "locality": "Montreal",
        "nickname": "Getobotics",
        "region": "Qu\u00e9bec",
        "team_number": 6040,
        "location": "Montreal, Qu\u00e9bec H3J 1V7, Canada",
        "key": "frc6040",
        "country_name": "Canada",
        "motto": null,
        "rookie_year": 2016
    },
    {
        "website": "http://www.firstinspires.org/",
        "name": "Catholic Central High School",
        "locality": "Lethbridge",
        "nickname": "Cougar Robotics",
        "region": "Alberta",
        "team_number": 6041,
        "location": "Lethbridge, Alberta T1J3E5, Canada",
        "key": "frc6041",
        "country_name": "Canada",
        "motto": null,
        "rookie_year": 2016
    },
    {
        "website": "http://www.firstinspires.org/",
        "name": "Colegio Cambridge",
        "locality": "Calera",
        "nickname": "Robocamp",
        "region": "Cundinamarca",
        "team_number": 6042,
        "location": "Calera, Cundinamarca, Colombia",
        "key": "frc6042",
        "country_name": "Colombia",
        "motto": null,
        "rookie_year": 2016
    },
    {
        "website": "http://www.firstinspires.org/",
        "name": "Allegan High School",
        "locality": "Allegan",
        "nickname": "Allegan Tigers Robotics Team",
        "region": "Michigan",
        "team_number": 6043,
        "location": "Allegan, Michigan 49010, USA",
        "key": "frc6043",
        "country_name": "USA",
        "motto": null,
        "rookie_year": 2016
    },
    {
        "website": "http://www.firstinspires.org/",
        "name": "Moose Lake Secondary",
        "locality": "Moose Lake",
        "nickname": "Circuit Breakers",
        "region": "Minnesota",
        "team_number": 6044,
        "location": "Moose Lake, Minnesota 55767, USA",
        "key": "frc6044",
        "country_name": "USA",
        "motto": null,
        "rookie_year": 2016
    },
    {
        "website": "https://app.schoology.com/course/427785809/materials",
        "name": "Sartell Senior High",
        "locality": "Sartell",
        "nickname": "LiGHT SABRES",
        "region": "Minnesota",
        "team_number": 6045,
        "location": "Sartell, Minnesota 56377, USA",
        "key": "frc6045",
        "country_name": "USA",
        "motto": "\"I didn't come this far to miss\"",
        "rookie_year": 2016
    },
    {
        "website": "http://www.firstinspires.org/",
        "name": "First Rookie Grant / FRC Canada / B.C. Instruments / KingBridge & King City Secondary School & King City Secondary School",
        "locality": "King City",
        "nickname": "Tecking",
        "region": "Ontario",
        "team_number": 6046,
        "location": "King City, Ontario L7b1K2, Canada",
        "key": "frc6046",
        "country_name": "Canada",
        "motto": "Tech is King",
        "rookie_year": 2016
    },
    {
        "website": "http://www.firstinspires.org/",
        "name": "CN Railroad & Proctor Senior High",
        "locality": "Proctor",
        "nickname": "Proctor Frostbyte",
        "region": "Minnesota",
        "team_number": 6047,
        "location": "Proctor, Minnesota 55810, USA",
        "key": "frc6047",
        "country_name": "USA",
        "motto": "This isn't combat Robotics?",
        "rookie_year": 2016
    },
    {
        "website": "Coming Soon",
        "name": "Riverside Christian Academy",
        "locality": "Quer\u00e9taro",
        "nickname": "Ant-valanche",
        "region": "Quer\u00e9taro",
        "team_number": 6048,
        "location": "Quer\u00e9taro, Quer\u00e9taro 76904, Mexico",
        "key": "frc6048",
        "country_name": "Mexico",
        "motto": null,
        "rookie_year": 2016
    },
    {
        "website": "http://www.firstinspires.org/",
        "name": "Vishay/Amal /Ledico/Keren Rashi/Lihman/Cimatron/Kamag/First/\u05de\u05d5\u05e2\u05e6\u05ea \u05e2\u05d5\u05d1\u05d3\u05d9\u05dd \u05d9\u05dd \u05d4\u05de\u05dc\u05d7&lihman",
        "locality": "Dimona",
        "nickname": "Titan X",
        "region": "HaDarom (Southern)",
        "team_number": 6049,
        "location": "Dimona, HaDarom (Southern) 86000, Israel",
        "key": "frc6049",
        "country_name": "Israel",
        "motto": null,
        "rookie_year": 2016
    },
    {
        "website": "http://www.firstinspires.org/",
        "name": "Wee Waa High School",
        "locality": "Wee Waa",
        "nickname": "Wee Waa Bush Bots",
        "region": "New South Wales",
        "team_number": 6050,
        "location": "Wee Waa, New South Wales 2388, Australia",
        "key": "frc6050",
        "country_name": "Australia",
        "motto": null,
        "rookie_year": 2016
    },
    {
        "website": "http://www.firstinspires.org/",
        "name": "Texas Workforce Commission & Judson H S",
        "locality": "Converse",
        "nickname": "Rockta\u03c0",
        "region": "Texas",
        "team_number": 6051,
        "location": "Converse, Texas 78109, USA",
        "key": "frc6051",
        "country_name": "USA",
        "motto": null,
        "rookie_year": 2016
    },
    {
        "website": "http://www.firstinspires.org/",
        "name": "FIRST Robotics Canada/Argosy Foundation/Thames Valley District School Board/FIRST Rookie Grant & Clarke Road Secondary School",
        "locality": "London",
        "nickname": "Clarke Road Trojans",
        "region": "Ontario",
        "team_number": 6052,
        "location": "London, Ontario N5W 5N4, Canada",
        "key": "frc6052",
        "country_name": "Canada",
        "motto": null,
        "rookie_year": 2016
    },
    {
        "website": "http://www.firstinspires.org/",
        "name": "Augusta RV/Joseph Smolarz Dentistry&Colon High School",
        "locality": "Colon",
        "nickname": "Robusters",
        "region": "Michigan",
        "team_number": 6053,
        "location": "Colon, Michigan 49040, USA",
        "key": "frc6053",
        "country_name": "USA",
        "motto": null,
        "rookie_year": 2016
    },
    {
        "website": "http://www.firstinspires.org/",
        "name": "NEOFRA/PPG Industries/GM/Ritenour Group/Ventra - Salem/PJ3 Menagerie Farms/Mogadore Veterinary Hospital /Milano Auto Sales and Tire Center/Custom Signs & Graphics & Marlington High School",
        "locality": "Alliance",
        "nickname": "The Dukes",
        "region": "Ohio",
        "team_number": 6054,
        "location": "Alliance, Ohio 44601, USA",
        "key": "frc6054",
        "country_name": "USA",
        "motto": null,
        "rookie_year": 2016
    },
    {
        "website": "https://www.facebook.com/BatesvilleRobotics/",
        "name": "Future Fuel Chemical Company /Batesville High School /Scott Wood Chrysler /Intimidator UTVs /Ballistic Specialties /Flower's Foods /Bad Boy Mowers /Richardson's Fabrication /Mark Martin Powersports&Batesville High School",
        "locality": "Batesville",
        "nickname": "Pioneers ",
        "region": "Arkansas",
        "team_number": 6055,
        "location": "Batesville, Arkansas 72501, USA",
        "key": "frc6055",
        "country_name": "USA",
        "motto": null,
        "rookie_year": 2016
    },
    {
        "website": "http://www.firstinspires.org/",
        "name": "Northland Lumber Co.&Rothsay Secondary",
        "locality": "Rothsay",
        "nickname": "Brotherhood of Steel",
        "region": "Minnesota",
        "team_number": 6056,
        "location": "Rothsay, Minnesota 56579, USA",
        "key": "frc6056",
        "country_name": "USA",
        "motto": null,
        "rookie_year": 2016
    },
    {
        "website": "http://www.firstinspires.org/",
        "name": "Edsel Ford High School",
        "locality": "Dearborn",
        "nickname": "Thunderbots",
        "region": "Michigan",
        "team_number": 6057,
        "location": "Dearborn, Michigan 48124, USA",
        "key": "frc6057",
        "country_name": "USA",
        "motto": "Built Strong",
        "rookie_year": 2016
    },
    {
        "website": "http://www.firstinspires.org/",
        "name": "ISOV&\u0130SOV Din\u00e7k\u00f6k Mesleki ve Teknik Lisesi",
        "locality": "Be\u015fkta\u015f",
        "nickname": "ROBOTURK",
        "region": "Istanbul",
        "team_number": 6058,
        "location": "Be\u015fkta\u015f, Istanbul 34000, Turkey",
        "key": "frc6058",
        "country_name": "Turkey",
        "motto": null,
        "rookie_year": 2016
    },
    {
        "website": "http://www.lvcprobotics.org",
        "name": "Orchard Supply Hardware of Livermore/Home Depot & Livermore Valley Charter Preparatory High",
        "locality": "Livermore",
        "nickname": "System Overload Robotics",
        "region": "California",
        "team_number": 6059,
        "location": "Livermore, California 94551, USA",
        "key": "frc6059",
        "country_name": "USA",
        "motto": null,
        "rookie_year": 2016
    },
    {
        "website": "http://bit.ly/RosamondHighRobotics",
        "name": "Karl's Hardware/Recurrent Energy/Arcata/Southwest Coating Service LLC/Teletronics technology Corporation/ITEA/L3 Communications/Skurka/Symvionics, Inc./ATRE/EloTek&Rosamond High",
        "locality": "Rosamond",
        "nickname": "Circuit Serpents",
        "region": "California",
        "team_number": 6060,
        "location": "Rosamond, California 93560, USA",
        "key": "frc6060",
        "country_name": "USA",
        "motto": null,
        "rookie_year": 2016
    },
    {
        "website": "http://www.firstinspires.org/",
        "name": "Muswellbrook High School",
        "locality": "Muswellbrook",
        "nickname": "Carbon Crusaders",
        "region": "New South Wales",
        "team_number": 6061,
        "location": "Muswellbrook, New South Wales 2333, Australia",
        "key": "frc6061",
        "country_name": "Australia",
        "motto": null,
        "rookie_year": 2016
    },
    {
        "website": "http://www.firstinspires.org/",
        "name": "Willyama High School",
        "locality": "Broken Hill",
        "nickname": "WHAM (Willyama High Advanced Mechatronics)",
        "region": "New South Wales",
        "team_number": 6062,
        "location": "Broken Hill, New South Wales 2880, Australia",
        "key": "frc6062",
        "country_name": "Australia",
        "motto": "Connect Inspire Excel Together",
        "rookie_year": 2016
    },
    {
        "website": "http://www.gracerobotics.org/",
        "name": "Grace Lutheran College",
        "locality": "Rothwell",
        "nickname": "QLA Pineapples",
        "region": "Queensland",
        "team_number": 6063,
        "location": "Rothwell, Queensland 4022, Australia",
        "key": "frc6063",
        "country_name": "Australia",
        "motto": null,
        "rookie_year": 2016
    },
    {
        "website": "http://www.team6064.org",
        "name": "EAE Electrical /CONSYS Communications, Audio&Visual/PROASIST Technical Services/Candogdu Insurance/Eski Polat Hardware/Sisli Municipality/Raunt Education/Istanbul Chamber of Commerce /Istanbul Ayvansaray University/Dogus Kalip/Landers Display & Sisli Technical and Vocational High School & Sisli Technical and Vocational High School Scout Team",
        "locality": "istanbul",
        "nickname": "IstanBULLS",
        "region": "Istanbul",
        "team_number": 6064,
        "location": "istanbul, Istanbul 34381, Turkey",
        "key": "frc6064",
        "country_name": "Turkey",
        "motto": "Never give up",
        "rookie_year": 2016
    },
    {
        "website": "http://www.firstinspires.org/",
        "name": "Feyen Zylstra / Walker Tool & Die / DeWys Manufacturing / Competition Engineering & Kenowa Hills High School",
        "locality": "Grand Rapids",
        "nickname": "Titanium Dragons",
        "region": "Michigan",
        "team_number": 6065,
        "location": "Grand Rapids, Michigan 49544, USA",
        "key": "frc6065",
        "country_name": "USA",
        "motto": null,
        "rookie_year": 2016
    },
    {
        "website": "http://www.firstinspires.org/",
        "name": "Arrow Homes/McBain Rural Agricultural Schools & Mcbain High School",
        "locality": "McBain",
        "nickname": "Rambler Robotics",
        "region": "Michigan",
        "team_number": 6066,
        "location": "McBain, Michigan 49657, USA",
        "key": "frc6066",
        "country_name": "USA",
        "motto": null,
        "rookie_year": 2016
    },
    {
        "website": "http://www.firstinspires.org/",
        "name": "Wolgast Coproration/NexTeer&St. Charles Community High School",
        "locality": "Saint Charles",
        "nickname": "Underdogs",
        "region": "Michigan",
        "team_number": 6067,
        "location": "Saint Charles, Michigan 48655, USA",
        "key": "frc6067",
        "country_name": "USA",
        "motto": null,
        "rookie_year": 2016
    },
    {
        "website": "http://www.firstinspires.org/",
        "name": "Gentry High School",
        "locality": "Indianola",
        "nickname": "Delta Overload",
        "region": "Mississippi",
        "team_number": 6068,
        "location": "Indianola, Mississippi 38751, USA",
        "key": "frc6068",
        "country_name": "USA",
        "motto": null,
        "rookie_year": 2016
    },
    {
        "website": "http://www.firstinspires.org/",
        "name": "NRG & Bloomington High",
        "locality": "Bloomington",
        "nickname": "BHS Robotics",
        "region": "California",
        "team_number": 6069,
        "location": "Bloomington, California 92316, USA",
        "key": "frc6069",
        "country_name": "USA",
        "motto": "Elegant Simplicity",
        "rookie_year": 2016
    },
    {
        "website": "http://frc6070.ca",
        "name": "Pratt and Whitney Canada/Glenforest Secondary School - Peel District School Board/Cancam/Paradigm Electronics&Glenforest Secondary School",
        "locality": "Mississauga",
        "nickname": "Pratt & Whitney Canada : Gryphon Machine",
        "region": "Ontario",
        "team_number": 6070,
        "location": "Mississauga, Ontario L4X 2J6, Canada",
        "key": "frc6070",
        "country_name": "Canada",
        "motto": null,
        "rookie_year": 2016
    },
    {
        "website": "https://www.facebook.com/FRCTeam6071/",
        "name": "SC Johnson/The Dow Chemical Company/GLOBE Fire Sprinklers/Argosy Foundation/State of Michigan/Nexteer/Chemical Bank/Graff Chevrolet Bay City/GLBR - Great Lakes Bay Region/Bay City Public School District &Bay City Central High School",
        "locality": "Bay City",
        "nickname": "Bot Central",
        "region": "Michigan",
        "team_number": 6071,
        "location": "Bay City, Michigan 48708, USA",
        "key": "frc6071",
        "country_name": "USA",
        "motto": "\"You Never Know Until You Try\"",
        "rookie_year": 2016
    },
    {
        "website": "http://www.tritontech6072.com/",
        "name": "Corona Del Mar High",
        "locality": "Newport Beach",
        "nickname": "Triton Tech",
        "region": "California",
        "team_number": 6072,
        "location": "Newport Beach, California 92660, USA",
        "key": "frc6072",
        "country_name": "USA",
        "motto": null,
        "rookie_year": 2016
    },
    {
        "website": "http://www.carrolltonpublicschools.org/",
        "name": "Buffalo Wild Wings/AndyMark FIRST Choice/Nexteer/Michigan Dept of Education/Carrollton Public School/EngiNERDS Team 2337/Argosy Foundation/Dow Chemical&Carrollton High School&Carrollton Middle School",
        "locality": "Saginaw",
        "nickname": "Cav-Bots",
        "region": "Michigan",
        "team_number": 6073,
        "location": "Saginaw, Michigan 48604, USA",
        "key": "frc6073",
        "country_name": "USA",
        "motto": "Get it Done",
        "rookie_year": 2016
    },
    {
        "website": "http://rothneyr.wix.com/frc6074",
        "name": "Roscommon High School & Roscommon High School",
        "locality": "Roscommon",
        "nickname": "RoscoBots",
        "region": "Michigan",
        "team_number": 6074,
        "location": "Roscommon, Michigan 48653, USA",
        "key": "frc6074",
        "country_name": "USA",
        "motto": null,
        "rookie_year": 2016
    },
    {
        "website": "http://lelandzebrotics.weebly.com",
        "name": "Bakker's Acres/Trantek Automation Corporation/Little Fish Woodworks&Leland Public School",
        "locality": "Leland",
        "nickname": "Leland Zebrotics",
        "region": "Michigan",
        "team_number": 6075,
        "location": "Leland, Michigan 49654, USA",
        "key": "frc6075",
        "country_name": "USA",
        "motto": "home of the part-time nerds",
        "rookie_year": 2016
    },
    {
        "website": "http://www.northportschools.org",
        "name": "Northport High School",
        "locality": "Northport",
        "nickname": "Mustangs",
        "region": "Washington",
        "team_number": 6076,
        "location": "Northport, Washington 99157, USA",
        "key": "frc6076",
        "country_name": "USA",
        "motto": "unknown",
        "rookie_year": 2016
    },
    {
        "website": "http://www.firstinspires.org/",
        "name": "Community Foundation for Northeast Michigan/Cadillac Products Automotive Company/Employment Services Incorporated/PCI ProCal/Posen Citizens Academic Council/Carmeuse Lime & Stone/Hincka Logging/Styma Potato Farms/Kowalski Farms/Posen Area Chamber of Commerce&Posen Consolidated High School",
        "locality": "Posen",
        "nickname": "Wiking Kujon",
        "region": "Michigan",
        "team_number": 6077,
        "location": "Posen, Michigan 49776, USA",
        "key": "frc6077",
        "country_name": "USA",
        "motto": null,
        "rookie_year": 2016
    },
    {
        "website": "http://holtrobotics.weebly.com/",
        "name": "Jason Frost/Jason Frost/Sonya Burns/Cantrallcan The Handyman/Mike's Village Resturant/Fairchild, Lebel and Rice, PC/Boji Group/Dean Transportation/E. Lansing Masonic lodge #480/IBEW Local 665/Toomey Properties/Bob Olson - Voice overs/Grand Travers Pie Company/Granger/Olga's kitchen/TBD/LLMCF-IBEW Local 665 + NECA/Bethanne Roberts&Holt Senior High School",
        "locality": "Holt",
        "nickname": "RoboRams",
        "region": "Michigan",
        "team_number": 6078,
        "location": "Holt, Michigan 48842, USA",
        "key": "frc6078",
        "country_name": "USA",
        "motto": "We Made It!",
        "rookie_year": 2016
    },
    {
        "website": "http://www.firstinspires.org/",
        "name": "Jay's Auto Service/North Menominee county community schools&North Central Area Junior/Senior High School",
        "locality": "Powers",
        "nickname": "Mech Tech",
        "region": "Michigan",
        "team_number": 6079,
        "location": "Powers, Michigan 49874, USA",
        "key": "frc6079",
        "country_name": "USA",
        "motto": null,
        "rookie_year": 2016
    },
    {
        "website": null,
        "name": null,
        "locality": "Bessemer",
        "nickname": "A.D. Johnston First",
        "region": "MI",
        "team_number": 6080,
        "location": "Bessemer, MI, USA",
        "key": "frc6080",
        "country_name": "USA",
        "motto": null,
        "rookie_year": 2016
    },
    {
        "website": "http://www.firstinspires.org/",
        "name": "Michigan Department of Education/Worth Repeating/Manchester Community Schools Foundation/LaRock Dental/Wolverine Sports/Marion Grain Elevator/A Platt Properties&Manchester High School",
        "locality": "Manchester",
        "nickname": "Digital Dislocators",
        "region": "Michigan",
        "team_number": 6081,
        "location": "Manchester, Michigan 48158, USA",
        "key": "frc6081",
        "country_name": "USA",
        "motto": null,
        "rookie_year": 2016
    },
    {
        "website": "http://www.firstinspires.org/",
        "name": "North Hill Centre / Laser Equations / Qsine & Alberta Tech Alliance Association",
        "locality": "Calgary",
        "nickname": "Calgary Tech Coalition (CTC)",
        "region": "Alberta",
        "team_number": 6082,
        "location": "Calgary, Alberta T2N1M9, Canada",
        "key": "frc6082",
        "country_name": "Canada",
        "motto": "Making Robots Great Again",
        "rookie_year": 2016
    },
    {
        "website": "http://www.firstinspires.org/",
        "name": "Concordia Middle School",
        "locality": "Chiayi",
        "nickname": "Overlooking",
        "region": "Chiayi",
        "team_number": 6083,
        "location": "Chiayi, Chiayi 632, Taiwan",
        "key": "frc6083",
        "country_name": "Taiwan",
        "motto": null,
        "rookie_year": 2016
    },
    {
        "website": "http://www.firstinspires.org/",
        "name": "Aiken College and Career High School",
        "locality": "CINCINNATI",
        "nickname": "Swoop Robotics",
        "region": "Ohio",
        "team_number": 6084,
        "location": "CINCINNATI, Ohio 45224, USA",
        "key": "frc6084",
        "country_name": "USA",
        "motto": null,
        "rookie_year": 2016
    },
    {
        "website": "http://browncitydevilbots6085.weebly.com/",
        "name": "Michigan Department of Education/FIRST Robitcs/Maple Valley Plastics/Raub Rae Farm/Bartle Farms/Kohler Oil & Propane/Tri-County Bank/Banks Farms Inc./PB Trucking/MAC Tools-Cade Distributing/Denso/Solidworks/Grupo Antolin Michigan Inc./Flatlands Loyal Riders M/C/Brown City Rotary/Air Tite Insulation&Brown City High School",
        "locality": "Brown City",
        "nickname": "Devil Bots",
        "region": "Michigan",
        "team_number": 6085,
        "location": "Brown City, Michigan 48416, USA",
        "key": "frc6085",
        "country_name": "USA",
        "motto": "The Devil is in the Details!",
        "rookie_year": 2016
    },
    {
        "website": "http://www.mtmorrisschools.org/MECC/Portal/robotics-team-6086",
        "name": "U.S. Speedo 5/Ray Powell/Knights of Columbus 10170/Mt. Morris Consolidated Schools&IGNITE Academy",
        "locality": "Mt. Morris",
        "nickname": "Ignition",
        "region": "Michigan",
        "team_number": 6086,
        "location": "Mt. Morris, Michigan 48458, USA",
        "key": "frc6086",
        "country_name": "USA",
        "motto": "Changing Minds and Changing Lives",
        "rookie_year": 2016
    },
    {
        "website": "http://www.firstinspires.org/",
        "name": "Ellsworth Community School",
        "locality": "Ellsworth",
        "nickname": "Cybertronic Lancers",
        "region": "Michigan",
        "team_number": 6087,
        "location": "Ellsworth, Michigan 49729, USA",
        "key": "frc6087",
        "country_name": "USA",
        "motto": null,
        "rookie_year": 2016
    },
    {
        "website": "http://www.firstinspires.org/",
        "name": "Stephenson High School",
        "locality": "Stephenson",
        "nickname": "Stephenson Eagles",
        "region": "Michigan",
        "team_number": 6088,
        "location": "Stephenson, Michigan 49887, USA",
        "key": "frc6088",
        "country_name": "USA",
        "motto": null,
        "rookie_year": 2016
    },
    {
        "website": "http://www.firstinspires.org/",
        "name": "Annapolis High School",
        "locality": "Dearborn Heights",
        "nickname": "Annapolis Cougars",
        "region": "Michigan",
        "team_number": 6089,
        "location": "Dearborn Heights, Michigan 48125, USA",
        "key": "frc6089",
        "country_name": "USA",
        "motto": "All for One, One for All.",
        "rookie_year": 2016
    },
    {
        "website": "http://www.firstinspires.org/",
        "name": "Wayland High School",
        "locality": "Wayland",
        "nickname": "Wayland Wildcats",
        "region": "Michigan",
        "team_number": 6090,
        "location": "Wayland, Michigan 49348, USA",
        "key": "frc6090",
        "country_name": "USA",
        "motto": null,
        "rookie_year": 2016
    },
    {
        "website": "http://www.firstinspires.org/",
        "name": "Deckerville Community High School",
        "locality": "Deckerville",
        "nickname": "Eagle 1",
        "region": "Michigan",
        "team_number": 6091,
        "location": "Deckerville, Michigan 48427, USA",
        "key": "frc6091",
        "country_name": "USA",
        "motto": null,
        "rookie_year": 2016
    },
    {
        "website": "http://www.firstinspires.org/",
        "name": "Quincy High School",
        "locality": "Quincy",
        "nickname": "Q-Bots",
        "region": "Michigan",
        "team_number": 6092,
        "location": "Quincy, Michigan 49082, USA",
        "key": "frc6092",
        "country_name": "USA",
        "motto": null,
        "rookie_year": 2016
    },
    {
        "website": "https://www.facebook.com/Unplugged-1719331418298246/",
        "name": "Sandusky Alumni Foundation/Michigan Department of Education/Sanilac County Community Foundation/Production Development Systems/Humana/SolidWorks/Sandusky District Library/Suburban Bolt&Sandusky High School",
        "locality": "Sandusky",
        "nickname": "Unplugged",
        "region": "Michigan",
        "team_number": 6093,
        "location": "Sandusky, Michigan 48471, USA",
        "key": "frc6093",
        "country_name": "USA",
        "motto": null,
        "rookie_year": 2016
    },
    {
        "website": "http://www.firstinspires.org/",
        "name": "Whitehall Senior High School & Montague High School",
        "locality": "Montague",
        "nickname": "Manic Mechanics",
        "region": "Michigan",
        "team_number": 6094,
        "location": "Montague, Michigan 49437, USA",
        "key": "frc6094",
        "country_name": "USA",
        "motto": null,
        "rookie_year": 2016
    },
    {
        "website": "http://www.firstinspires.org/",
        "name": "Istanbul Fatih Anadolu ve Fen Lisesi",
        "locality": "ISTANBUL",
        "nickname": "PARDUX",
        "region": "Istanbul",
        "team_number": 6095,
        "location": "ISTANBUL, Istanbul 34196, Turkey",
        "key": "frc6095",
        "country_name": "Turkey",
        "motto": "Spread creativity",
        "rookie_year": 2016
    },
    {
        "website": "http://www.firstinspires.org/",
        "name": "University Preparatory Science and Math (Psad) Hig",
        "locality": "Detroit",
        "nickname": "UPSM Cobras",
        "region": "Michigan",
        "team_number": 6096,
        "location": "Detroit, Michigan 48207, USA",
        "key": "frc6096",
        "country_name": "USA",
        "motto": "Anything a mind can imagine it can create",
        "rookie_year": 2016
    },
    {
        "website": "http://www.firstinspires.org/",
        "name": "State Farm of Manistee/Wellston Boosters&Brethren High School",
        "locality": "Brethren",
        "nickname": "Botcats ",
        "region": "Michigan",
        "team_number": 6097,
        "location": "Brethren, Michigan 49619, USA",
        "key": "frc6097",
        "country_name": "USA",
        "motto": null,
        "rookie_year": 2016
    },
    {
        "website": "http://birobot.org",
        "name": "Beaver Island Community School",
        "locality": "Beaver Island",
        "nickname": "bIrobot",
        "region": "Michigan",
        "team_number": 6098,
        "location": "Beaver Island, Michigan 49782, USA",
        "key": "frc6098",
        "country_name": "USA",
        "motto": "Press on notwithstanding",
        "rookie_year": 2016
    },
    {
        "website": "http://www.firstinspires.org/",
        "name": "Osborn College Preparatory Academy",
        "locality": "Detroit",
        "nickname": "Knight Riders",
        "region": "Michigan",
        "team_number": 6099,
        "location": "Detroit, Michigan 48205, USA",
        "key": "frc6099",
        "country_name": "USA",
        "motto": null,
        "rookie_year": 2016
    },
    {
        "website": "http://www.firstinspires.org/",
        "name": "AutoCast&Morley Stanwood High School",
        "locality": "Morley",
        "nickname": "MSMohawks",
        "region": "Michigan",
        "team_number": 6100,
        "location": "Morley, Michigan 49336, USA",
        "key": "frc6100",
        "country_name": "USA",
        "motto": null,
        "rookie_year": 2016
    },
    {
        "website": "http://www.firstinspires.org/",
        "name": "Washtenaw Technical Middle College",
        "locality": "Ann Arbor",
        "nickname": "Strange Quarks",
        "region": "Michigan",
        "team_number": 6101,
        "location": "Ann Arbor, Michigan 48105, USA",
        "key": "frc6101",
        "country_name": "USA",
        "motto": null,
        "rookie_year": 2016
    },
    {
        "website": "http://www.firstinspires.org/",
        "name": "Montabella Junior/Senior High",
        "locality": "Blanchard",
        "nickname": "Mustangs",
        "region": "Michigan",
        "team_number": 6102,
        "location": "Blanchard, Michigan 49310, USA",
        "key": "frc6102",
        "country_name": "USA",
        "motto": null,
        "rookie_year": 2016
    },
    {
        "website": "Coming Soon",
        "name": "Plaquemine Senior High School",
        "locality": "Plaquemine",
        "nickname": "Green Daemons ",
        "region": "Louisiana",
        "team_number": 6103,
        "location": "Plaquemine, Louisiana 70764, USA",
        "key": "frc6103",
        "country_name": "USA",
        "motto": null,
        "rookie_year": 2016
    },
    {
        "website": "http://www.firstinspires.org/",
        "name": "Elbit Systems / Amal group / Rashi Foundation & Ha Rav - Thumi",
        "locality": "Ofakim",
        "nickname": "Desert Eagles",
        "region": "HaDarom (Southern)",
        "team_number": 6104,
        "location": "Ofakim, HaDarom (Southern) 8757104, Israel",
        "key": "frc6104",
        "country_name": "Israel",
        "motto": null,
        "rookie_year": 2016
    },
    {
        "website": "http://www.firstinspires.org/",
        "name": "Argosy Foundation / TVA & Pearl Cohn Magnet High School",
        "locality": "Nashville",
        "nickname": "Firebirds with Skills",
        "region": "Tennessee",
        "team_number": 6105,
        "location": "Nashville, Tennessee 37208, USA",
        "key": "frc6105",
        "country_name": "USA",
        "motto": null,
        "rookie_year": 2016
    },
    {
        "website": "http://www.tecgear6106.com/",
        "name": "General Motors Mexico & Tecnologico de Monterrey Campus  Irapuato",
        "locality": "Irapuato",
        "nickname": "Tec Gear",
        "region": "Guanajuato",
        "team_number": 6106,
        "location": "Irapuato, Guanajuato 36670 Irapuato, GTO, Mexico",
        "key": "frc6106",
        "country_name": "Mexico",
        "motto": null,
        "rookie_year": 2016
    },
    {
        "website": "http://www.firstinspires.org/",
        "name": "4SIGHT, INC. / Huntsville City Schools / Mind Gear Labs / Nicole Tool & Die  & SPI Huntsville",
        "locality": "Huntsville",
        "nickname": "Cyber Jagzz",
        "region": "Alabama",
        "team_number": 6107,
        "location": "Huntsville, Alabama 35810, USA",
        "key": "frc6107",
        "country_name": "USA",
        "motto": null,
        "rookie_year": 2016
    },
    {
        "website": "http://www.firstinspires.org/",
        "name": "Clintondale High School",
        "locality": "New Baltimore",
        "nickname": "DRAGONBOTS",
        "region": "Michigan",
        "team_number": 6108,
        "location": "New Baltimore, Michigan 48051, USA",
        "key": "frc6108",
        "country_name": "USA",
        "motto": null,
        "rookie_year": 2016
    },
    {
        "website": "http://www.firstinspires.org/",
        "name": "Payson High School",
        "locality": "Payson",
        "nickname": "Longhorn Robotics",
        "region": "Arizona",
        "team_number": 6109,
        "location": "Payson, Arizona 85541, USA",
        "key": "frc6109",
        "country_name": "USA",
        "motto": "Be yourself, unless you can be an engineer, and then be an engineer! ",
        "rookie_year": 2016
    },
    {
        "website": "http://www.docrobotics.com",
        "name": "General Motors/Ontario Power Generation/Argosy Foundation/Messier-Bugatti-Dowty/Redi Fire Services/Kabrecom&Archbishop Denis O' Connor",
        "locality": "Ajax",
        "nickname": "DOC BOTICS",
        "region": "Ontario",
        "team_number": 6110,
        "location": "Ajax, Ontario L1S 5H4, Canada",
        "key": "frc6110",
        "country_name": "Canada",
        "motto": null,
        "rookie_year": 2016
    },
    {
        "website": "http://www.firstinspires.org/",
        "name": "Texas Workforce Commission&All-Male College Preparatory Academy",
        "locality": "Houston",
        "nickname": "Battle Guard",
        "region": "Texas",
        "team_number": 6111,
        "location": "Houston, Texas 77020, USA",
        "key": "frc6111",
        "country_name": "USA",
        "motto": null,
        "rookie_year": 2016
    },
    {
        "website": "http://www.firstinspires.org/",
        "name": "Munising High and Middle School",
        "locality": "Munising",
        "nickname": "Cyberstangs",
        "region": "Michigan",
        "team_number": 6112,
        "location": "Munising, Michigan 49862, USA",
        "key": "frc6112",
        "country_name": "USA",
        "motto": null,
        "rookie_year": 2016
    },
    {
        "website": "http://www.firstinspires.org/",
        "name": "Enstrom Helicopter Corporation / Menominee Area Public Schools & Menominee High School",
        "locality": "Menominee",
        "nickname": "M.A.R.C. 1",
        "region": "Michigan",
        "team_number": 6113,
        "location": "Menominee, Michigan 49858, USA",
        "key": "frc6113",
        "country_name": "USA",
        "motto": null,
        "rookie_year": 2016
    },
    {
        "website": "http://www.firstinspires.org/",
        "name": "Hamilton High School",
        "locality": "Hamilton",
        "nickname": "Do the Thing",
        "region": "Michigan",
        "team_number": 6114,
        "location": "Hamilton, Michigan 49419, USA",
        "key": "frc6114",
        "country_name": "USA",
        "motto": null,
        "rookie_year": 2016
    },
    {
        "website": null,
        "name": null,
        "locality": "Grand Rapids",
        "nickname": "Ellington Saints",
        "region": "MI",
        "team_number": 6115,
        "location": "Grand Rapids, MI, USA",
        "key": "frc6115",
        "country_name": "USA",
        "motto": null,
        "rookie_year": 2016
    },
    {
        "website": "http://www.firstinspires.org/",
        "name": "Garden City High School",
        "locality": "Garden City",
        "nickname": "Cougar Robotics",
        "region": "Michigan",
        "team_number": 6116,
        "location": "Garden City, Michigan 48135, USA",
        "key": "frc6116",
        "country_name": "USA",
        "motto": null,
        "rookie_year": 2016
    },
    {
        "website": "https://wingspan6117.com/",
        "name": "Brose/FCA Foundation/Reliance One/Knights of Columbus/Movement/Centric Solutions Group&Pontiac Academy for Excellence",
        "locality": "Pontiac",
        "nickname": "Wingspan",
        "region": "Michigan",
        "team_number": 6117,
        "location": "Pontiac, Michigan 48342, USA",
        "key": "frc6117",
        "country_name": "USA",
        "motto": null,
        "rookie_year": 2016
    },
    {
        "website": "http://www.firstinspires.org/",
        "name": "Dunedoo Central School",
        "locality": "Dunedoo",
        "nickname": "Dunedoo Central School",
        "region": "New South Wales",
        "team_number": 6118,
        "location": "Dunedoo, New South Wales 2844, Australia",
        "key": "frc6118",
        "country_name": "Australia",
        "motto": null,
        "rookie_year": 2016
    },
    {
        "website": "http://www.firstinspires.org/",
        "name": "Mattson Paint & Custom, Aaron Everhart /TJ Rampit , Ted Short /Case Welding and Fabrication/Family Farm and Home&Pansophia Academy",
        "locality": "Coldwater",
        "nickname": "Prototype Pumas",
        "region": "Michigan",
        "team_number": 6119,
        "location": "Coldwater, Michigan 49036, USA",
        "key": "frc6119",
        "country_name": "USA",
        "motto": null,
        "rookie_year": 2016
    },
    {
        "website": "http://www.firstinspires.org/",
        "name": "Merritt Academy",
        "locality": "New Haven",
        "nickname": "Cyberstangs",
        "region": "Michigan",
        "team_number": 6120,
        "location": "New Haven, Michigan 48048, USA",
        "key": "frc6120",
        "country_name": "USA",
        "motto": "Failure is not an option.",
        "rookie_year": 2016
    },
    {
        "website": "http://www.firstinspires.org/",
        "name": "Airway Automation&Grayling High School",
        "locality": "Grayling",
        "nickname": "Robo Vikes",
        "region": "Michigan",
        "team_number": 6121,
        "location": "Grayling, Michigan 49738, USA",
        "key": "frc6121",
        "country_name": "USA",
        "motto": null,
        "rookie_year": 2016
    },
    {
        "website": "http://www.firstinspires.org/",
        "name": "Bear Lake High School",
        "locality": "Bear Lake",
        "nickname": "Bear Lake",
        "region": "Michigan",
        "team_number": 6122,
        "location": "Bear Lake, Michigan 49614, USA",
        "key": "frc6122",
        "country_name": "USA",
        "motto": null,
        "rookie_year": 2016
    },
    {
        "website": "http://www.firstinspires.org/",
        "name": "Lake Elsinore Unified&Lakeside High",
        "locality": "Lake Elsinore",
        "nickname": "Mad Scientist Club",
        "region": "California",
        "team_number": 6123,
        "location": "Lake Elsinore, California 92530, USA",
        "key": "frc6123",
        "country_name": "USA",
        "motto": null,
        "rookie_year": 2016
    },
    {
        "website": "http://www.firstinspires.org/",
        "name": "Summit High",
        "locality": "Fontana",
        "nickname": "Overdrive",
        "region": "California",
        "team_number": 6124,
        "location": "Fontana, California, USA",
        "key": "frc6124",
        "country_name": "USA",
        "motto": "Never Give Up!",
        "rookie_year": 2016
    },
    {
        "website": "http://www.firstinspires.org/",
        "name": "FIRST Robotics Canada/Toronto Catholic District School Board/Argosy Foundation FRC Rookie Grant & Monsignor Percy Johnson Catholic Secondary School",
        "locality": "Toronto",
        "nickname": "Jagbots",
        "region": "Ontario",
        "team_number": 6125,
        "location": "Toronto, Ontario M9W 4K9, Canada",
        "key": "frc6125",
        "country_name": "Canada",
        "motto": null,
        "rookie_year": 2016
    },
    {
        "website": "http://www.firstinspires.org/",
        "name": "Texas Workforce Commission & KIPP University Prep High School",
        "locality": "San Antonio",
        "nickname": "Robo-Blazers",
        "region": "Texas",
        "team_number": 6126,
        "location": "San Antonio, Texas 78204, USA",
        "key": "frc6126",
        "country_name": "USA",
        "motto": null,
        "rookie_year": 2016
    },
    {
        "website": "http://www.firstinspires.org/",
        "name": "Employees of Microchip, Inc.  / Cochise Robotics Association / 2016 FRC\u00ae Hardship Grant & Bisbee High School",
        "locality": "Bisbee",
        "nickname": "BHS Pumatrons",
        "region": "Arizona",
        "team_number": 6127,
        "location": "Bisbee, Arizona 85603, USA",
        "key": "frc6127",
        "country_name": "USA",
        "motto": null,
        "rookie_year": 2016
    },
    {
        "website": "http://www.firstinspires.org/",
        "name": "Hart High School",
        "locality": "Hart",
        "nickname": "The Automatics",
        "region": "Michigan",
        "team_number": 6128,
        "location": "Hart, Michigan 49420, USA",
        "key": "frc6128",
        "country_name": "USA",
        "motto": "Pirate",
        "rookie_year": 2016
    },
    {
        "website": "http://www.firstinspires.org/",
        "name": "Shadle Park High School",
        "locality": "Spokane",
        "nickname": "Shadle Park",
        "region": "Washington",
        "team_number": 6129,
        "location": "Spokane, Washington 99208, USA",
        "key": "frc6129",
        "country_name": "USA",
        "motto": null,
        "rookie_year": 2016
    },
    {
        "website": "http://www.frc6130.wix.com/vipers",
        "name": "Argosy Foundation / Ryerson University / Toshiba & St. Patrick's CSS",
        "locality": "Toronto",
        "nickname": "Vipers",
        "region": "Ontario",
        "team_number": 6130,
        "location": "Toronto, Ontario M4J 1G3, Canada",
        "key": "frc6130",
        "country_name": "Canada",
        "motto": null,
        "rookie_year": 2016
    },
    {
        "website": "http://www.firstinspires.org/",
        "name": "Nlr High School-West Campus",
        "locality": "North Little Rock",
        "nickname": "NLR Robotics",
        "region": "Arkansas",
        "team_number": 6131,
        "location": "North Little Rock, Arkansas 72118, USA",
        "key": "frc6131",
        "country_name": "USA",
        "motto": "Talk Nerdy To Me",
        "rookie_year": 2016
    },
    {
        "website": "http://rangerrobotics.weebly.com/",
        "name": "Crosby-Ironton Secondary",
        "locality": "Crosby",
        "nickname": "Iron Rangers",
        "region": "Minnesota",
        "team_number": 6132,
        "location": "Crosby, Minnesota 56441, USA",
        "key": "frc6132",
        "country_name": "USA",
        "motto": null,
        "rookie_year": 2016
    },
    {
        "website": "http://www.firstinspires.org/",
        "name": "Amwell Fabrication Services Incorporated / Bell Helicopter / FIRST in Texas Foundation / Argosy Foundation / NCR Foundation & Haltom H S",
        "locality": "Fort Worth",
        "nickname": "Haltom Robotics",
        "region": "Texas",
        "team_number": 6133,
        "location": "Fort Worth, Texas 76137, USA",
        "key": "frc6133",
        "country_name": "USA",
        "motto": null,
        "rookie_year": 2016
    },
    {
        "website": "Coming Soon",
        "name": "Prepa Tec Campus Guadalajara",
        "locality": "Zapopan",
        "nickname": "Robo Ram",
        "region": "Jalisco",
        "team_number": 6134,
        "location": "Zapopan, Jalisco 45201, Mexico",
        "key": "frc6134",
        "country_name": "Mexico",
        "motto": null,
        "rookie_year": 2016
    },
    {
        "website": "http://Arctos6135.ca",
        "name": "Toronto District School Board / FIRST Robotics Canada & Bloor C.I.",
        "locality": "Toronto",
        "nickname": "Arctos",
        "region": "Ontario",
        "team_number": 6135,
        "location": "Toronto, Ontario M6H1M9, Canada",
        "key": "frc6135",
        "country_name": "Canada",
        "motto": null,
        "rookie_year": 2016
    },
    {
        "website": "http://www.firstinspires.org/",
        "name": "Old Redford Academy - High",
        "locality": "Detroit",
        "nickname": "Ravens",
        "region": "Michigan",
        "team_number": 6136,
        "location": "Detroit, Michigan 48219, USA",
        "key": "frc6136",
        "country_name": "USA",
        "motto": null,
        "rookie_year": 2016
    },
    {
        "website": "http://www.firstinspires.org/",
        "name": "Constantine High School",
        "locality": "Constantine",
        "nickname": "Red Theory",
        "region": "Michigan",
        "team_number": 6137,
        "location": "Constantine, Michigan 49042, USA",
        "key": "frc6137",
        "country_name": "USA",
        "motto": null,
        "rookie_year": 2016
    },
    {
        "website": "http://www.firstinspires.org/",
        "name": "Centreville High School",
        "locality": "Centreville",
        "nickname": "Bulldogs",
        "region": "Michigan",
        "team_number": 6138,
        "location": "Centreville, Michigan 49032, USA",
        "key": "frc6138",
        "country_name": "USA",
        "motto": null,
        "rookie_year": 2016
    },
    {
        "website": "http://www.firstinspires.org/",
        "name": "Heart of Georgia College & Career Academy",
        "locality": "Dublin",
        "nickname": "HGCCA",
        "region": "Georgia",
        "team_number": 6139,
        "location": "Dublin, Georgia 31040, USA",
        "key": "frc6139",
        "country_name": "USA",
        "motto": "Making Our Future Work",
        "rookie_year": 2016
    },
    {
        "website": "http://6140robotics@gmail.com",
        "name": "TCDSB/ FIRST Rookie Grant/FIRST Robotics Canada & Blessed Mother Teresa Catholic Secondary School",
        "locality": "Scarborough",
        "nickname": "SMT Titans",
        "region": "Ontario",
        "team_number": 6140,
        "location": "Scarborough, Ontario M1B 3G5, Canada",
        "key": "frc6140",
        "country_name": "Canada",
        "motto": null,
        "rookie_year": 2016
    },
    {
        "website": "http://www.firstinspires.org/",
        "name": "Argosy Foundation First Rookie Grant/Robert Hill Construction/Microsoft&Senator O'Connor College School",
        "locality": "Toronto",
        "nickname": "Senator O'Connor College School",
        "region": "Ontario",
        "team_number": 6141,
        "location": "Toronto, Ontario M3A 3R2, Canada",
        "key": "frc6141",
        "country_name": "Canada",
        "motto": null,
        "rookie_year": 2016
    },
    {
        "website": "http://www.firstinspires.org/",
        "name": "Cross Keys High School",
        "locality": "Atlanta",
        "nickname": "Cross Keys High School",
        "region": "Georgia",
        "team_number": 6142,
        "location": "Atlanta, Georgia, USA",
        "key": "frc6142",
        "country_name": "USA",
        "motto": null,
        "rookie_year": 2016
    },
    {
        "website": "http://www.firstinspires.org/",
        "name": "Evangel Heights Christian Academy",
        "locality": "Sarver",
        "nickname": "APEX Automation",
        "region": "Pennsylvania",
        "team_number": 6143,
        "location": "Sarver, Pennsylvania 16055, USA",
        "key": "frc6143",
        "country_name": "USA",
        "motto": null,
        "rookie_year": 2016
    },
    {
        "website": "Coming Soon",
        "name": "Johnson and Johnson /Valtrek/Bezos Family Foundation /Dell/Lockheed Martin/National Instruments&Loretto Academy",
        "locality": "El Paso",
        "nickname": "Angelbots Gold",
        "region": "Texas",
        "team_number": 6144,
        "location": "El Paso, Texas 79903, USA",
        "key": "frc6144",
        "country_name": "USA",
        "motto": null,
        "rookie_year": 2016
    },
    {
        "website": "http://www.firstinspires.org/",
        "name": "Wakulla High School",
        "locality": "Crawfordville",
        "nickname": "War Eagles",
        "region": "Florida",
        "team_number": 6145,
        "location": "Crawfordville, Florida 32327, USA",
        "key": "frc6145",
        "country_name": "USA",
        "motto": null,
        "rookie_year": 2016
    },
    {
        "website": "http://www.firstinspires.org/",
        "name": "Dawson-Boyd Secondary",
        "locality": "Dawson",
        "nickname": "Blackjacks",
        "region": "Minnesota",
        "team_number": 6146,
        "location": "Dawson, Minnesota 56232, USA",
        "key": "frc6146",
        "country_name": "USA",
        "motto": null,
        "rookie_year": 2016
    },
    {
        "website": "http://westonka-activities.com/robotics",
        "name": "Argosy Foundation/Medtronic&Mound-Westonka High School",
        "locality": "Mound",
        "nickname": "Tonkabots",
        "region": "Minnesota",
        "team_number": 6147,
        "location": "Mound, Minnesota 55364, USA",
        "key": "frc6147",
        "country_name": "USA",
        "motto": "Think outside the gears!",
        "rookie_year": 2016
    },
    {
        "website": null,
        "name": null,
        "locality": "Woodstock",
        "nickname": "CASS Electro Knights",
        "region": "ON",
        "team_number": 6148,
        "location": "Woodstock, ON, Canada",
        "key": "frc6148",
        "country_name": "Canada",
        "motto": null,
        "rookie_year": 2016
    },
    {
        "website": "http://www.firstinspires.org/",
        "name": "matnas arara nagev",
        "locality": "arara negev",
        "nickname": "hand by hand",
        "region": "HaDarom (Southern)",
        "team_number": 6149,
        "location": "arara negev, HaDarom (Southern) 84911, Israel",
        "key": "frc6149",
        "country_name": "Israel",
        "motto": "togther is better",
        "rookie_year": 2016
    },
    {
        "website": "http://www.firstinspires.org/",
        "name": "Adrian Schools Education Foundation/Anderson Development Company/Dr. Michael Ballard&Adrian High School",
        "locality": "Adrian",
        "nickname": "BlueBotics",
        "region": "Michigan",
        "team_number": 6150,
        "location": "Adrian, Michigan 49221, USA",
        "key": "frc6150",
        "country_name": "USA",
        "motto": null,
        "rookie_year": 2016
    },
    {
        "website": null,
        "name": null,
        "locality": "Ironwood",
        "nickname": "Red Devil Robotics",
        "region": "MI",
        "team_number": 6151,
        "location": "Ironwood, MI, USA",
        "key": "frc6151",
        "country_name": "USA",
        "motto": null,
        "rookie_year": 2016
    },
    {
        "website": "http://www.firstinspires.org/",
        "name": "Star International Academy",
        "locality": "DEARBORN HEIGHTS",
        "nickname": "ROBO-FALCONS",
        "region": "Michigan",
        "team_number": 6152,
        "location": "DEARBORN HEIGHTS, Michigan 48127, USA",
        "key": "frc6152",
        "country_name": "USA",
        "motto": null,
        "rookie_year": 2016
    },
    {
        "website": "http://www.firstinspires.org/",
        "name": "Mt Blue High School",
        "locality": "Farmington",
        "nickname": "Blue Crew",
        "region": "Maine",
        "team_number": 6153,
        "location": "Farmington, Maine 04938, USA",
        "key": "frc6153",
        "country_name": "USA",
        "motto": "Essayons",
        "rookie_year": 2016
    },
    {
        "website": "http://www.firstinspires.org/",
        "name": "Neighborhood Group",
        "locality": "Frederikssund",
        "nickname": "Universal Robots",
        "region": "South Denmark",
        "team_number": 6154,
        "location": "Frederikssund, South Denmark 3600, Denmark",
        "key": "frc6154",
        "country_name": "Denmark",
        "motto": null,
        "rookie_year": 2016
    },
    {
        "website": "http://www.firstinspires.org/",
        "name": "Texas Workforce Commission/FIRST in Texas & Young Women'S Leadership Academy",
        "locality": "San Antonio",
        "nickname": "ElektraBots",
        "region": "Texas",
        "team_number": 6155,
        "location": "San Antonio, Texas 78201, USA",
        "key": "frc6155",
        "country_name": "USA",
        "motto": null,
        "rookie_year": 2016
    },
    {
        "website": "Coming Soon",
        "name": "ITESM Campus Obreg\u00f3n",
        "locality": "Ciudad Obregon",
        "nickname": "Infinity Robotics Team",
        "region": "Sonora",
        "team_number": 6156,
        "location": "Ciudad Obregon, Sonora 85010, Mexico",
        "key": "frc6156",
        "country_name": "Mexico",
        "motto": null,
        "rookie_year": 2016
    },
    {
        "website": "http://www.firstinspires.org/",
        "name": "Marshall County High School",
        "locality": "Benton",
        "nickname": "Ragnarok",
        "region": "Kentucky",
        "team_number": 6157,
        "location": "Benton, Kentucky 42025, USA",
        "key": "frc6157",
        "country_name": "USA",
        "motto": "We bring the fight",
        "rookie_year": 2016
    },
    {
        "website": "http://www.firstinspires.org/",
        "name": "FRC FIRST Grant/WIAT42 One Class At A Time Program (sponsord by Pepsi, Little Caesar's and America's First)/slobberpuppy/Red Mountain Makers & Woodlawn Magnet High School",
        "locality": "Birmingham",
        "nickname": "PiRbot2",
        "region": "Alabama",
        "team_number": 6158,
        "location": "Birmingham, Alabama 35212, USA",
        "key": "frc6158",
        "country_name": "USA",
        "motto": null,
        "rookie_year": 2016
    },
    {
        "website": "roboticaafdm.hol.es",
        "name": "Secretaria de Educacion de Medellin",
        "locality": "Medellin",
        "nickname": "ALIANZA MEDELLIN",
        "region": "Antioquia",
        "team_number": 6159,
        "location": "Medellin, Antioquia, Colombia",
        "key": "frc6159",
        "country_name": "Colombia",
        "motto": "Robotics for a better country",
        "rookie_year": 2016
    },
    {
        "website": "http://bombatrons.weebly.com",
        "name": "Environmental Consulting Testing Inc/Barnum Area Community Club/Northland Custom Builders/Arrowhead Manufacturers & Fabricators Association&Barnum Secondary",
        "locality": "Barnum",
        "nickname": "Bombatrons",
        "region": "Minnesota",
        "team_number": 6160,
        "location": "Barnum, Minnesota 55707, USA",
        "key": "frc6160",
        "country_name": "USA",
        "motto": null,
        "rookie_year": 2016
    },
    {
        "website": "http://www.firstinspires.org/",
        "name": "McCann Fabrication/Bruns Brothers/GANTTPro/TKS Design Studio, LLC&Gray-New Gloucester High School",
        "locality": "Gray",
        "nickname": "Equilibrium",
        "region": "Maine",
        "team_number": 6161,
        "location": "Gray, Maine 04039, USA",
        "key": "frc6161",
        "country_name": "USA",
        "motto": null,
        "rookie_year": 2016
    },
    {
        "website": "http://www.liastem.ca",
        "name": "2017 FRC\u00ae Hardship Grant/2016 FRC\u00ae Hardship Grant&London International Academy",
        "locality": "London",
        "nickname": "Cap Alpaca",
        "region": "Ontario",
        "team_number": 6162,
        "location": "London, Ontario N6A 3C2, Canada",
        "key": "frc6162",
        "country_name": "Canada",
        "motto": "Lets Go Grab Some Food",
        "rookie_year": 2016
    },
    {
        "website": "http://www.firstinspires.org/",
        "name": "Jackson-Olin High Sch",
        "locality": "Birmingham",
        "nickname": "Mustangs",
        "region": "Alabama",
        "team_number": 6163,
        "location": "Birmingham, Alabama 35218, USA",
        "key": "frc6163",
        "country_name": "USA",
        "motto": "We are Destined for Greatness",
        "rookie_year": 2016
    },
    {
        "website": "http://dnhrobotics.weebly.com/",
        "name": "Dike-New Hartford CSD/John Deere/FRC-First Robotics Competition & Dike-New Hartford High School",
        "locality": "Dike",
        "nickname": "Moonshot Slaybots",
        "region": "Iowa",
        "team_number": 6164,
        "location": "Dike, Iowa 50624, USA",
        "key": "frc6164",
        "country_name": "USA",
        "motto": null,
        "rookie_year": 2016
    },
    {
        "website": "http://www.firstinspires.org/",
        "name": "OZEL SAMI CAKIR FATIH FEN VE ANADOLU LISELERI",
        "locality": "Istanbul",
        "nickname": "Aurora",
        "region": "Istanbul",
        "team_number": 6165,
        "location": "Istanbul, Istanbul 34500, Turkey",
        "key": "frc6165",
        "country_name": "Turkey",
        "motto": "\"make robot, not war",
        "rookie_year": 2016
    },
    {
        "website": "http://www.holmen.k12.wi.us/Page/8840",
        "name": "Argosy Foundation / Sergeant Laboratories / Tim Baer and Chris Staley & Holmen High",
        "locality": "Holmen",
        "nickname": "Thorobotics",
        "region": "Wisconsin",
        "team_number": 6166,
        "location": "Holmen, Wisconsin 54636, USA",
        "key": "frc6166",
        "country_name": "USA",
        "motto": null,
        "rookie_year": 2016
    },
    {
        "website": "http://cbhbearbots.weebly.com",
        "name": "Carvers Bay High",
        "locality": "Hemingway",
        "nickname": "CB Bearbots",
        "region": "South Carolina",
        "team_number": 6167,
        "location": "Hemingway, South Carolina 29554, USA",
        "key": "frc6167",
        "country_name": "USA",
        "motto": "Be tough, be wild, be a Bearbot!",
        "rookie_year": 2016
    },
    {
        "website": "http://www.firstinspires.org/",
        "name": "alzahrawi junior high school",
        "locality": "iksal",
        "nickname": "alzahrawi",
        "region": "HaZafon (Northern)",
        "team_number": 6168,
        "location": "iksal, HaZafon (Northern) 16920, Israel",
        "key": "frc6168",
        "country_name": "Israel",
        "motto": null,
        "rookie_year": 2016
    },
    {
        "website": "http://www.unitedroboticslacombe.weebly.com",
        "name": "Lacombe Composite High School",
        "locality": "Lacombe",
        "nickname": "URL FRC",
        "region": "Alberta",
        "team_number": 6169,
        "location": "Lacombe, Alberta T4L1G6, Canada",
        "key": "frc6169",
        "country_name": "Canada",
        "motto": null,
        "rookie_year": 2016
    },
    {
        "website": "https://www.facebook.com/Vitronik6170",
        "name": "Robert Bosch San Luis Potos\u00ed/Universidad Tecmilenio Campus San Luis Potosi/Hardship-Restricted&Universidad TecMilenio",
        "locality": "San Luis Pototos\u00ed",
        "nickname": "Vitronik",
        "region": "San Luis Potos\u00ed",
        "team_number": 6170,
        "location": "San Luis Pototos\u00ed, San Luis Potos\u00ed 78299, Mexico",
        "key": "frc6170",
        "country_name": "Mexico",
        "motto": null,
        "rookie_year": 2016
    },
    {
        "website": "http://www.wildcatrobotics.org/",
        "name": "G Systems / Regal Research & Manufacturing / Alliance Data Systems / Baker Botts LLP / Groggy Dog Spiritwear / Texas Instruments / Plano Senior HS DECA / Plano Senior HS Caring Cats / Plano Senior HS Ag Mechanics Dept. / Wildcat Robotics Booster Club / Plano Senior HS C.A.T.S. Creations & Plano Sr H S",
        "locality": "Plano",
        "nickname": "Chain Reaction Robotics",
        "region": "Texas",
        "team_number": 6171,
        "location": "Plano, Texas 75075, USA",
        "key": "frc6171",
        "country_name": "USA",
        "motto": "We're not just building a robot.",
        "rookie_year": 2016
    },
    {
        "website": "http://www.firstinspires.org/",
        "name": "Lawrence High School",
        "locality": "Fairfield",
        "nickname": "The Mad Dogs",
        "region": "Maine",
        "team_number": 6172,
        "location": "Fairfield, Maine 04937, USA",
        "key": "frc6172",
        "country_name": "USA",
        "motto": null,
        "rookie_year": 2016
    },
    {
        "website": "http://www.firstinspires.org/",
        "name": "Elgin H S",
        "locality": "Elgin",
        "nickname": "Elgin Metal Mayhem",
        "region": "Texas",
        "team_number": 6173,
        "location": "Elgin, Texas 78621, USA",
        "key": "frc6173",
        "country_name": "USA",
        "motto": null,
        "rookie_year": 2016
    },
    {
        "website": "http://www.wintershsrobotics.com",
        "name": "Winters High",
        "locality": "Winters",
        "nickname": "Kaprekar's Constants",
        "region": "California",
        "team_number": 6174,
        "location": "Winters, California 95694, USA",
        "key": "frc6174",
        "country_name": "USA",
        "motto": null,
        "rookie_year": 2016
    },
    {
        "website": "http://www.firstinspires.org/",
        "name": "Eden Valley Secondary",
        "locality": "Eden Valley",
        "nickname": "Mystery Machine",
        "region": "Minnesota",
        "team_number": 6175,
        "location": "Eden Valley, Minnesota 55329, USA",
        "key": "frc6175",
        "country_name": "USA",
        "motto": null,
        "rookie_year": 2016
    },
    {
        "website": "http://www.firstinspires.org/",
        "name": "Minnesota Transitions Middle",
        "locality": "MInneapolis",
        "nickname": "MTS",
        "region": "Minnesota",
        "team_number": 6176,
        "location": "MInneapolis, Minnesota 55406, USA",
        "key": "frc6176",
        "country_name": "USA",
        "motto": "Sky is my limit",
        "rookie_year": 2016
    },
    {
        "website": "http://www.firstinspires.org/",
        "name": "NASA&Booker T. Washington - Early College Small School",
        "locality": "Atlanta",
        "nickname": "Atomic-Robotic-Dogs",
        "region": "Georgia",
        "team_number": 6177,
        "location": "Atlanta, Georgia 30314, USA",
        "key": "frc6177",
        "country_name": "USA",
        "motto": null,
        "rookie_year": 2016
    },
    {
        "website": "http://vanier.htcsd.ca/robotics/",
        "name": "Vanier Collegiate Institute",
        "locality": "Moose Jaw",
        "nickname": "Techno Titans",
        "region": "Saskatchewan",
        "team_number": 6178,
        "location": "Moose Jaw, Saskatchewan S6H2V4, Canada",
        "key": "frc6178",
        "country_name": "Canada",
        "motto": null,
        "rookie_year": 2016
    },
    {
        "website": "http://www.firstinspires.org/",
        "name": "Shenzhen Middle School",
        "locality": "Shenzhen",
        "nickname": "PhotonBox",
        "region": "Guangdong",
        "team_number": 6179,
        "location": "Shenzhen, Guangdong 518000, China",
        "key": "frc6179",
        "country_name": "China",
        "motto": null,
        "rookie_year": 2016
    },
    {
        "website": "http://www.firstinspires.org/",
        "name": "Juan Diego Academy",
        "locality": "Mission",
        "nickname": "Mechanical Lions ",
        "region": "Texas",
        "team_number": 6180,
        "location": "Mission, Texas 78573, USA",
        "key": "frc6180",
        "country_name": "USA",
        "motto": null,
        "rookie_year": 2016
    },
    {
        "website": "http://www.firstinspires.org/",
        "name": "Northwest State Community College / Swanton Welding Company / Chase Brass and Copper, LLC / Ohio Manufacturing Extension Partnership / Advanced Manufacturing Consortium / Pioneer Industrial Systems / Wauseon Machine / McNaughton-McKay / Black Swamp Safety Council / Fulton County Economic Development / Four County Career Center & Neighborhood Group",
        "locality": "Archbold",
        "nickname": "Cryptic Cyborgs",
        "region": "Ohio",
        "team_number": 6181,
        "location": "Archbold, Ohio 43502, USA",
        "key": "frc6181",
        "country_name": "USA",
        "motto": null,
        "rookie_year": 2016
    },
    {
        "website": null,
        "name": null,
        "locality": "Rogers",
        "nickname": "Royals",
        "region": "MN",
        "team_number": 6182,
        "location": "Rogers, MN, USA",
        "key": "frc6182",
        "country_name": "USA",
        "motto": null,
        "rookie_year": 2016
    },
    {
        "website": "http://www.firstinspires.org/",
        "name": "Greenland High School",
        "locality": "Greenland",
        "nickname": "RIGS - Robotics Inspired Greenland Students",
        "region": "Arkansas",
        "team_number": 6183,
        "location": "Greenland, Arkansas 72737, USA",
        "key": "frc6183",
        "country_name": "USA",
        "motto": null,
        "rookie_year": 2016
    },
    {
        "website": "http://www.firstinspires.org/",
        "name": "University of Central Florida/Metal Fabrication Tallahassee/Aegis Business Systems&Leon High School",
        "locality": "Tallahassee",
        "nickname": "Leon Robotics Team",
        "region": "Florida",
        "team_number": 6184,
        "location": "Tallahassee, Florida 32308, USA",
        "key": "frc6184",
        "country_name": "USA",
        "motto": null,
        "rookie_year": 2016
    },
    {
        "website": "http://www.firstinspires.org/",
        "name": "Argosy Foundation & Tri-Village High School",
        "locality": "New Madison",
        "nickname": "TV Patriots",
        "region": "Ohio",
        "team_number": 6185,
        "location": "New Madison, Ohio 45346, USA",
        "key": "frc6185",
        "country_name": "USA",
        "motto": null,
        "rookie_year": 2016
    },
    {
        "website": "http://www.firstinspires.org/",
        "name": "Cooper Tire and Rubber Company - Texarkana Plant & Hope High School",
        "locality": "Hope",
        "nickname": "Knights of the Claw",
        "region": "Arkansas",
        "team_number": 6186,
        "location": "Hope, Arkansas 71801, USA",
        "key": "frc6186",
        "country_name": "USA",
        "motto": null,
        "rookie_year": 2016
    },
    {
        "website": "http://www.firstinspires.org/",
        "name": "Civeo & Narrabri High School",
        "locality": "Narrabri",
        "nickname": "Narrabri High School",
        "region": "New South Wales",
        "team_number": 6187,
        "location": "Narrabri, New South Wales 2390, Australia",
        "key": "frc6187",
        "country_name": "Australia",
        "motto": null,
        "rookie_year": 2016
    },
    {
        "website": "http://www.firstinspires.org/",
        "name": "DOW Chemical Canada/Elk Island Public Schools/Kobylnyk Farms Ltd. & Fort Saskatchewan High School",
        "locality": "Fort Saskatchewan",
        "nickname": "Sting Robotics",
        "region": "Alberta",
        "team_number": 6188,
        "location": "Fort Saskatchewan, Alberta T8L1R2, Canada",
        "key": "frc6188",
        "country_name": "Canada",
        "motto": null,
        "rookie_year": 2016
    },
    {
        "website": "http://www.firstinspires.org/",
        "name": "Amelia County High",
        "locality": "Amelia",
        "nickname": "Cyber Raiders",
        "region": "Virginia",
        "team_number": 6189,
        "location": "Amelia, Virginia 23002, USA",
        "key": "frc6189",
        "country_name": "USA",
        "motto": null,
        "rookie_year": 2016
    },
    {
        "website": "http://www.firstinspires.org/",
        "name": "Canton Preparatory High School",
        "locality": "Canton",
        "nickname": "Will-er Run",
        "region": "Michigan",
        "team_number": 6190,
        "location": "Canton, Michigan 48187, USA",
        "key": "frc6190",
        "country_name": "USA",
        "motto": "Share freely and borrow proudly",
        "rookie_year": 2016
    },
    {
        "website": "http://www.firstinspires.org/",
        "name": "Taipei First Girls High School",
        "locality": "Taipei",
        "nickname": "TFG",
        "region": "Taipei",
        "team_number": 6191,
        "location": "Taipei, Taipei 10045, Taiwan",
        "key": "frc6191",
        "country_name": "Taiwan",
        "motto": null,
        "rookie_year": 2016
    },
    {
        "website": "http://www.firstinspires.org/",
        "name": "Immib Erkan Avci Tekniki ve Mesleki Anadolu Lisesi",
        "locality": "Istanbul",
        "nickname": "IEA Robotim",
        "region": "Istanbul",
        "team_number": 6192,
        "location": "Istanbul, Istanbul, Turkey",
        "key": "frc6192",
        "country_name": "Turkey",
        "motto": "Generate the solutions , not the problem !",
        "rookie_year": 2016
    },
    {
        "website": "http://www.frc6193.com",
        "name": "SC Johnson/FIRST Great Lakes Bay Region and Dow/Nexteer/Eaton Corporation/SWS Trimac/Kevin Wray Financials/Bellsmith Graphic Design Studio&All Saints Central High School",
        "locality": "Bay City",
        "nickname": "The Legend of Robotics",
        "region": "Michigan",
        "team_number": 6193,
        "location": "Bay City, Michigan 48708, USA",
        "key": "frc6193",
        "country_name": "USA",
        "motto": null,
        "rookie_year": 2016
    },
    {
        "website": "http://cucps.k12.us.va",
        "name": "Mid-Atlantic Broadband/Cumberland County Public Schools Foundation/AMCOR Packaging/Dr. & Mrs. Daniel Kingsley/Joe Giles Signs Inc.&Cumberland High",
        "locality": "Cumberland",
        "nickname": "The Aftershocks",
        "region": "Virginia",
        "team_number": 6194,
        "location": "Cumberland, Virginia 23040, USA",
        "key": "frc6194",
        "country_name": "USA",
        "motto": "Design Create Invent",
        "rookie_year": 2016
    },
    {
        "website": "http://www.firstinspires.org/",
        "name": "Leon M Goldstein High School for the Sciences",
        "locality": "Brooklyn",
        "nickname": "GOLDBOTS",
        "region": "New York",
        "team_number": 6195,
        "location": "Brooklyn, New York 11235, USA",
        "key": "frc6195",
        "country_name": "USA",
        "motto": "Get the Gold!",
        "rookie_year": 2016
    },
    {
        "website": "http://www.firstinspires.org/",
        "name": "Texas Workforce Commission & a & M Cons H S",
        "locality": "College Station",
        "nickname": "Spontaneous Disassembly",
        "region": "Texas",
        "team_number": 6196,
        "location": "College Station, Texas 77840, USA",
        "key": "frc6196",
        "country_name": "USA",
        "motto": null,
        "rookie_year": 2016
    },
    {
        "website": "http://www.firstinspires.org/",
        "name": "Semia Team",
        "locality": "Beijing",
        "nickname": "Semia United",
        "region": "Beijing",
        "team_number": 6197,
        "location": "Beijing, Beijing 100012, China",
        "key": "frc6197",
        "country_name": "China",
        "motto": null,
        "rookie_year": 2016
    },
    {
        "website": "http://www.firstinspires.org/",
        "name": "Boy Scout Troop 10 -  First Baptist Church, Inc.",
        "locality": "Pensacola",
        "nickname": "Bayou Bots",
        "region": "Florida",
        "team_number": 6198,
        "location": "Pensacola, Florida 32502, USA",
        "key": "frc6198",
        "country_name": "USA",
        "motto": "Redundancy Rocks",
        "rookie_year": 2016
    },
    {
        "website": "Coming Soon",
        "name": "INDUSTRIAS PENOLES/UNIVERSIDAD AUTONOMA DE LA LAGUNA, A.C./GRUPO REVUELTAS/FERBUS/LAGACERO&UNIVERSIDAD AUTONOMA DE LA LAGUNA, A.C.",
        "locality": "Torre\u00f3n",
        "nickname": "E-Hawks",
        "region": "Coahuila",
        "team_number": 6199,
        "location": "Torre\u00f3n, Coahuila 27100, Mexico",
        "key": "frc6199",
        "country_name": "Mexico",
        "motto": null,
        "rookie_year": 2016
    },
    {
        "website": "Coming Soon",
        "name": "ETHICON  Johnson and Johnson/Align Technology/ITESM&ITESM",
        "locality": "Ju\u00e1rez",
        "nickname": "Xrams",
        "region": "Chihuahua",
        "team_number": 6200,
        "location": "Ju\u00e1rez, Chihuahua 32470, Mexico",
        "key": "frc6200",
        "country_name": "Mexico",
        "motto": "\"We are not the future, we are the PRESENT\"",
        "rookie_year": 2016
    },
    {
        "website": "http://thehighlanders6201.weebly.com/",
        "name": "Somerville Public Schools&Somerville High",
        "locality": "Somerville",
        "nickname": "The Highlanders",
        "region": "Massachusetts",
        "team_number": 6201,
        "location": "Somerville, Massachusetts 02143, USA",
        "key": "frc6201",
        "country_name": "USA",
        "motto": "Somerville Leads the Way",
        "rookie_year": 2016
    },
    {
        "website": "http://www.firstinspires.org/",
        "name": "Child Welfare",
        "locality": "Windsor",
        "nickname": "The Centurions",
        "region": "Ontario",
        "team_number": 6202,
        "location": "Windsor, Ontario N8Y 5B5, Canada",
        "key": "frc6202",
        "country_name": "Canada",
        "motto": null,
        "rookie_year": 2016
    },
    {
        "website": "http://team6203.com/",
        "name": "Argosy Foundation & Bergen Acads Hackensack",
        "locality": "Hackensack",
        "nickname": "Titanium Knights Robotics",
        "region": "New Jersey",
        "team_number": 6203,
        "location": "Hackensack, New Jersey 07601, USA",
        "key": "frc6203",
        "country_name": "USA",
        "motto": "TBD",
        "rookie_year": 2016
    },
    {
        "website": "http://www.firstinspires.org/",
        "name": "Pedare Christian College",
        "locality": "Adelaide",
        "nickname": "Team Pedare",
        "region": "South Australia",
        "team_number": 6204,
        "location": "Adelaide, South Australia 5125, Australia",
        "key": "frc6204",
        "country_name": "Australia",
        "motto": null,
        "rookie_year": 2016
    },
    {
        "website": "http://www.firstinspires.org/",
        "name": "Gezhi High School",
        "locality": "Shanghai",
        "nickname": "SD Tech",
        "region": "Beijing",
        "team_number": 6205,
        "location": "Shanghai, Beijing 250200, China",
        "key": "frc6205",
        "country_name": "China",
        "motto": null,
        "rookie_year": 2016
    },
    {
        "website": "http://www.firstinspires.org/",
        "name": "Taiyuan Foreign Language School",
        "locality": "Taiyuan",
        "nickname": "Shandong T",
        "region": "Shaanxi",
        "team_number": 6206,
        "location": "Taiyuan, Shaanxi 250200, China",
        "key": "frc6206",
        "country_name": "China",
        "motto": null,
        "rookie_year": 2016
    },
    {
        "website": "http://www.firstinspires.org/",
        "name": "Changchun No. 4 High School",
        "locality": "Changchun",
        "nickname": "Beichen",
        "region": "Jilin",
        "team_number": 6207,
        "location": "Changchun, Jilin 256600 , China",
        "key": "frc6207",
        "country_name": "China",
        "motto": null,
        "rookie_year": 2016
    },
    {
        "website": "http://www.firstinspires.org/",
        "name": "Portage Central High School",
        "locality": "Portage",
        "nickname": "Mechstangs",
        "region": "Michigan",
        "team_number": 6208,
        "location": "Portage, Michigan 49002, USA",
        "key": "frc6208",
        "country_name": "USA",
        "motto": null,
        "rookie_year": 2016
    },
    {
        "website": "Coming Soon",
        "name": "Texas Workforce Commission & Southcrest Christian School",
        "locality": "Lubbock",
        "nickname": "Robo Warriors",
        "region": "Texas",
        "team_number": 6209,
        "location": "Lubbock, Texas, USA",
        "key": "frc6209",
        "country_name": "USA",
        "motto": null,
        "rookie_year": 2016
    },
    {
        "website": "http://www.firstinspires.org/",
        "name": "City Academy",
        "locality": "Salt Lake City",
        "nickname": "The Dragons Lair",
        "region": "Utah",
        "team_number": 6210,
        "location": "Salt Lake City, Utah 84102, USA",
        "key": "frc6210",
        "country_name": "USA",
        "motto": "Curiosity leads to great ideas",
        "rookie_year": 2016
    },
    {
        "website": null,
        "name": null,
        "locality": "Burlington",
        "nickname": "Hayden Robotics",
        "region": "ON",
        "team_number": 6211,
        "location": "Burlington, ON, Canada",
        "key": "frc6211",
        "country_name": "Canada",
        "motto": null,
        "rookie_year": 2016
    },
    {
        "website": "http://www.firstinspires.org/",
        "name": "Kaniva College",
        "locality": "Kaniva",
        "nickname": "Kaniva College",
        "region": "Victoria",
        "team_number": 6212,
        "location": "Kaniva, Victoria 3419, Australia",
        "key": "frc6212",
        "country_name": "Australia",
        "motto": null,
        "rookie_year": 2016
    },
    {
        "website": "http://www.firstinspires.org/",
        "name": "Bowie High",
        "locality": "Bowie",
        "nickname": "Team Quantum",
        "region": "Maryland",
        "team_number": 6213,
        "location": "Bowie, Maryland 20715, USA",
        "key": "frc6213",
        "country_name": "USA",
        "motto": null,
        "rookie_year": 2016
    },
    {
        "website": "http:// loscreadores.wix.com/loscreadores",
        "name": "Duke Energy Grant/Argosy Foundation/ORC/Anne Weinberger/Tyler Bletsch/Irma McLeod/Leen the Graphics Queen&Pender High&Pender Early College&Topsail High&Heide Trask High",
        "locality": "Burgaw",
        "nickname": "PHEnix",
        "region": "North Carolina",
        "team_number": 6214,
        "location": "Burgaw, North Carolina 28425, USA",
        "key": "frc6214",
        "country_name": "USA",
        "motto": "if( Awesome >= 100){System.out.print(\"Started from the bottom now we are here\"):",
        "rookie_year": 2016
    },
    {
        "website": "http://www.compassyouthcenters.org",
        "name": "Compass Youth Center",
        "locality": "Warrenton",
        "nickname": "Armored Eagles",
        "region": "North Carolina",
        "team_number": 6215,
        "location": "Warrenton, North Carolina 27589, USA",
        "key": "frc6215",
        "country_name": "USA",
        "motto": "\"Staying Alive with Armored Eagle Pride\"",
        "rookie_year": 2016
    },
    {
        "website": "http://www.firstinspires.org/",
        "name": "little town robotics academy",
        "locality": "chester",
        "nickname": "movers and shakers ",
        "region": "Pennsylvania",
        "team_number": 6216,
        "location": "chester, Pennsylvania 19013, USA",
        "key": "frc6216",
        "country_name": "USA",
        "motto": null,
        "rookie_year": 2016
    },
    {
        "website": "http://www.firstinspires.org/",
        "name": "Gemini Sign Products/IBM/Quality One WOodworking&Cannon Falls Sec.",
        "locality": "Cannon Falls",
        "nickname": "Bomb-Botz",
        "region": "Minnesota",
        "team_number": 6217,
        "location": "Cannon Falls, Minnesota 55009, USA",
        "key": "frc6217",
        "country_name": "USA",
        "motto": null,
        "rookie_year": 2016
    },
    {
        "website": "Coming Soon",
        "name": "Preparatoria Tecmilenio",
        "locality": "Hermosillo",
        "nickname": "FTM6218",
        "region": "Sonora",
        "team_number": 6218,
        "location": "Hermosillo, Sonora 83000, Mexico",
        "key": "frc6218",
        "country_name": "Mexico",
        "motto": null,
        "rookie_year": 2016
    },
    {
        "website": "http://cuttinedgerobotics.weebly.com",
        "name": "Sullivan Central High School",
        "locality": "Blountville",
        "nickname": "Cuttin' Edge Robotics",
        "region": "Tennessee",
        "team_number": 6219,
        "location": "Blountville, Tennessee 37617, USA",
        "key": "frc6219",
        "country_name": "USA",
        "motto": null,
        "rookie_year": 2016
    },
    {
        "website": "http://www.losalrobotics.com",
        "name": "Boeing/Build It Workspace/Neighborhood Group & Los Alamitos High",
        "locality": "Los Alamitos",
        "nickname": "MEME Team",
        "region": "California",
        "team_number": 6220,
        "location": "Los Alamitos, California 90720, USA",
        "key": "frc6220",
        "country_name": "USA",
        "motto": "Envision, Design, Inspire",
        "rookie_year": 2016
    },
    {
        "website": "http://www.firstinspires.org/",
        "name": "Miami High School",
        "locality": "Miami",
        "nickname": "Vandals",
        "region": "Arizona",
        "team_number": 6221,
        "location": "Miami, Arizona 85539, USA",
        "key": "frc6221",
        "country_name": "USA",
        "motto": null,
        "rookie_year": 2016
    },
    {
        "website": "Coming Soon",
        "name": "Hemingway High",
        "locality": "Hemingway",
        "nickname": "Hemingway Tigers",
        "region": "South Carolina",
        "team_number": 6222,
        "location": "Hemingway, South Carolina 29554, USA",
        "key": "frc6222",
        "country_name": "USA",
        "motto": null,
        "rookie_year": 2016
    },
    {
        "website": "http://www.fallsathletics.org/page/show/2145654-technology-education-robotics",
        "name": "NASA/Rockwell Automation/Menomonee Falls Optimist Club&Menomonee Falls High",
        "locality": "Menomonee Falls",
        "nickname": "Arsenal Engineering",
        "region": "Wisconsin",
        "team_number": 6223,
        "location": "Menomonee Falls, Wisconsin 53051, USA",
        "key": "frc6223",
        "country_name": "USA",
        "motto": null,
        "rookie_year": 2016
    },
    {
        "website": "http://www.stdomsmaine.org/",
        "name": "St Dominic Regional High School",
        "locality": "Auburn",
        "nickname": "The Saints",
        "region": "Maine",
        "team_number": 6224,
        "location": "Auburn, Maine 04210, USA",
        "key": "frc6224",
        "country_name": "USA",
        "motto": null,
        "rookie_year": 2016
    },
    {
        "website": "http://www.GoldenRuleAcademy.net",
        "name": "Access Able Designs/Treasure Coast Maker Space/Ignite Your World, DBA Truth Church/Funds 2 Function/Argosy Foundation/KurTrox&Golden Rule Academy",
        "locality": "Fort Pierce",
        "nickname": "GRA Roarin' Robotics",
        "region": "Florida",
        "team_number": 6225,
        "location": "Fort Pierce, Florida 34981, USA",
        "key": "frc6225",
        "country_name": "USA",
        "motto": "Aim High",
        "rookie_year": 2016
    },
    {
        "website": "http://www.firstinspires.org/",
        "name": "Argosy Foundation/2017 FRC\u00ae Hardship Grant/IT Edge/Matrix NAC/The Adair Family/The Gibson Family&Burlington City High",
        "locality": "Burlington",
        "nickname": "Blue Devils",
        "region": "New Jersey",
        "team_number": 6226,
        "location": "Burlington, New Jersey 08016, USA",
        "key": "frc6226",
        "country_name": "USA",
        "motto": null,
        "rookie_year": 2016
    },
    {
        "website": "http://www.firstinspires.org/",
        "name": "The Middle School Attached to Northwestern Polytechnical University  / ROBOTERRA & Family Friends",
        "locality": "Xi'An",
        "nickname": "Robohovers",
        "region": "Shaanxi",
        "team_number": 6227,
        "location": "Xi'An, Shaanxi 710072, China",
        "key": "frc6227",
        "country_name": "China",
        "motto": null,
        "rookie_year": 2016
    },
    {
        "website": "http://matrobotics.tk",
        "name": "Ministry of Education / Odeabank / Arena Advertising / Trio Machine / Turkish Airlines / Metalinoks / Sisli Municipality / Hisim Group / Fikret Yuksel Foundation / Metal Yapi & Macka Akif Tuncel Vocational and Technical High School",
        "locality": "Istanbul",
        "nickname": "Mat Robotics",
        "region": "Istanbul",
        "team_number": 6228,
        "location": "Istanbul, Istanbul 34367, Turkey",
        "key": "frc6228",
        "country_name": "Turkey",
        "motto": "Just Think and do it",
        "rookie_year": 2016
    },
    {
        "website": "http://spartans6229.esy.es",
        "name": "a-electronics / General Motors / SIMANCAS / DGETI & CBTis 203.   ",
        "locality": "metepec",
        "nickname": "spartans",
        "region": "Mexico",
        "team_number": 6229,
        "location": "metepec, Mexico 52140, Mexico",
        "key": "frc6229",
        "country_name": "Mexico",
        "motto": "THERE IS NOTHING IMPOSSIBLE ONLY LIMITED MINDS",
        "rookie_year": 2016
    },
    {
        "website": "http://www.firstinspires.org/",
        "name": "ORT Harmatz College Givat Ram / Bardarian Brothers Ltd. / Citadis Israel Ltd. & ORT Harmatz College Givat Ram \t",
        "locality": "Jerusalem",
        "nickname": "shadow wolfs",
        "region": "Yerushalayim",
        "team_number": 6230,
        "location": "Jerusalem, Yerushalayim 9543501, Israel",
        "key": "frc6230",
        "country_name": "Israel",
        "motto": null,
        "rookie_year": 2016
    },
    {
        "website": "http://www.firstinspires.org/",
        "name": "Haydar Ak\u0131n Mesleki Teknik Anadolu L\u0131ses\u0131 & Immib Bahcelievler Erkan Avci Mesleki ve Teknik Anadolu Lisesi",
        "locality": "istanbul",
        "nickname": "AKINCILAR",
        "region": "Istanbul",
        "team_number": 6231,
        "location": "istanbul, Istanbul 34320, Turkey",
        "key": "frc6231",
        "country_name": "Turkey",
        "motto": "\u00d6NCE \u0130NSAN SONRA \u0130\u015e G\u00dcVENL\u0130\u011e\u0130",
        "rookie_year": 2016
    },
    {
        "website": "http://www.firstinspires.org/",
        "name": "Turkish Airlines/istanbul city municipality/Karbosan/Birboy Tekstil/Raunt/Eteration/Robotus/Cam Merkezi/Pano Metal/Aydo\u011fan Do\u011frama/Mask Reklam&Florya Koleji",
        "locality": "istanbul",
        "nickname": "Florya Bisons",
        "region": "Istanbul",
        "team_number": 6232,
        "location": "istanbul, Istanbul 34153, Turkey",
        "key": "frc6232",
        "country_name": "Turkey",
        "motto": null,
        "rookie_year": 2016
    },
    {
        "website": null,
        "name": null,
        "locality": "Mission",
        "nickname": "Phoe-Bots",
        "region": "TX",
        "team_number": 6233,
        "location": "Mission, TX, USA",
        "key": "frc6233",
        "country_name": "USA",
        "motto": null,
        "rookie_year": 2016
    },
    {
        "website": null,
        "name": null,
        "locality": "kuna",
        "nickname": "Madson",
        "region": "ID",
        "team_number": 6234,
        "location": "kuna, ID, USA",
        "key": "frc6234",
        "country_name": "USA",
        "motto": null,
        "rookie_year": 2016
    },
    {
        "website": null,
        "name": "Dell / NCR / Holcim / God's Garden Pre-School / DBL S Ranch / Texas Workforce & Midlothian Heritage High School",
        "locality": "Midlothian",
        "nickname": "Robo-Nerds",
        "region": "Texas",
        "team_number": 6235,
        "location": "Midlothian, Texas 76065, USA",
        "key": "frc6235",
        "country_name": "USA",
        "motto": null,
        "rookie_year": 2016
    },
    {
        "website": "http://www.ratcotu.org",
        "name": "DANKEL, Inc. / Haze Battery USA / Lilliput's Dollhouses / Diversitec / Colonial Ford / Lawrence Equipment & Hanover County 4H",
        "locality": "Ashland",
        "nickname": "Robots at The Center of the Universe",
        "region": "Virginia",
        "team_number": 6236,
        "location": "Ashland, Virginia 23005, USA",
        "key": "frc6236",
        "country_name": "USA",
        "motto": null,
        "rookie_year": 2016
    },
    {
        "website": "http://www.motion.martin-eng.com/",
        "name": "Martin Engineering/Regional Office of Education - 21st Century Grant & Neighborhood Group",
        "locality": "Neponset",
        "nickname": "Martin Motion",
        "region": "Illinois",
        "team_number": 6237,
        "location": "Neponset, Illinois 61345, USA",
        "key": "frc6237",
        "country_name": "USA",
        "motto": null,
        "rookie_year": 2016
    },
    {
        "website": "http://www.tvdsb.ca/Westminster.cfm",
        "name": "East Jefferson High School",
        "locality": "Metairie",
        "nickname": "East Jefferson High School",
        "region": "Louisiana",
        "team_number": 6238,
        "location": "Metairie, Louisiana 70001, USA",
        "key": "frc6238",
        "country_name": "USA",
        "motto": null,
        "rookie_year": 2016
    },
    {
        "website": "http://www.theirrationalengineers.com",
        "name": "NASA/Lanmark Properties/Home Depot - Bowie/Steam Rising Incorporated/Scheaffer Photographer&Family/Community",
        "locality": "Upper Marlboro",
        "nickname": "The Irrational Engineers",
        "region": "Maryland",
        "team_number": 6239,
        "location": "Upper Marlboro, Maryland 20774, USA",
        "key": "frc6239",
        "country_name": "USA",
        "motto": null,
        "rookie_year": 2016
    },
    {
        "website": null,
        "name": "Warren County High & Warren Early College High & Warren New Tech High",
        "locality": "Warrenton",
        "nickname": "Eagles of the Knight",
        "region": "North Carolina",
        "team_number": 6240,
        "location": "Warrenton, North Carolina 27589, USA",
        "key": "frc6240",
        "country_name": "USA",
        "motto": null,
        "rookie_year": 2016
    },
    {
        "website": null,
        "name": "Mt Greylock Reg High",
        "locality": "Williamstown",
        "nickname": "Mt Greylock Robotics Team",
        "region": "Massachusetts",
        "team_number": 6241,
        "location": "Williamstown, Massachusetts 01267, USA",
        "key": "frc6241",
        "country_name": "USA",
        "motto": null,
        "rookie_year": 2016
    },
    {
        "website": null,
        "name": "Belton H S",
        "locality": "Belton",
        "nickname": "Greene Machine",
        "region": "Texas",
        "team_number": 6242,
        "location": "Belton, Texas 76513, USA",
        "key": "frc6242",
        "country_name": "USA",
        "motto": null,
        "rookie_year": 2016
    },
    {
        "website": null,
        "name": "ECOLE SECONDAIRE LINDSAY THURBER COMPREHENSIVE HIGH SCHOOL",
        "locality": "Red Deer",
        "nickname": "Raiders Robotics",
        "region": "Alberta",
        "team_number": 6243,
        "location": "Red Deer, Alberta T4N 2L6, Canada",
        "key": "frc6243",
        "country_name": "Canada",
        "motto": null,
        "rookie_year": 2016
    },
    {
        "website": null,
        "name": "Reese High School",
        "locality": "Reese",
        "nickname": "Reese Rockets High School Robotics",
        "region": "Michigan",
        "team_number": 6244,
        "location": "Reese, Michigan 48757, USA",
        "key": "frc6244",
        "country_name": "USA",
        "motto": null,
        "rookie_year": 2016
    },
    {
        "website": "http://www.innovosrobotics.org",
        "name": "Family/Community",
        "locality": "Orange",
        "nickname": "Innovos Robotics",
        "region": "California",
        "team_number": 6245,
        "location": "Orange, California, USA",
        "key": "frc6245",
        "country_name": "USA",
        "motto": null,
        "rookie_year": 2016
    },
    {
        "website": "https://www.facebook.com/Union-Knights-Robotics-FRC-Team-286031215076524/",
        "name": "Union High School",
        "locality": "La Porte City",
        "nickname": "Union Knight Robotics",
        "region": "Iowa",
        "team_number": 6246,
        "location": "La Porte City, Iowa 50651, USA",
        "key": "frc6246",
        "country_name": "USA",
        "motto": null,
        "rookie_year": 2016
    },
    {
        "website": null,
        "name": "Millbrook High",
        "locality": "Raleigh",
        "nickname": "Millbrook High School",
        "region": "North Carolina",
        "team_number": 6248,
        "location": "Raleigh, North Carolina, USA",
        "key": "frc6248",
        "country_name": "USA",
        "motto": null,
        "rookie_year": 2016
    },
    {
        "website": null,
        "name": "NEW YORK TECH VALLEY FIRST SPONSORS/NASA&Northwood School",
        "locality": "Lake Placid",
        "nickname": "Northwood School Robotics",
        "region": "New York",
        "team_number": 6300,
        "location": "Lake Placid, New York 12946, USA",
        "key": "frc6300",
        "country_name": "USA",
        "motto": null,
        "rookie_year": 2017
    },
    {
        "website": null,
        "name": "SolidWorks&Bristol-Plymouth Voc Tech",
        "locality": "Taunton",
        "nickname": "Nerointellect-sim Engineering & Robot Design Soiree   N.E.R.D.S.",
        "region": "Massachusetts",
        "team_number": 6301,
        "location": "Taunton, Massachusetts 02780, USA",
        "key": "frc6301",
        "country_name": "USA",
        "motto": null,
        "rookie_year": 2017
    },
    {
        "website": null,
        "name": "Greeneville High School",
        "locality": "Greeneville",
        "nickname": "Tech Devils",
        "region": "Tennessee",
        "team_number": 6302,
        "location": "Greeneville, Tennessee 37745, USA",
        "key": "frc6302",
        "country_name": "USA",
        "motto": null,
        "rookie_year": 2017
    },
    {
        "website": null,
        "name": "The Argosy Foundation/Zhenjiang Investment Consulting Co., Ltd&Zhenjiang Vocational & Technical College",
        "locality": "zhenjiang",
        "nickname": "eagle ",
        "region": "Jiangsu",
        "team_number": 6304,
        "location": "zhenjiang, Jiangsu 212016, China",
        "key": "frc6304",
        "country_name": "China",
        "motto": null,
        "rookie_year": 2017
    },
    {
        "website": null,
        "name": "Clovis North High",
        "locality": "Fresno",
        "nickname": "Stable Circuits",
        "region": "California",
        "team_number": 6305,
        "location": "Fresno, California 93730, USA",
        "key": "frc6305",
        "country_name": "USA",
        "motto": null,
        "rookie_year": 2017
    },
    {
        "website": null,
        "name": "DoD STEM-Restricted/Analytical Scientific&The Atonement Academy",
        "locality": "San Antonio",
        "nickname": "Atonement Academy CrewStators",
        "region": "Texas",
        "team_number": 6306,
        "location": "San Antonio, Texas 78255, USA",
        "key": "frc6306",
        "country_name": "USA",
        "motto": null,
        "rookie_year": 2017
    },
    {
        "website": null,
        "name": "Courtland High",
        "locality": "Fredericksburg",
        "nickname": "Courtland High School",
        "region": "Virginia",
        "team_number": 6307,
        "location": "Fredericksburg, Virginia 22407, USA",
        "key": "frc6307",
        "country_name": "USA",
        "motto": null,
        "rookie_year": 2017
    },
    {
        "website": null,
        "name": "Saint Paul Christian School",
        "locality": "Dededo",
        "nickname": "Saint Paul Christian School ",
        "region": "Guam",
        "team_number": 6308,
        "location": "Dededo, Guam 96929, USA",
        "key": "frc6308",
        "country_name": "USA",
        "motto": null,
        "rookie_year": 2017
    },
    {
        "website": null,
        "name": "Saint Paul Christian School",
        "locality": "Dededo",
        "nickname": "SPCS Warriors 2",
        "region": "Guam",
        "team_number": 6309,
        "location": "Dededo, Guam 96929, USA",
        "key": "frc6309",
        "country_name": "USA",
        "motto": null,
        "rookie_year": 2017
    },
    {
        "website": null,
        "name": "Christchurch School",
        "locality": "Christchurch",
        "nickname": "Hippocampinae",
        "region": "Virginia",
        "team_number": 6312,
        "location": "Christchurch, Virginia 23031, USA",
        "key": "frc6312",
        "country_name": "USA",
        "motto": null,
        "rookie_year": 2017
    },
    {
        "website": null,
        "name": "Christchurch School",
        "locality": "Christchurch",
        "nickname": "Hippocampus",
        "region": "Virginia",
        "team_number": 6313,
        "location": "Christchurch, Virginia 23031, USA",
        "key": "frc6313",
        "country_name": "USA",
        "motto": null,
        "rookie_year": 2017
    },
    {
        "website": null,
        "name": "Employees of Microchip Technology/Boeing/DM Cite Counsil/33 North Partners&Desert Mountain High School",
        "locality": "Scottsdale",
        "nickname": "Desert Mountain Robotics",
        "region": "Arizona",
        "team_number": 6314,
        "location": "Scottsdale, Arizona 85259, USA",
        "key": "frc6314",
        "country_name": "USA",
        "motto": null,
        "rookie_year": 2017
    },
    {
        "website": null,
        "name": "Harmony Science Academy - Laredo",
        "locality": "Laredo",
        "nickname": "Code Error 404",
        "region": "Texas",
        "team_number": 6315,
        "location": "Laredo, Texas 78041, USA",
        "key": "frc6315",
        "country_name": "USA",
        "motto": null,
        "rookie_year": 2017
    },
    {
        "website": "http://N/A",
        "name": "West High School",
        "locality": "Davenport",
        "nickname": "Disruptive Innovation",
        "region": "Iowa",
        "team_number": 6317,
        "location": "Davenport, Iowa 52804, USA",
        "key": "frc6317",
        "country_name": "USA",
        "motto": null,
        "rookie_year": 2017
    },
    {
        "website": "https://sites.google.com/a/freedomschools.k12.wi.us/fe-6318/",
        "name": "Freedom Area School District/Metal Products/Baum Machine/Ricos/Eagle Plastics/Subway&Freedom High",
        "locality": "Freedom",
        "nickname": "FE Freedom Engineers",
        "region": "Wisconsin",
        "team_number": 6318,
        "location": "Freedom, Wisconsin 54130, USA",
        "key": "frc6318",
        "country_name": "USA",
        "motto": null,
        "rookie_year": 2017
    },
    {
        "website": "https://www.facebook.com/EnkiNovaUTM/",
        "name": "TECMILENIO CAMPUS LOS MOCHIS",
        "locality": "AHOME",
        "nickname": "ENKI-NOVA",
        "region": "Sinaloa",
        "team_number": 6319,
        "location": "AHOME, Sinaloa 81278, Mexico",
        "key": "frc6319",
        "country_name": "Mexico",
        "motto": null,
        "rookie_year": 2017
    },
    {
        "website": null,
        "name": "Iowa Governor's STEM Advisory Council/Royal Alliance Monaghan Financial Services, LTD. /Maquoketa Valle Coop/Loecke Building Services/Simon's Feed/Regional Medical Center&West Delaware High School",
        "locality": "Manchester",
        "nickname": "Iron Hawks",
        "region": "Iowa",
        "team_number": 6320,
        "location": "Manchester, Iowa 52057, USA",
        "key": "frc6320",
        "country_name": "USA",
        "motto": null,
        "rookie_year": 2017
    },
    {
        "website": "http://www.rouserobotics.org",
        "name": "NASA/Texas Workforce Commission/Leander Educational Excellence Foundation/Leander ISD/SolidWorks/FIRST in Texas/Integrated Metal Products&Rouse H S",
        "locality": "Leander",
        "nickname": "R-Cubed  Rouse Raider Robotics",
        "region": "Texas",
        "team_number": 6321,
        "location": "Leander, Texas 78641, USA",
        "key": "frc6321",
        "country_name": "USA",
        "motto": null,
        "rookie_year": 2017
    },
    {
        "website": null,
        "name": "Orange Park High School & Oakleaf High School",
        "locality": "Orange Park",
        "nickname": "ONECLAY A.R.M.O.R.Y.",
        "region": "Florida",
        "team_number": 6322,
        "location": "Orange Park, Florida 32073, USA",
        "key": "frc6322",
        "country_name": "USA",
        "motto": null,
        "rookie_year": 2017
    },
    {
        "website": "http://haydenrobotics.ca",
        "name": "Halton District School Board/JMP Engineering/ABC Group/L3 Wescam/Douglas Dental Care/UPS Battery Inc./Procor&Dr. Frank J Hayden Secondary School",
        "locality": "Burlington",
        "nickname": "Hayden Robotics",
        "region": "Ontario",
        "team_number": 6323,
        "location": "Burlington, Ontario L7M0N6, Canada",
        "key": "frc6323",
        "country_name": "Canada",
        "motto": null,
        "rookie_year": 2017
    },
    {
        "website": null,
        "name": "Salem High School",
        "locality": "Salem",
        "nickname": "The Blue Devils",
        "region": "New Hampshire",
        "team_number": 6324,
        "location": "Salem, New Hampshire 03079, USA",
        "key": "frc6324",
        "country_name": "USA",
        "motto": null,
        "rookie_year": 2017
    },
    {
        "website": "http://www.resetrobotics.org",
        "name": "Georgia Robotics Alliance/NASA/Big Blue Saw/Siemens /STREM HQ&Family/Community",
        "locality": "Alpharetta",
        "nickname": "Reset Robotics",
        "region": "Georgia",
        "team_number": 6325,
        "location": "Alpharetta, Georgia 30005, USA",
        "key": "frc6325",
        "country_name": "USA",
        "motto": null,
        "rookie_year": 2017
    },
    {
        "website": "http://www.baltimorebolts.com",
        "name": "Baltimore Robotics Center/Stanley Black & Decker/NASA/Abell Foundation/Maryland Space Business Roundtable/Open Works/Sylvan Learning Center & Western High & Mergenthaler Vocational-Technical High & Paul Laurence Dunbar High & National Academy Foundation",
        "locality": "Baltimore",
        "nickname": "Baltimore Bolts",
        "region": "Maryland",
        "team_number": 6326,
        "location": "Baltimore, Maryland 21223, USA",
        "key": "frc6326",
        "country_name": "USA",
        "motto": null,
        "rookie_year": 2017
    },
    {
        "website": null,
        "name": "4-H of Delaware County/Penn State/The Eastern Pennsylvania Robotics Alliance&Family/Community",
        "locality": "Media",
        "nickname": "Tin Men",
        "region": "Pennsylvania",
        "team_number": 6327,
        "location": "Media, Pennsylvania 19063, USA",
        "key": "frc6327",
        "country_name": "USA",
        "motto": null,
        "rookie_year": 2017
    },
    {
        "website": "http://www.littletonrobotics.com",
        "name": "Littleton High School",
        "locality": "Littleton",
        "nickname": "Mechanical Advantage",
        "region": "Massachusetts",
        "team_number": 6328,
        "location": "Littleton, Massachusetts 01460, USA",
        "key": "frc6328",
        "country_name": "USA",
        "motto": null,
        "rookie_year": 2017
    },
    {
        "website": "http://bucksporths.wix.com/mrboynton#!engineering/ck0q",
        "name": "NASA/Robotics Institute of Maine/Bucksport High School/Foster & Company LLP, Certified Public Accountants/Orland Pump Repair and Drain Cleaning/MELMAC/Varnum's Glass Co./Alan Nelson/The Ginn Family/The Orcutt Family/Banner City Graphics&Bucksport High School",
        "locality": "Bucksport",
        "nickname": "The Bucks' Wrath",
        "region": "Maine",
        "team_number": 6329,
        "location": "Bucksport, Maine 04416, USA",
        "key": "frc6329",
        "country_name": "USA",
        "motto": null,
        "rookie_year": 2017
    },
    {
        "website": null,
        "name": "ST. JOAN OF ARC CATHOLIC SECONDARY SCHOOL",
        "locality": "Mississauga",
        "nickname": "6330 - Arc Angels",
        "region": "Ontario",
        "team_number": 6330,
        "location": "Mississauga, Ontario L5J 1C9, Canada",
        "key": "frc6330",
        "country_name": "Canada",
        "motto": null,
        "rookie_year": 2017
    },
    {
        "website": "http://lessorrobotics.ca",
        "name": "ECOLE SECONDAIRE L'ESSOR",
        "locality": "Belle River",
        "nickname": "Sabotage",
        "region": "Ontario",
        "team_number": 6331,
        "location": "Belle River, Ontario N0R 1A0, Canada",
        "key": "frc6331",
        "country_name": "Canada",
        "motto": null,
        "rookie_year": 2017
    },
    {
        "website": "http://bullcitybotics.co",
        "name": "NASA/Mertek/Adam Dickinson/Alon Greyber, Emily Spero, Elizabeth Beyer, Ben Bartnik/Scott and Lori Resnick/Kontek/American Underground&Riverside High",
        "locality": "Durham",
        "nickname": "Bull City Botics",
        "region": "North Carolina",
        "team_number": 6332,
        "location": "Durham, North Carolina 27705, USA",
        "key": "frc6332",
        "country_name": "USA",
        "motto": null,
        "rookie_year": 2017
    },
    {
        "website": null,
        "name": "Putnam High School",
        "locality": "Putnam",
        "nickname": "Scavenger Robotics",
        "region": "Connecticut",
        "team_number": 6333,
        "location": "Putnam, Connecticut 06260, USA",
        "key": "frc6333",
        "country_name": "USA",
        "motto": null,
        "rookie_year": 2017
    },
    {
        "website": "http://aluminatirobotics.weebly.com/",
        "name": "Luck Stone/J&A Innovations, LLC&Institute for Science Technology Engineering & Math",
        "locality": "Midlothian",
        "nickname": "Aluminati",
        "region": "Virginia",
        "team_number": 6334,
        "location": "Midlothian, Virginia 23113, USA",
        "key": "frc6334",
        "country_name": "USA",
        "motto": null,
        "rookie_year": 2017
    },
    {
        "website": null,
        "name": "4-H Youth Development Organization",
        "locality": "Burlington",
        "nickname": "Terminal Velocity",
        "region": "Massachusetts",
        "team_number": 6335,
        "location": "Burlington, Massachusetts 01803, USA",
        "key": "frc6335",
        "country_name": "USA",
        "motto": null,
        "rookie_year": 2017
    },
    {
        "website": null,
        "name": "Junior Optimist International",
        "locality": "Springwater",
        "nickname": "Javawockies",
        "region": "Ontario",
        "team_number": 6336,
        "location": "Springwater, Ontario L0M1S0, Canada",
        "key": "frc6336",
        "country_name": "Canada",
        "motto": null,
        "rookie_year": 2017
    },
    {
        "website": "https://www.facebook.com/MCIRobotics/",
        "name": "Robotics Institute of Maine/Argosy Foundation&Maine Central Institute",
        "locality": "Pittsfield",
        "nickname": "Maine Central Institute Robotics",
        "region": "Maine",
        "team_number": 6337,
        "location": "Pittsfield, Maine 04967, USA",
        "key": "frc6337",
        "country_name": "USA",
        "motto": null,
        "rookie_year": 2017
    },
    {
        "website": null,
        "name": "SS. Cyril & Methodius Homeschool Group",
        "locality": "Macomb",
        "nickname": "DRIVING STEEL",
        "region": "Michigan",
        "team_number": 6338,
        "location": "Macomb, Michigan 48044, USA",
        "key": "frc6338",
        "country_name": "USA",
        "motto": null,
        "rookie_year": 2017
    },
    {
        "website": null,
        "name": "Pelican Falls Science Tech Club & PELICAN FALLS FIRST NATION HIGH SCHOOL",
        "locality": "Sioux Lookout",
        "nickname": "Pelican Falls First Nation High School",
        "region": "Ontario",
        "team_number": 6339,
        "location": "Sioux Lookout, Ontario P8T 1B9, Canada",
        "key": "frc6339",
        "country_name": "Canada",
        "motto": null,
        "rookie_year": 2017
    },
    {
        "website": null,
        "name": "ASYS Automation LLC/NASA/GE Power&Marist School",
        "locality": "Atlanta",
        "nickname": "Marist Screaming Eagles",
        "region": "Georgia",
        "team_number": 6340,
        "location": "Atlanta, Georgia 30319, USA",
        "key": "frc6340",
        "country_name": "USA",
        "motto": null,
        "rookie_year": 2017
    },
    {
        "website": null,
        "name": "Towne Lake Optimist Club/Inalfa Roof Systems, Inc/Morgan's ACE Hardware/NASA/Kronos Incorporated/Cherokee County Educational Foundation (CCEF)/Georgia Science Teachers Associations/Lowe's&Etowah High School",
        "locality": "Woodstock",
        "nickname": "Etowah Electric Eagles",
        "region": "Georgia",
        "team_number": 6341,
        "location": "Woodstock, Georgia 30189, USA",
        "key": "frc6341",
        "country_name": "USA",
        "motto": null,
        "rookie_year": 2017
    },
    {
        "website": null,
        "name": "Bishop Tonnos Catholic Secondary School",
        "locality": "Ancaster",
        "nickname": "BT Robotics",
        "region": "Ontario",
        "team_number": 6342,
        "location": "Ancaster, Ontario L9G5E3, Canada",
        "key": "frc6342",
        "country_name": "Canada",
        "motto": null,
        "rookie_year": 2017
    },
    {
        "website": "https://steelridge6343.com",
        "name": "Daimler Trucks North America/OSPI Washington/Boeing/M.J. Murdock Charitable Trust/SPEEA/Elkhart Plastics/The Kirkelie Family/Tektronix/Applied Motion Systems/Mystic Escapes/The Stryker Family/The Holter Family/The Recker Family/The DeMay Family/Ridgefield School District & Ridgefield High School",
        "locality": "Ridgefield",
        "nickname": "Steel Ridge Robotics",
        "region": "Washington",
        "team_number": 6343,
        "location": "Ridgefield, Washington 98642, USA",
        "key": "frc6343",
        "country_name": "USA",
        "motto": null,
        "rookie_year": 2017
    },
    {
        "website": null,
        "name": "Yale Senior High School",
        "locality": "Yale",
        "nickname": "Yale Jiggawattz",
        "region": "Michigan",
        "team_number": 6344,
        "location": "Yale, Michigan 48097, USA",
        "key": "frc6344",
        "country_name": "USA",
        "motto": null,
        "rookie_year": 2017
    },
    {
        "website": null,
        "name": "Watersmeet Township School",
        "locality": "Watersmeet",
        "nickname": "Nimrod Nation",
        "region": "Michigan",
        "team_number": 6345,
        "location": "Watersmeet, Michigan 49969, USA",
        "key": "frc6345",
        "country_name": "USA",
        "motto": null,
        "rookie_year": 2017
    },
    {
        "website": null,
        "name": "Norwalk High School",
        "locality": "Norwalk",
        "nickname": "Norwalk High School Robotics",
        "region": "Connecticut",
        "team_number": 6346,
        "location": "Norwalk, Connecticut 06851, USA",
        "key": "frc6346",
        "country_name": "USA",
        "motto": null,
        "rookie_year": 2017
    },
    {
        "website": null,
        "name": "ST. JAMES HIGH SCHOOL",
        "locality": "Guelph",
        "nickname": "St. James",
        "region": "Ontario",
        "team_number": 6347,
        "location": "Guelph, Ontario N1E 5G9, Canada",
        "key": "frc6347",
        "country_name": "Canada",
        "motto": null,
        "rookie_year": 2017
    },
    {
        "website": "http://www.horuscolima.com",
        "name": "ITESM PREPA TEC COLIMA",
        "locality": "COLIMA",
        "nickname": "HORUS",
        "region": "Colima",
        "team_number": 6348,
        "location": "COLIMA, Colima 28017, Mexico",
        "key": "frc6348",
        "country_name": "Mexico",
        "motto": null,
        "rookie_year": 2017
    },
    {
        "website": null,
        "name": "Albany High School",
        "locality": "Albany",
        "nickname": "Albany High Indians",
        "region": "Georgia",
        "team_number": 6349,
        "location": "Albany, Georgia 31701, USA",
        "key": "frc6349",
        "country_name": "USA",
        "motto": null,
        "rookie_year": 2017
    },
    {
        "website": null,
        "name": "Enumclaw Sr High School",
        "locality": "Enumclaw",
        "nickname": "The Enumclaw Hornets",
        "region": "Washington",
        "team_number": 6350,
        "location": "Enumclaw, Washington 98022, USA",
        "key": "frc6350",
        "country_name": "USA",
        "motto": null,
        "rookie_year": 2017
    },
    {
        "website": null,
        "name": "Rundle College Jr./Sr. High School",
        "locality": "Calgary",
        "nickname": "Rundle College Robotics",
        "region": "Alberta",
        "team_number": 6351,
        "location": "Calgary, Alberta T3H3W5, Canada",
        "key": "frc6351",
        "country_name": "Canada",
        "motto": null,
        "rookie_year": 2017
    },
    {
        "website": null,
        "name": "Arizona Challenger Space Center/AZFirst/Steve Sanghi Family Foundation/James A Unruh Family Foundation/FRC Team Paradise 1165 Robotics Club/Bechtel&Family/Community",
        "locality": "Peoria",
        "nickname": "LAUNCH TEAM",
        "region": "Arizona",
        "team_number": 6352,
        "location": "Peoria, Arizona 85382, USA",
        "key": "frc6352",
        "country_name": "USA",
        "motto": null,
        "rookie_year": 2017
    },
    {
        "website": "https://www.team6353.com",
        "name": "Argosy Foundation/GitHub&No.2 High School of East China Normal University",
        "locality": "Shanghai",
        "nickname": "Zodiac",
        "region": "Shanghai",
        "team_number": 6353,
        "location": "Shanghai, Shanghai 201203, China",
        "key": "frc6353",
        "country_name": "China",
        "motto": null,
        "rookie_year": 2017
    },
    {
        "website": null,
        "name": "Shanghai Jiading No.1 High School",
        "locality": "Shanghai",
        "nickname": "Jiayi Superhuman Strength",
        "region": "Shanghai",
        "team_number": 6354,
        "location": "Shanghai, Shanghai 201800, China",
        "key": "frc6354",
        "country_name": "China",
        "motto": null,
        "rookie_year": 2017
    },
    {
        "website": null,
        "name": "Buca-Sadowski Family/FIRST Robotics/Grace Church/NASA Glenn Research Center&Family/Community&Family/Community",
        "locality": "Cleveland",
        "nickname": "Robots Over Parma",
        "region": "Ohio",
        "team_number": 6355,
        "location": "Cleveland, Ohio 44130, USA",
        "key": "frc6355",
        "country_name": "USA",
        "motto": null,
        "rookie_year": 2017
    },
    {
        "website": "http://www.metarobotics.org",
        "name": "Meta Academy",
        "locality": "Shenzhen",
        "nickname": "MetaRobotics",
        "region": "Guangdong",
        "team_number": 6356,
        "location": "Shenzhen, Guangdong 518000, China",
        "key": "frc6356",
        "country_name": "China",
        "motto": null,
        "rookie_year": 2017
    },
    {
        "website": null,
        "name": "NASA/Thorlabs/Texas Workforce Commission/FIRST in Texas/Dripping Springs ISD&Dripping Springs H S",
        "locality": "Dripping Springs",
        "nickname": "The Spring Konstant",
        "region": "Texas",
        "team_number": 6357,
        "location": "Dripping Springs, Texas 78620, USA",
        "key": "frc6357",
        "country_name": "USA",
        "motto": null,
        "rookie_year": 2017
    },
    {
        "website": null,
        "name": "Buhl High School",
        "locality": "Buhl",
        "nickname": "The Buhlian Operators ",
        "region": "Idaho",
        "team_number": 6358,
        "location": "Buhl, Idaho 83316, USA",
        "key": "frc6358",
        "country_name": "USA",
        "motto": null,
        "rookie_year": 2017
    },
    {
        "website": null,
        "name": "Family/Community",
        "locality": "Aurora",
        "nickname": "TechKnow Difficulties",
        "region": "Nebraska",
        "team_number": 6359,
        "location": "Aurora, Nebraska 68818, USA",
        "key": "frc6359",
        "country_name": "USA",
        "motto": null,
        "rookie_year": 2017
    },
    {
        "website": null,
        "name": "Quanzhou No.5 Middle School & Quanzhou No.5 Middle School",
        "locality": "Quanzhou",
        "nickname": "Quanzhou No.5 Middle School",
        "region": "Fujian",
        "team_number": 6360,
        "location": "Quanzhou, Fujian 362000, China",
        "key": "frc6360",
        "country_name": "China",
        "motto": null,
        "rookie_year": 2017
    },
    {
        "website": null,
        "name": "Shanghai Fengxian Shuguang High School",
        "locality": "Shanghai",
        "nickname": "The Blazer",
        "region": "Shanghai",
        "team_number": 6361,
        "location": "Shanghai, Shanghai 201411, China",
        "key": "frc6361",
        "country_name": "China",
        "motto": null,
        "rookie_year": 2017
    },
    {
        "website": null,
        "name": "Shanghai fengxian secondary specialized school",
        "locality": "Shanghai",
        "nickname": "Shengxue Corps",
        "region": "Shanghai",
        "team_number": 6362,
        "location": "Shanghai, Shanghai 201499, China",
        "key": "frc6362",
        "country_name": "China",
        "motto": null,
        "rookie_year": 2017
    },
    {
        "website": null,
        "name": "El Campo H S",
        "locality": "El Campo",
        "nickname": "Ricebird Robotics",
        "region": "Texas",
        "team_number": 6363,
        "location": "El Campo, Texas 77437, USA",
        "key": "frc6363",
        "country_name": "USA",
        "motto": null,
        "rookie_year": 2017
    },
    {
        "website": "https://www.facebook.com/TenTonRobotics/",
        "name": "Microsoft Canada&WEST VANCOUVER SCHOOL DISTRICT 45&WEST VANCOUVER SECONDARY SCHOOL&ROCKRIDGE SECONDARY SCHOOL&ECOLE SENTINEL SECONDARY SCHOOL",
        "locality": "West Vancouver",
        "nickname": "Ten Ton Robotics",
        "region": "British Columbia",
        "team_number": 6364,
        "location": "West Vancouver, British Columbia V7V 2G7, Canada",
        "key": "frc6364",
        "country_name": "Canada",
        "motto": null,
        "rookie_year": 2017
    },
    {
        "website": null,
        "name": "Shanghai Huangpu Teenagers Science and Technology Activity Center",
        "locality": "Shanghai",
        "nickname": "Imperial star destroyer",
        "region": "Shanghai",
        "team_number": 6365,
        "location": "Shanghai, Shanghai 200020, China",
        "key": "frc6365",
        "country_name": "China",
        "motto": null,
        "rookie_year": 2017
    },
    {
        "website": null,
        "name": "BOSCH LLC/Bosch Rexroth Corporation/NASA&Hillcrest High",
        "locality": "Simpsonville",
        "nickname": "RAM Rodz Robotics",
        "region": "South Carolina",
        "team_number": 6366,
        "location": "Simpsonville, South Carolina 29681, USA",
        "key": "frc6366",
        "country_name": "USA",
        "motto": null,
        "rookie_year": 2017
    },
    {
        "website": null,
        "name": "NASA/Anchor Labs&Edward Brooke Charter School",
        "locality": "Boston",
        "nickname": "The ElectroLights",
        "region": "Massachusetts",
        "team_number": 6367,
        "location": "Boston, Massachusetts 02127, USA",
        "key": "frc6367",
        "country_name": "USA",
        "motto": null,
        "rookie_year": 2017
    },
    {
        "website": null,
        "name": "Shanghai Fengxian High School & Schoole name",
        "locality": "Shanghai",
        "nickname": "Unknown",
        "region": "Shanghai",
        "team_number": 6368,
        "location": "Shanghai, Shanghai 200000, China",
        "key": "frc6368",
        "country_name": "China",
        "motto": null,
        "rookie_year": 2017
    },
    {
        "website": null,
        "name": "Argosy Foundation/Texas Workforce Commission/Best Buy McKinney/Emerson Process Management/Texas Instruments/Loews McKinney Store #2878/McKinney Lions Club&Family/Community",
        "locality": "McKinney",
        "nickname": "Mercenary Robotics",
        "region": "Texas",
        "team_number": 6369,
        "location": "McKinney, Texas 75070, USA",
        "key": "frc6369",
        "country_name": "USA",
        "motto": null,
        "rookie_year": 2017
    },
    {
        "website": "http://www.texastitans.org",
        "name": "San Antonio Competition Robotics Alliance, Inc. (SACRA)/NewTek/Insurancelabs/The Blake Family/Lone Star Powder Coating & Family/Community",
        "locality": "Helotes",
        "nickname": "Texas Titans",
        "region": "Texas",
        "team_number": 6370,
        "location": "Helotes, Texas 78023, USA",
        "key": "frc6370",
        "country_name": "USA",
        "motto": null,
        "rookie_year": 2017
    },
    {
        "website": null,
        "name": "Iowa Governor's STEM Advisory Council/Spencer Community Schools Foundation/Spencer Community School District&Spencer High School",
        "locality": "Spencer",
        "nickname": "Dead Robotics Society",
        "region": "Iowa",
        "team_number": 6371,
        "location": "Spencer, Iowa 51301, USA",
        "key": "frc6371",
        "country_name": "USA",
        "motto": null,
        "rookie_year": 2017
    },
    {
        "website": null,
        "name": "NASA/NXP Semiconductors N.V./Plasma Robotics, FRC Team 2403&Edu-Prize",
        "locality": "Gilbert",
        "nickname": "Chi-squared Robotics",
        "region": "Arizona",
        "team_number": 6372,
        "location": "Gilbert, Arizona 85233, USA",
        "key": "frc6372",
        "country_name": "USA",
        "motto": null,
        "rookie_year": 2017
    },
    {
        "website": null,
        "name": "Central High School",
        "locality": "Chattanooga",
        "nickname": "Mechatronics Akademie",
        "region": "Tennessee",
        "team_number": 6373,
        "location": "Chattanooga, Tennessee 37404, USA",
        "key": "frc6373",
        "country_name": "USA",
        "motto": null,
        "rookie_year": 2017
    },
    {
        "website": null,
        "name": "Nanchong  Robotics  Association",
        "locality": "Nan Chong",
        "nickname": "NanChong Union",
        "region": "Sichuan",
        "team_number": 6374,
        "location": "Nan Chong, Sichuan 637000, China",
        "key": "frc6374",
        "country_name": "China",
        "motto": null,
        "rookie_year": 2017
    },
    {
        "website": null,
        "name": "The High School Affiliated to Renmin University of China (The Combined School )",
        "locality": "Beijing",
        "nickname": "MC\u00b2",
        "region": "Beijing",
        "team_number": 6375,
        "location": "Beijing, Beijing 100080, China",
        "key": "frc6375",
        "country_name": "China",
        "motto": null,
        "rookie_year": 2017
    },
    {
        "website": null,
        "name": "Fengxian Zhiyuan high school",
        "locality": "Shanghai",
        "nickname": "Further Dream",
        "region": "Shanghai",
        "team_number": 6376,
        "location": "Shanghai, Shanghai 201499, China",
        "key": "frc6376",
        "country_name": "China",
        "motto": null,
        "rookie_year": 2017
    },
    {
        "website": "http://www.howdybots.org",
        "name": "3M/NASA/Microchip Technology/ATX Robotics&Home School",
        "locality": "Austin",
        "nickname": "Howdy Bots",
        "region": "Texas",
        "team_number": 6377,
        "location": "Austin, Texas 78759, USA",
        "key": "frc6377",
        "country_name": "USA",
        "motto": null,
        "rookie_year": 2017
    },
    {
        "website": "https://twitter.com/frc6378",
        "name": "STEPHEN LEWIS HIGH SCHOOL",
        "locality": "Mississauga",
        "nickname": "LYNX",
        "region": "Ontario",
        "team_number": 6378,
        "location": "Mississauga, Ontario L5M 7E6, Canada",
        "key": "frc6378",
        "country_name": "Canada",
        "motto": null,
        "rookie_year": 2017
    },
    {
        "website": "https://sites.google.com/a/southeastpolk.org/southeast-polk-first-robotics-competition/",
        "name": "Iowa Governors STEM Advisory Council/John Deere&Southeast Polk High School",
        "locality": "Pleasant Hill",
        "nickname": "Terabyte of Ram",
        "region": "Iowa",
        "team_number": 6379,
        "location": "Pleasant Hill, Iowa 50327, USA",
        "key": "frc6379",
        "country_name": "USA",
        "motto": null,
        "rookie_year": 2017
    },
    {
        "website": "http://team6380.wixsite.com/orion",
        "name": "V\u0130ZYON KOLEJ\u0130",
        "locality": "Istanbul",
        "nickname": "Orion",
        "region": "Istanbul",
        "team_number": 6380,
        "location": "Istanbul, Istanbul 34000, Turkey",
        "key": "frc6380",
        "country_name": "Turkey",
        "motto": null,
        "rookie_year": 2017
    },
    {
        "website": "http://redraiderrobotics6381.weebly.com/",
        "name": "North High & Family/Community",
        "locality": "Sheboygan",
        "nickname": "Red Raider Robotics",
        "region": "Wisconsin",
        "team_number": 6381,
        "location": "Sheboygan, Wisconsin 53083, USA",
        "key": "frc6381",
        "country_name": "USA",
        "motto": null,
        "rookie_year": 2017
    },
    {
        "website": null,
        "name": "Rancho Buena Vista High",
        "locality": "Vista",
        "nickname": "RoboHornz",
        "region": "California",
        "team_number": 6382,
        "location": "Vista, California 92081, USA",
        "key": "frc6382",
        "country_name": "USA",
        "motto": null,
        "rookie_year": 2017
    },
    {
        "website": null,
        "name": "\u6df1\u5733\u5e02\u798f\u666f\u5916\u56fd\u8bed\u5b66\u6821",
        "locality": "Shenzhen",
        "nickname": "PLUG&PLAY",
        "region": "Guangdong",
        "team_number": 6383,
        "location": "Shenzhen, Guangdong 518000, China",
        "key": "frc6383",
        "country_name": "China",
        "motto": null,
        "rookie_year": 2017
    },
    {
        "website": "http://www.hisarravens.com",
        "name": "Hisar School",
        "locality": "Gokturk ISTANBUL",
        "nickname": "Hisar Ravens",
        "region": "Istanbul",
        "team_number": 6384,
        "location": "Gokturk ISTANBUL, Istanbul 34077, Turkey",
        "key": "frc6384",
        "country_name": "Turkey",
        "motto": null,
        "rookie_year": 2017
    },
    {
        "website": "https://truemoe.cn",
        "name": "Jinhua Foreign Language School & Jinhua Aiqing High School & Jinhua No.1 High School & Jinhua No.4 Middle School",
        "locality": "Jinhua",
        "nickname": "TrueMoe",
        "region": "Zhejiang",
        "team_number": 6385,
        "location": "Jinhua, Zhejiang 321000, China",
        "key": "frc6385",
        "country_name": "China",
        "motto": null,
        "rookie_year": 2017
    },
    {
        "website": null,
        "name": "Toyota  & CUYRA",
        "locality": "GUANGZHOU",
        "nickname": " TEAM GTMC ",
        "region": "Guangdong",
        "team_number": 6386,
        "location": "GUANGZHOU, Guangdong 510000, China",
        "key": "frc6386",
        "country_name": "China",
        "motto": null,
        "rookie_year": 2017
    },
    {
        "website": "http://bramptonrobotics.org",
        "name": "Family/Community",
        "locality": "Brampton",
        "nickname": "Discobots Canada (Brampton Robotics Education)",
        "region": "Ontario",
        "team_number": 6387,
        "location": "Brampton, Ontario L6P4E9, Canada",
        "key": "frc6387",
        "country_name": "Canada",
        "motto": null,
        "rookie_year": 2017
    },
    {
        "website": null,
        "name": "Ey\u00fcbo\u011flu E\u011fitim Kurumlar\u0131",
        "locality": "istanbul",
        "nickname": "WonderWorks Robotics",
        "region": "Istanbul",
        "team_number": 6388,
        "location": "istanbul, Istanbul 34762, Turkey",
        "key": "frc6388",
        "country_name": "Turkey",
        "motto": null,
        "rookie_year": 2017
    },
    {
        "website": null,
        "name": "high school affiliated to nanjing normal university jiangning campus",
        "locality": "Nanjing",
        "nickname": "Matster Mechanist",
        "region": "Jiangsu",
        "team_number": 6389,
        "location": "Nanjing, Jiangsu 211112, China",
        "key": "frc6389",
        "country_name": "China",
        "motto": null,
        "rookie_year": 2017
    },
    {
        "website": "https://roboticshephaestus3.wixsite.com",
        "name": "NORTH SURREY SECONDARY SCHOOL",
        "locality": "Surrey",
        "nickname": "Hephaestus ",
        "region": "British Columbia",
        "team_number": 6390,
        "location": "Surrey, British Columbia V4N 2R8, Canada",
        "key": "frc6390",
        "country_name": "Canada",
        "motto": null,
        "rookie_year": 2017
    },
    {
        "website": null,
        "name": "Ursuline Academy",
        "locality": "Saint Louis",
        "nickname": "Ursuline Bearbotics",
        "region": "Missouri",
        "team_number": 6391,
        "location": "Saint Louis, Missouri 63122, USA",
        "key": "frc6391",
        "country_name": "USA",
        "motto": null,
        "rookie_year": 2017
    },
    {
        "website": null,
        "name": "Jinan high school united",
        "locality": "Chengdu",
        "nickname": "Dimension Creator",
        "region": "Sichuan",
        "team_number": 6392,
        "location": "Chengdu, Sichuan 610036, China",
        "key": "frc6392",
        "country_name": "China",
        "motto": null,
        "rookie_year": 2017
    },
    {
        "website": null,
        "name": "\u5a01\u5c3c\u5c14\uff08\u4e2d\u56fd\uff09-Vernier\uff08China Shanghai\uff09/Intel\uff08China\uff09/\u642d\u642d\u4e50\u4e50/\u4e2d\u56fd\u57ce\u5e02\u9752\u5c11\u5e74\u673a\u5668\u4eba\u8054\u76df&fujingwaixiao",
        "locality": "Zhengzhou",
        "nickname": "Zhengzhou No.2 Middle School",
        "region": "Hunan",
        "team_number": 6393,
        "location": "Zhengzhou, Hunan 450000, China",
        "key": "frc6393",
        "country_name": "China",
        "motto": null,
        "rookie_year": 2017
    },
    {
        "website": null,
        "name": "Suzhou Foreign Language School&futian",
        "locality": "Suzhou",
        "nickname": "MITO",
        "region": "Jiangsu",
        "team_number": 6394,
        "location": "Suzhou, Jiangsu 215000, China",
        "key": "frc6394",
        "country_name": "China",
        "motto": null,
        "rookie_year": 2017
    },
    {
        "website": null,
        "name": "nanshanzhongxue",
        "locality": "Chengdu ",
        "nickname": "Xindu No.2 High School ",
        "region": "Sichuan",
        "team_number": 6395,
        "location": "Chengdu , Sichuan 610000, China",
        "key": "frc6395",
        "country_name": "China",
        "motto": null,
        "rookie_year": 2017
    },
    {
        "website": "http://www.frssteeltempest.com",
        "name": "Pensacola Private School of Liberal Arts",
        "locality": "Pensacola",
        "nickname": "Steel Tempest",
        "region": "Florida",
        "team_number": 6396,
        "location": "Pensacola, Florida 32501, USA",
        "key": "frc6396",
        "country_name": "USA",
        "motto": null,
        "rookie_year": 2017
    },
    {
        "website": null,
        "name": "ARCHBISHOP ROMERO SECONDARY SCHOOL",
        "locality": "York",
        "nickname": "Romero Robotics",
        "region": "Ontario",
        "team_number": 6397,
        "location": "York, Ontario M6N 2H4, Canada",
        "key": "frc6397",
        "country_name": "Canada",
        "motto": null,
        "rookie_year": 2017
    },
    {
        "website": null,
        "name": "Santa Paula High",
        "locality": "Santa Paula",
        "nickname": "Kilo-bots",
        "region": "California",
        "team_number": 6398,
        "location": "Santa Paula, California 93060, USA",
        "key": "frc6398",
        "country_name": "USA",
        "motto": null,
        "rookie_year": 2017
    },
    {
        "website": null,
        "name": "\u6d4e\u5357\u5916\u56fd\u8bed",
        "locality": "JINAN",
        "nickname": "Jinan foreign language school",
        "region": "Shandong",
        "team_number": 6399,
        "location": "JINAN, Shandong 250000, China",
        "key": "frc6399",
        "country_name": "China",
        "motto": null,
        "rookie_year": 2017
    },
    {
        "website": "http://manhattanfirstrobotics.com",
        "name": "Manhattan FIRST Robotics/FORMation Architecture/Sofie Family&Family/Community",
        "locality": "Manhattan",
        "nickname": "The Manhattan Project",
        "region": "Montana",
        "team_number": 6400,
        "location": "Manhattan, Montana 59741, USA",
        "key": "frc6400",
        "country_name": "USA",
        "motto": null,
        "rookie_year": 2017
    },
    {
        "website": null,
        "name": "Clarkstown North Senior High School",
        "locality": "New City",
        "nickname": "Clarkstown North 8-Bit Rams",
        "region": "New York",
        "team_number": 6401,
        "location": "New City, New York 10956, USA",
        "key": "frc6401",
        "country_name": "USA",
        "motto": null,
        "rookie_year": 2017
    },
    {
        "website": "http://www.roboatalar.com",
        "name": "CERSAN ASANS\u00d6R/ONDER ASANSOR/KVK /Mercedes Benz/Pendik Belediyesi/Panasonic Viko&ATALAR MESLEK\u0130 VE TEKN\u0130K ANADOLU L\u0130SES\u0130&\u0130MM\u0130B Erkan Avc\u0131 Mesleki ve Teknik Anadolu Lisesi&Bah\u00e7elievler \u0130TO Bilim ve Sanat Merkezi",
        "locality": "\u0130STANBUL",
        "nickname": "GOKTURKLER",
        "region": "Istanbul",
        "team_number": 6402,
        "location": "\u0130STANBUL, Istanbul 34862, Turkey",
        "key": "frc6402",
        "country_name": "Turkey",
        "motto": null,
        "rookie_year": 2017
    },
    {
        "website": null,
        "name": "Microsoft&D.P. TODD SECONDARY SCHOOL",
        "locality": "Prince George",
        "nickname": "D.P. Todd Secondary",
        "region": "British Columbia",
        "team_number": 6403,
        "location": "Prince George, British Columbia V2M 5V9, Canada",
        "key": "frc6403",
        "country_name": "Canada",
        "motto": null,
        "rookie_year": 2017
    },
    {
        "website": null,
        "name": "Novelis/Rockwell Collins&EE Alceu Maynard Ara\u00fajo",
        "locality": "S\u00e3o Jos\u00e9 dos Campos",
        "nickname": "Brazilian Storm",
        "region": "S\u00e3o Paulo",
        "team_number": 6404,
        "location": "S\u00e3o Jos\u00e9 dos Campos, S\u00e3o Paulo 12223570, Brazil",
        "key": "frc6404",
        "country_name": "Brazil",
        "motto": null,
        "rookie_year": 2017
    },
    {
        "website": "http://www.EntreBots.com",
        "name": "Family/Community",
        "locality": "Palmdale",
        "nickname": "EntreBots",
        "region": "California",
        "team_number": 6405,
        "location": "Palmdale, California 93552, USA",
        "key": "frc6405",
        "country_name": "USA",
        "motto": null,
        "rookie_year": 2017
    },
    {
        "website": null,
        "name": "Country Grocer /Bellavance Welding Ltd./Island Marine Construction Ltd./Windsor Plywood/Gulf Islands Secondary Parent Advisory Council/Uptown Pizza/Celebrity Accents/Microsoft/FIRST Robotics&GULF ISLANDS SECONDARY SCHOOL",
        "locality": "Salt Spring Island",
        "nickname": "Cyber Scorpions",
        "region": "British Columbia",
        "team_number": 6406,
        "location": "Salt Spring Island, British Columbia V8K 2K3, Canada",
        "key": "frc6406",
        "country_name": "Canada",
        "motto": null,
        "rookie_year": 2017
    },
    {
        "website": "https://www.facebook.com/Devolt-FRC-567472640110257/",
        "name": "MasRobots&Universidad Tecmilenio campus Chihuahua",
        "locality": "Chihuahua",
        "nickname": "DEVOLT",
        "region": "Chihuahua",
        "team_number": 6407,
        "location": "Chihuahua, Chihuahua 31000, Mexico",
        "key": "frc6407",
        "country_name": "Mexico",
        "motto": null,
        "rookie_year": 2017
    },
    {
        "website": null,
        "name": "HERITAGE WOODS SECONDARY SCHOOL",
        "locality": "Port Moody",
        "nickname": "Syntechs",
        "region": "British Columbia",
        "team_number": 6408,
        "location": "Port Moody, British Columbia V3H 5K6, Canada",
        "key": "frc6408",
        "country_name": "Canada",
        "motto": null,
        "rookie_year": 2017
    },
    {
        "website": null,
        "name": "Bahcesehir Okullari Lisesi",
        "locality": "Edirne",
        "nickname": "Odrinias",
        "region": "Edirne",
        "team_number": 6409,
        "location": "Edirne, Edirne 22100, Turkey",
        "key": "frc6409",
        "country_name": "Turkey",
        "motto": null,
        "rookie_year": 2017
    },
    {
        "website": "http://MarkMentze.weebly.com",
        "name": "Dave's Barbaque & Everett Alvarez High",
        "locality": "Salinas",
        "nickname": "Supreme Eagles",
        "region": "California",
        "team_number": 6410,
        "location": "Salinas, California 93906, USA",
        "key": "frc6410",
        "country_name": "USA",
        "motto": null,
        "rookie_year": 2017
    },
    {
        "website": "http://jhsmaker.com",
        "name": "Intermountain Health Care/Argosy Foundation&Jordan High",
        "locality": "Sandy",
        "nickname": "Jordan High Gravediggers",
        "region": "Utah",
        "team_number": 6411,
        "location": "Sandy, Utah 84070, USA",
        "key": "frc6411",
        "country_name": "USA",
        "motto": null,
        "rookie_year": 2017
    },
    {
        "website": null,
        "name": "Metro High School",
        "locality": "Cedar Rapids",
        "nickname": "For Sale By Owner",
        "region": "Iowa",
        "team_number": 6412,
        "location": "Cedar Rapids, Iowa 52401, USA",
        "key": "frc6412",
        "country_name": "USA",
        "motto": null,
        "rookie_year": 2017
    },
    {
        "website": null,
        "name": "Si Se Puede Foundation/General Motors/NASA/Maricopa County Attorney's Office/Chandler Unified School District/State Farm/TechShop/Arizona State University /Phoenix community Development and Investment Corporation /Frontera Funds&Family/Community",
        "locality": "Chandler",
        "nickname": "Degrees of Freedom",
        "region": "Arizona",
        "team_number": 6413,
        "location": "Chandler, Arizona 85244, USA",
        "key": "frc6413",
        "country_name": "USA",
        "motto": null,
        "rookie_year": 2017
    },
    {
        "website": "http://www.sfls-frc.com",
        "name": "Xinyi Glass Coporation/Argosy Foundation&Shenzhen Foreign Languages School",
        "locality": "Shenzhen",
        "nickname": "Voyager",
        "region": "Guangdong",
        "team_number": 6414,
        "location": "Shenzhen, Guangdong 518000, China",
        "key": "frc6414",
        "country_name": "China",
        "motto": null,
        "rookie_year": 2017
    },
    {
        "website": null,
        "name": "GULTEPE MESLEK VE TEKNIK L\u0130SES\u0130(GULTEPE TECNHNICAL HIGH SCHOOL)",
        "locality": "Istanbul",
        "nickname": "GULTEPE ROBOTICS",
        "region": "Istanbul",
        "team_number": 6415,
        "location": "Istanbul, Istanbul 34000, Turkey",
        "key": "frc6415",
        "country_name": "Turkey",
        "motto": null,
        "rookie_year": 2017
    },
    {
        "website": "https://www.facebook.com/MEVMAKERS/",
        "name": "&MEV KOLEJ\u0130 \u00d6ZEL B\u00dcY\u00dcK\u00c7EKMECE OKULLARI",
        "locality": "B\u00fcy\u00fck\u00e7ekmece",
        "nickname": "MEV MAKERS",
        "region": "Istanbul",
        "team_number": 6416,
        "location": "B\u00fcy\u00fck\u00e7ekmece, Istanbul 34500, Turkey",
        "key": "frc6416",
        "country_name": "Turkey",
        "motto": null,
        "rookie_year": 2017
    },
    {
        "website": null,
        "name": "Glarner Regionalbank/Glarner Energie/Marti Engineering AG, Mitloedi /Landolt Naefels/SKS Rehab AG, Schwanden/Source Graphics GmbH/NORD Drivesystems/Zahnarztpraxis Dr. Michael Eberle/Baeckerei Gabriel/Goethe AG Metallwarenfabrik Glarus&Kantonsschule Glarus",
        "locality": "Glarus",
        "nickname": "Fridolins",
        "region": "Glarus",
        "team_number": 6417,
        "location": "Glarus, Glarus 8750, Switzerland",
        "key": "frc6417",
        "country_name": "Switzerland",
        "motto": null,
        "rookie_year": 2017
    },
    {
        "website": "https://www.team6418.org",
        "name": "Apple/MK Think/The Brin Wojcicki Foundation/Fluxion Biosciences/Goldieblox/Solidworks/The Butze Family/Empire Natural Gas & Family/Community",
        "locality": "San Francisco",
        "nickname": "The Missfits",
        "region": "California",
        "team_number": 6418,
        "location": "San Francisco, California 94122, USA",
        "key": "frc6418",
        "country_name": "USA",
        "motto": null,
        "rookie_year": 2017
    },
    {
        "website": "http://www.IowaICE.org",
        "name": "Iowa Governor's STEM Advisory Council/John Deere/Scrum Tzu/NASA/West Des Moines Community Schools/City of West Des Moines&Valley High School",
        "locality": "West Des Moines",
        "nickname": "ICE",
        "region": "Iowa",
        "team_number": 6419,
        "location": "West Des Moines, Iowa 50266, USA",
        "key": "frc6419",
        "country_name": "USA",
        "motto": null,
        "rookie_year": 2017
    },
    {
        "website": null,
        "name": "Iowa Governor's STEM Advisory Council/NASA/John Deere/Community Foundation of Greater Muscatine (CFGM)/TEAM Staffing Solutions/Hoffmann Inc./Monsanto/HNI Corporation -- Hon and Allsteel&Muscatine High School",
        "locality": "Muscatine",
        "nickname": "Fire Island Robotics (Muscatine Iowa)",
        "region": "Iowa",
        "team_number": 6420,
        "location": "Muscatine, Iowa 52761, USA",
        "key": "frc6420",
        "country_name": "USA",
        "motto": null,
        "rookie_year": 2017
    },
    {
        "website": null,
        "name": "Muskego Norway School District/Carlisle Interconnect Technologies/Argosy Foundation/Wisconsin Department of Public Instruction&Muskego High",
        "locality": "Muskego",
        "nickname": "WARRIORBOTS",
        "region": "Wisconsin",
        "team_number": 6421,
        "location": "Muskego, Wisconsin 53150, USA",
        "key": "frc6421",
        "country_name": "USA",
        "motto": null,
        "rookie_year": 2017
    },
    {
        "website": "http://www.rockypointroboticsclub.com",
        "name": "North Atlantic Industries/Argosy Foundation/Tesla Science Center, Shoreham/North Shore Youth Council/Eagle Rock&Family/Community",
        "locality": "Rocky Point",
        "nickname": "GearHeadz",
        "region": "New York",
        "team_number": 6422,
        "location": "Rocky Point, New York 11778, USA",
        "key": "frc6422",
        "country_name": "USA",
        "motto": null,
        "rookie_year": 2017
    },
    {
        "website": null,
        "name": "Ward Melville Senior High School",
        "locality": "East Setauket",
        "nickname": "Ward Melville High School",
        "region": "New York",
        "team_number": 6423,
        "location": "East Setauket, New York 11733, USA",
        "key": "frc6423",
        "country_name": "USA",
        "motto": null,
        "rookie_year": 2017
    },
    {
        "website": null,
        "name": "Knob Noster Schools/Whiteman Air Force Base 509th Bomb Wing/Northrop Grumman/NASA/Waterloo/W & M Steel&Knob Noster High",
        "locality": "Knob Noster",
        "nickname": "Stealth Panther Robotics",
        "region": "Missouri",
        "team_number": 6424,
        "location": "Knob Noster, Missouri 65336, USA",
        "key": "frc6424",
        "country_name": "USA",
        "motto": null,
        "rookie_year": 2017
    },
    {
        "website": null,
        "name": "Coldwater Board of Public Utilities/Alro Steel/Michigan Department of Education&Coldwater High School",
        "locality": "Coldwater",
        "nickname": "Coldwater Cardinals",
        "region": "Michigan",
        "team_number": 6425,
        "location": "Coldwater, Michigan 49036, USA",
        "key": "frc6425",
        "country_name": "USA",
        "motto": null,
        "rookie_year": 2017
    },
    {
        "website": "http://www.compassyouthcenters.org",
        "name": "Compass Youth Center",
        "locality": "Durham",
        "nickname": "Robo Gladiators",
        "region": "North Carolina",
        "team_number": 6426,
        "location": "Durham, North Carolina 27707, USA",
        "key": "frc6426",
        "country_name": "USA",
        "motto": null,
        "rookie_year": 2017
    },
    {
        "website": null,
        "name": "GLENDALE HIGH SCHOOL",
        "locality": "London",
        "nickname": "Glendale",
        "region": "Ontario",
        "team_number": 6427,
        "location": "London, Ontario n5y 4k7, Canada",
        "key": "frc6427",
        "country_name": "Canada",
        "motto": null,
        "rookie_year": 2017
    },
    {
        "website": "http://www.coopersvillescience.org",
        "name": "Coopersville High School",
        "locality": "Coopersville",
        "nickname": "STEMINEERS",
        "region": "Michigan",
        "team_number": 6428,
        "location": "Coopersville, Michigan 49404, USA",
        "key": "frc6428",
        "country_name": "USA",
        "motto": null,
        "rookie_year": 2017
    },
    {
        "website": null,
        "name": "ZORLU Holding A.\u015e./VESTEL A.\u015e./EB\u0130LTEM-TTO/Fikret Y\u00fcksel Foundation&G\u00fczelbah\u00e7e Bah\u00e7e\u015fehir Fen Ve Teknoloji Lisesi",
        "locality": "G\u00fczelbah\u00e7e",
        "nickname": "4th Dimension",
        "region": "Izmir",
        "team_number": 6429,
        "location": "G\u00fczelbah\u00e7e, Izmir 35310, Turkey",
        "key": "frc6429",
        "country_name": "Turkey",
        "motto": null,
        "rookie_year": 2017
    },
    {
        "website": null,
        "name": "Eski\u015fehir Geli\u015fim High School For Science",
        "locality": "Eski\u015fehir",
        "nickname": "Kalsedon",
        "region": "Eskisehir",
        "team_number": 6430,
        "location": "Eski\u015fehir, Eskisehir 26200, Turkey",
        "key": "frc6430",
        "country_name": "Turkey",
        "motto": null,
        "rookie_year": 2017
    },
    {
        "website": "http://frc.hisarcs.com",
        "name": "Hisar School",
        "locality": "Istanbul",
        "nickname": "NoktaParantez",
        "region": "Istanbul",
        "team_number": 6431,
        "location": "Istanbul, Istanbul 34077, Turkey",
        "key": "frc6431",
        "country_name": "Turkey",
        "motto": null,
        "rookie_year": 2017
    },
    {
        "website": null,
        "name": "St Catherine's School",
        "locality": "Waverley",
        "nickname": "St Cathodes",
        "region": "New South Wales",
        "team_number": 6432,
        "location": "Waverley, New South Wales 2024, Australia",
        "key": "frc6432",
        "country_name": "Australia",
        "motto": null,
        "rookie_year": 2017
    },
    {
        "website": null,
        "name": "Hangzhou #4 High School",
        "locality": "Hangzhou",
        "nickname": "HZ4Z",
        "region": "Zhejiang",
        "team_number": 6433,
        "location": "Hangzhou, Zhejiang 31000, China",
        "key": "frc6433",
        "country_name": "China",
        "motto": null,
        "rookie_year": 2017
    },
    {
        "website": null,
        "name": "Bossley Park High School",
        "locality": "Bossley Park",
        "nickname": "Bossley Park High School",
        "region": "New South Wales",
        "team_number": 6434,
        "location": "Bossley Park, New South Wales 2176, Australia",
        "key": "frc6434",
        "country_name": "Australia",
        "motto": null,
        "rookie_year": 2017
    },
    {
        "website": "http://www.metalevent.org",
        "name": "Astra/Belta\u015f Vakf\u0131 - Be\u015fikta\u015f Belediyesi/\u0130sot\u00fcrk Yap\u0131&Etiler Anadolu Lisesi",
        "locality": "Istanbul",
        "nickname": "MetaLevent",
        "region": "Istanbul",
        "team_number": 6435,
        "location": "Istanbul, Istanbul 34337, Turkey",
        "key": "frc6435",
        "country_name": "Turkey",
        "motto": null,
        "rookie_year": 2017
    },
    {
        "website": null,
        "name": "BORSA ISTANBUL BASAKSEHIR MESLEK\u0130 VE TEKN\u0130K ANADOLU LISESI",
        "locality": "BASAKSEHIR",
        "nickname": "PARS ROBOT\u0130C TEAM",
        "region": "Istanbul",
        "team_number": 6436,
        "location": "BASAKSEHIR, Istanbul 34151, Turkey",
        "key": "frc6436",
        "country_name": "Turkey",
        "motto": null,
        "rookie_year": 2017
    },
    {
        "website": null,
        "name": "NASA/Autodesk/Murdock Trust&Franklin High School",
        "locality": "Portland",
        "nickname": "The Pacific Quakers",
        "region": "Oregon",
        "team_number": 6437,
        "location": "Portland, Oregon 97266, USA",
        "key": "frc6437",
        "country_name": "USA",
        "motto": null,
        "rookie_year": 2017
    },
    {
        "website": null,
        "name": "MEF ",
        "locality": "Besiktas",
        "nickname": "MEF THUNDER FTD",
        "region": "Istanbul",
        "team_number": 6438,
        "location": "Besiktas, Istanbul 34340, Turkey",
        "key": "frc6438",
        "country_name": "Turkey",
        "motto": null,
        "rookie_year": 2017
    },
    {
        "website": null,
        "name": "Shanghai Shixi High School",
        "locality": "Shanghai",
        "nickname": "tanx",
        "region": "Shanghai",
        "team_number": 6439,
        "location": "Shanghai, Shanghai 200040, China",
        "key": "frc6439",
        "country_name": "China",
        "motto": null,
        "rookie_year": 2017
    },
    {
        "website": null,
        "name": "Canobolas Rural Technology High School",
        "locality": "Orange",
        "nickname": "Canobolas",
        "region": "New South Wales",
        "team_number": 6440,
        "location": "Orange, New South Wales 2800, Australia",
        "key": "frc6440",
        "country_name": "Australia",
        "motto": null,
        "rookie_year": 2017
    },
    {
        "website": null,
        "name": "Nanjing Foreign Language School & High School Affiliated to Nanjing Normal University",
        "locality": "Nanjing",
        "nickname": "MADE",
        "region": "Jiangsu",
        "team_number": 6441,
        "location": "Nanjing, Jiangsu 210000, China",
        "key": "frc6441",
        "country_name": "China",
        "motto": null,
        "rookie_year": 2017
    },
    {
        "website": null,
        "name": "Pendleton High School",
        "locality": "Pendleton",
        "nickname": "Modern Americans",
        "region": "Oregon",
        "team_number": 6442,
        "location": "Pendleton, Oregon 97801, USA",
        "key": "frc6442",
        "country_name": "USA",
        "motto": null,
        "rookie_year": 2017
    },
    {
        "website": null,
        "name": "Liberty High School",
        "locality": "Portland",
        "nickname": "Falcons",
        "region": "Oregon",
        "team_number": 6443,
        "location": "Portland, Oregon 97203, USA",
        "key": "frc6443",
        "country_name": "USA",
        "motto": null,
        "rookie_year": 2017
    },
    {
        "website": null,
        "name": "Instituto Tecnol\u00f3gico y de Estudios Superiores de Monterrey Campus Chihuahua",
        "locality": "Chihuahua",
        "nickname": "Prepa Tec Chihuahua",
        "region": "Chihuahua",
        "team_number": 6444,
        "location": "Chihuahua, Chihuahua 31300, Mexico",
        "key": "frc6444",
        "country_name": "Mexico",
        "motto": null,
        "rookie_year": 2017
    },
    {
        "website": null,
        "name": "Career and Technical Education Center (CTEC)",
        "locality": "Salem",
        "nickname": "CTEC Robotics",
        "region": "Oregon",
        "team_number": 6445,
        "location": "Salem, Oregon 97301, USA",
        "key": "frc6445",
        "country_name": "USA",
        "motto": null,
        "rookie_year": 2017
    },
    {
        "website": null,
        "name": "Westwood High School",
        "locality": "Blythewood",
        "nickname": "Redhawks",
        "region": "South Carolina",
        "team_number": 6446,
        "location": "Blythewood, South Carolina 29016, USA",
        "key": "frc6446",
        "country_name": "USA",
        "motto": null,
        "rookie_year": 2017
    },
    {
        "website": null,
        "name": "Bingara Central School",
        "locality": "Bingara",
        "nickname": "Bingara",
        "region": "New South Wales",
        "team_number": 6447,
        "location": "Bingara, New South Wales 2404, Australia",
        "key": "frc6447",
        "country_name": "Australia",
        "motto": null,
        "rookie_year": 2017
    },
    {
        "website": null,
        "name": "Lbj High School",
        "locality": "Austin",
        "nickname": "LBJ Early College High School ",
        "region": "Texas",
        "team_number": 6448,
        "location": "Austin, Texas 78724, USA",
        "key": "frc6448",
        "country_name": "USA",
        "motto": null,
        "rookie_year": 2017
    },
    {
        "website": null,
        "name": "LIving Waters Lutheran College",
        "locality": "Warnbro",
        "nickname": "DigiBots",
        "region": "Western Australia",
        "team_number": 6449,
        "location": "Warnbro, Western Australia 6169, Australia",
        "key": "frc6449",
        "country_name": "Australia",
        "motto": null,
        "rookie_year": 2017
    },
    {
        "website": null,
        "name": "Jinhua Foreign Language School",
        "locality": "Jinhua ",
        "nickname": "The Reaper",
        "region": "Zhejiang",
        "team_number": 6450,
        "location": "Jinhua , Zhejiang 321000, China",
        "key": "frc6450",
        "country_name": "China",
        "motto": null,
        "rookie_year": 2017
    },
    {
        "website": null,
        "name": "Whiteland Community High Sch",
        "locality": "Whiteland",
        "nickname": "Whiteland Community High School Robotics Team",
        "region": "Indiana",
        "team_number": 6451,
        "location": "Whiteland, Indiana 46184, USA",
        "key": "frc6451",
        "country_name": "USA",
        "motto": null,
        "rookie_year": 2017
    },
    {
        "website": null,
        "name": "Gonzaga Preparatory School",
        "locality": "Spokane",
        "nickname": "GPrep Thumpin Pup",
        "region": "Washington",
        "team_number": 6452,
        "location": "Spokane, Washington 99207, USA",
        "key": "frc6452",
        "country_name": "USA",
        "motto": null,
        "rookie_year": 2017
    },
    {
        "website": null,
        "name": "Society of Women Engineers/Agrosy Foundation&Kelliher Secondary",
        "locality": "Kelliher",
        "nickname": "Bog Bots!",
        "region": "Minnesota",
        "team_number": 6453,
        "location": "Kelliher, Minnesota 56650, USA",
        "key": "frc6453",
        "country_name": "USA",
        "motto": null,
        "rookie_year": 2017
    },
    {
        "website": null,
        "name": "Delta High School",
        "locality": "Pasco",
        "nickname": "Chicken Strips",
        "region": "Washington",
        "team_number": 6454,
        "location": "Pasco, Washington, USA",
        "key": "frc6454",
        "country_name": "USA",
        "motto": null,
        "rookie_year": 2017
    },
    {
        "website": null,
        "name": "Columbus High School",
        "locality": "Waterloo",
        "nickname": "The Coded Collective",
        "region": "Iowa",
        "team_number": 6455,
        "location": "Waterloo, Iowa 50701, USA",
        "key": "frc6455",
        "country_name": "USA",
        "motto": null,
        "rookie_year": 2017
    },
    {
        "website": null,
        "name": "Oregon Trail Academy",
        "locality": "Boring",
        "nickname": "Oregon Trail Academy Wolfpack",
        "region": "Oregon",
        "team_number": 6456,
        "location": "Boring, Oregon 97009, USA",
        "key": "frc6456",
        "country_name": "USA",
        "motto": null,
        "rookie_year": 2017
    },
    {
        "website": null,
        "name": "Raytheon/First Robotics/NASA&Roots Charter High School",
        "locality": "West Valley City",
        "nickname": "Roots Charter High School",
        "region": "Utah",
        "team_number": 6457,
        "location": "West Valley City, Utah 84119, USA",
        "key": "frc6457",
        "country_name": "USA",
        "motto": null,
        "rookie_year": 2017
    },
    {
        "website": "http://semirobotix.wixsite.com/semi",
        "name": "SEMIAHMOO SECONDARY SCHOOL",
        "locality": "Surrey",
        "nickname": "Semiahmoo Robotics",
        "region": "British Columbia",
        "team_number": 6458,
        "location": "Surrey, British Columbia V4A 4M6, Canada",
        "key": "frc6458",
        "country_name": "Canada",
        "motto": null,
        "rookie_year": 2017
    },
    {
        "website": "http://www.agrobotik-tr.com",
        "name": "Bilin Software/QNB Finansbank/IB Tech/Mercedes-Benz/Fikret Yuksel Foundation/Delta Regulator/I\u015f\u0131l Tekstil/OKULSER Turizm/\u00d6KOTEK EKOLOJ\u0130K \u00dcR\u00dcNLER/Kurto\u011flu Al\u00fcminyum/\u00c7ukurova Engineering/Mode-Tech/Alaturka Digital/Sigma M\u00fchendislik&ALKEV Schools",
        "locality": "34",
        "nickname": "AG Robotik",
        "region": "Istanbul",
        "team_number": 6459,
        "location": "34, Istanbul 34034, Turkey",
        "key": "frc6459",
        "country_name": "Turkey",
        "motto": null,
        "rookie_year": 2017
    },
    {
        "website": null,
        "name": "NASA&Family/Community",
        "locality": "Mansfield",
        "nickname": "Air Guardians",
        "region": "Ohio",
        "team_number": 6460,
        "location": "Mansfield, Ohio 44903, USA",
        "key": "frc6460",
        "country_name": "USA",
        "motto": null,
        "rookie_year": 2017
    },
    {
        "website": null,
        "name": "Ideal Supply/McGavin Farm Equipment/D and D Automation&F.E. MADILL SECONDARY SCHOOL",
        "locality": "Wingham",
        "nickname": "Iron Stallions",
        "region": "Ontario",
        "team_number": 6461,
        "location": "Wingham, Ontario N0G 2W0, Canada",
        "key": "frc6461",
        "country_name": "Canada",
        "motto": null,
        "rookie_year": 2017
    },
    {
        "website": null,
        "name": "Family/Community",
        "locality": "Edmond",
        "nickname": "techJOYnT",
        "region": "Oklahoma",
        "team_number": 6462,
        "location": "Edmond, Oklahoma 73013, USA",
        "key": "frc6462",
        "country_name": "USA",
        "motto": null,
        "rookie_year": 2017
    },
    {
        "website": "http://ulsterboces.org",
        "name": "Ulster BOCES/NASA/NY Tech Valley FIRST&Ulster Boces",
        "locality": "Port Ewen",
        "nickname": "Ulster BOCES",
        "region": "New York",
        "team_number": 6463,
        "location": "Port Ewen, New York 12466, USA",
        "key": "frc6463",
        "country_name": "USA",
        "motto": null,
        "rookie_year": 2017
    },
    {
        "website": null,
        "name": "Seminole Hs",
        "locality": "Seminole",
        "nickname": "Danger Noodle Danger",
        "region": "Oklahoma",
        "team_number": 6464,
        "location": "Seminole, Oklahoma 74868, USA",
        "key": "frc6464",
        "country_name": "USA",
        "motto": null,
        "rookie_year": 2017
    },
    {
        "website": null,
        "name": "NASA/First Tech Federal Credit Union&Cascades Academy of Central Oregon",
        "locality": "Bend",
        "nickname": "Decipher",
        "region": "Oregon",
        "team_number": 6465,
        "location": "Bend, Oregon 97703, USA",
        "key": "frc6465",
        "country_name": "USA",
        "motto": null,
        "rookie_year": 2017
    },
    {
        "website": null,
        "name": "Stanfield Secondary School",
        "locality": "Stanfield",
        "nickname": "Tiger Tech",
        "region": "Oregon",
        "team_number": 6466,
        "location": "Stanfield, Oregon 97875, USA",
        "key": "frc6466",
        "country_name": "USA",
        "motto": null,
        "rookie_year": 2017
    },
    {
        "website": null,
        "name": "Lenox High School",
        "locality": "Lenox",
        "nickname": "Tiger Robotics",
        "region": "Iowa",
        "team_number": 6467,
        "location": "Lenox, Iowa 50851, USA",
        "key": "frc6467",
        "country_name": "USA",
        "motto": null,
        "rookie_year": 2017
    },
    {
        "website": null,
        "name": "Faux Paws- St. Augustine Florida/Tata Consultancy Services/State of Florida/FIRST Robotics/Stellar Academy of Engineering/Foray Investment Group&Allen D Nease Senior High School",
        "locality": "Ponte Vedra",
        "nickname": "The Positronic Panthers",
        "region": "Florida",
        "team_number": 6468,
        "location": "Ponte Vedra, Florida 32081, USA",
        "key": "frc6468",
        "country_name": "USA",
        "motto": null,
        "rookie_year": 2017
    },
    {
        "website": null,
        "name": "Goochland High",
        "locality": "Goochland",
        "nickname": "Junkyard Dogs",
        "region": "Virginia",
        "team_number": 6469,
        "location": "Goochland, Virginia 23063, USA",
        "key": "frc6469",
        "country_name": "USA",
        "motto": null,
        "rookie_year": 2017
    },
    {
        "website": null,
        "name": "TEMPLETON SECONDARY SCHOOL",
        "locality": "Vancouver",
        "nickname": "Templeton STEM",
        "region": "British Columbia",
        "team_number": 6470,
        "location": "Vancouver, British Columbia V5L 4N8, Canada",
        "key": "frc6470",
        "country_name": "Canada",
        "motto": null,
        "rookie_year": 2017
    },
    {
        "website": "http://www.lee.k12.ga.us/lchs/index.php",
        "name": "Lee County High School",
        "locality": "Leesburg",
        "nickname": "Lee County High School Trojans",
        "region": "Georgia",
        "team_number": 6471,
        "location": "Leesburg, Georgia 31763, USA",
        "key": "frc6471",
        "country_name": "USA",
        "motto": null,
        "rookie_year": 2017
    },
    {
        "website": null,
        "name": "Haydarpa\u015fa Mesleki ve Teknik Anadolu Lisesi",
        "locality": "uskudar",
        "nickname": "H-TECH",
        "region": "Istanbul",
        "team_number": 6472,
        "location": "uskudar, Istanbul 34668, Turkey",
        "key": "frc6472",
        "country_name": "Turkey",
        "motto": null,
        "rookie_year": 2017
    },
    {
        "website": "http://rockstarrobotics.wixsite.com/rockstarrobot",
        "name": "Boys & Girls Clubs of America",
        "locality": "Orlando",
        "nickname": "Rock Star Robotics",
        "region": "Florida",
        "team_number": 6473,
        "location": "Orlando, Florida 32808, USA",
        "key": "frc6473",
        "country_name": "USA",
        "motto": null,
        "rookie_year": 2017
    },
    {
        "website": null,
        "name": "Genentech/Vanden Robotics Foundation&Armijo High",
        "locality": "Fairfield",
        "nickname": "Armijo Robotics",
        "region": "California",
        "team_number": 6474,
        "location": "Fairfield, California 94533, USA",
        "key": "frc6474",
        "country_name": "USA",
        "motto": null,
        "rookie_year": 2017
    },
    {
        "website": null,
        "name": "Family/Community",
        "locality": "Beijing",
        "nickname": "Helium-3",
        "region": "Beijing",
        "team_number": 6475,
        "location": "Beijing, Beijing 102218, China",
        "key": "frc6475",
        "country_name": "China",
        "motto": null,
        "rookie_year": 2017
    },
    {
        "website": null,
        "name": "Connabarabran High School",
        "locality": "Connabarabran",
        "nickname": "Coonabarabran High School",
        "region": "New South Wales",
        "team_number": 6476,
        "location": "Connabarabran, New South Wales 2357, Australia",
        "key": "frc6476",
        "country_name": "Australia",
        "motto": null,
        "rookie_year": 2017
    },
    {
        "website": null,
        "name": "Other HS",
        "locality": "Buyukcekmece",
        "nickname": "Conqueror of Istanbul",
        "region": "Istanbul",
        "team_number": 6477,
        "location": "Buyukcekmece, Istanbul 34900, Turkey",
        "key": "frc6477",
        "country_name": "Turkey",
        "motto": null,
        "rookie_year": 2017
    },
    {
        "website": null,
        "name": "Cecil Andrews SHS",
        "locality": "Seville Grove",
        "nickname": "CASHS Bot Team",
        "region": "Western Australia",
        "team_number": 6478,
        "location": "Seville Grove, Western Australia 6112, Australia",
        "key": "frc6478",
        "country_name": "Australia",
        "motto": null,
        "rookie_year": 2017
    },
    {
        "website": null,
        "name": "BAE Systems/Integrated Device Technology Inc/Dassault Syst\u00e8mes SOLIDWORKS Corp./NASA/Industrial Metal Supply Co./Copper State Bolt & Nut Company/Jan's Inc.&Corona Del Sol High School",
        "locality": "Phoenix",
        "nickname": "AzTech",
        "region": "Arizona",
        "team_number": 6479,
        "location": "Phoenix, Arizona 85044, USA",
        "key": "frc6479",
        "country_name": "USA",
        "motto": null,
        "rookie_year": 2017
    },
    {
        "website": null,
        "name": "NASA&Sage Academy Charter School",
        "locality": "Minneapolis",
        "nickname": "SAGE Robotics",
        "region": "Minnesota",
        "team_number": 6480,
        "location": "Minneapolis, Minnesota 55443, USA",
        "key": "frc6480",
        "country_name": "USA",
        "motto": null,
        "rookie_year": 2017
    },
    {
        "website": "https://www.facebook.com/Team6481",
        "name": "NORTH MIDDLESEX DISTRICT HIGH SCHOOL",
        "locality": "Parkhill",
        "nickname": "Deus ex Machina",
        "region": "Ontario",
        "team_number": 6481,
        "location": "Parkhill, Ontario N0M 2K0, Canada",
        "key": "frc6481",
        "country_name": "Canada",
        "motto": null,
        "rookie_year": 2017
    },
    {
        "website": null,
        "name": "AZFirst/Steve Sanghi Family Foundation/James. A. Unruh Family Foundation/Gervasio & Associates&Joseph City High School",
        "locality": "Joseph City",
        "nickname": "Wildcat Robotics",
        "region": "Arizona",
        "team_number": 6482,
        "location": "Joseph City, Arizona 86032, USA",
        "key": "frc6482",
        "country_name": "USA",
        "motto": null,
        "rookie_year": 2017
    },
    {
        "website": null,
        "name": "Universidad Tec Milenio campus Ciudad Juarez",
        "locality": "juarez",
        "nickname": "CHARGER",
        "region": "Chihuahua",
        "team_number": 6483,
        "location": "juarez, Chihuahua 32546, Mexico",
        "key": "frc6483",
        "country_name": "Mexico",
        "motto": null,
        "rookie_year": 2017
    },
    {
        "website": "http://greenwichrobotics.org",
        "name": "Fort Miller Group/Phantom Lab/NASA/Tech Valley First/Greenwich Teachers Assocation/Hallam-ICS/Knights of Columbus/McPhilips Insurance/Battenkill Fiber&Greenwich Junior-Senior High School",
        "locality": "Greenwich",
        "nickname": "TechKnowLogic",
        "region": "New York",
        "team_number": 6484,
        "location": "Greenwich, New York 12834, USA",
        "key": "frc6484",
        "country_name": "USA",
        "motto": null,
        "rookie_year": 2017
    },
    {
        "website": null,
        "name": "L.A. MATHESON JUNIOR SECONDARY SCHOOL",
        "locality": "Surrey",
        "nickname": "Matheson's Mecha Mustangs",
        "region": "British Columbia",
        "team_number": 6485,
        "location": "Surrey, British Columbia V3V 4M1, Canada",
        "key": "frc6485",
        "country_name": "Canada",
        "motto": null,
        "rookie_year": 2017
    },
    {
        "website": null,
        "name": "Family/Community",
        "locality": "Upper Marlboro",
        "nickname": "The Irrational Engineers",
        "region": "Maryland",
        "team_number": 6486,
        "location": "Upper Marlboro, Maryland 20774, USA",
        "key": "frc6486",
        "country_name": "USA",
        "motto": null,
        "rookie_year": 2017
    },
    {
        "website": null,
        "name": "Shanghai Foreign Language School Affiliated To SISU & Shanghai Foreign Language School Affiliated To SISU",
        "locality": "Shanghai",
        "nickname": "Clockwork Knights",
        "region": "Shanghai",
        "team_number": 6487,
        "location": "Shanghai, Shanghai 200083, China",
        "key": "frc6487",
        "country_name": "China",
        "motto": null,
        "rookie_year": 2017
    },
    {
        "website": null,
        "name": "Texas Workforce Commission/NASA/Woodgroup Mustang Engineering&Mayde Creek H S",
        "locality": "Houston",
        "nickname": "RoboRams",
        "region": "Texas",
        "team_number": 6488,
        "location": "Houston, Texas 77084, USA",
        "key": "frc6488",
        "country_name": "USA",
        "motto": null,
        "rookie_year": 2017
    },
    {
        "website": null,
        "name": "Zachary High School",
        "locality": "Zachary",
        "nickname": "Bronco Robotics",
        "region": "Louisiana",
        "team_number": 6489,
        "location": "Zachary, Louisiana 70791, USA",
        "key": "frc6489",
        "country_name": "USA",
        "motto": null,
        "rookie_year": 2017
    },
    {
        "website": null,
        "name": "&Geneva High School",
        "locality": "Geneva",
        "nickname": "Panther Robotics",
        "region": "New York",
        "team_number": 6490,
        "location": "Geneva, New York 14456, USA",
        "key": "frc6490",
        "country_name": "USA",
        "motto": null,
        "rookie_year": 2017
    },
    {
        "website": null,
        "name": "International Vehicle Research, Inc./Bill Isherwood/Johnny Doo&Family/Community",
        "locality": "Fairhope",
        "nickname": "Short Circuits",
        "region": "Alabama",
        "team_number": 6491,
        "location": "Fairhope, Alabama 36532, USA",
        "key": "frc6491",
        "country_name": "USA",
        "motto": null,
        "rookie_year": 2017
    },
    {
        "website": null,
        "name": "Pangburn High School",
        "locality": "Pangburn",
        "nickname": "S.W.A.T",
        "region": "Arkansas",
        "team_number": 6492,
        "location": "Pangburn, Arkansas 72121, USA",
        "key": "frc6492",
        "country_name": "USA",
        "motto": null,
        "rookie_year": 2017
    },
    {
        "website": null,
        "name": "Michigan Department of Education/Dow Chemical/Argosy FRC Rookie Grant/Nexteer&Great Lakes Bay Early College",
        "locality": "University Center",
        "nickname": "Red Steel",
        "region": "Michigan",
        "team_number": 6493,
        "location": "University Center, Michigan 48710, USA",
        "key": "frc6493",
        "country_name": "USA",
        "motto": null,
        "rookie_year": 2017
    },
    {
        "website": null,
        "name": "Shanghai Jianping High School",
        "locality": "Shanghai",
        "nickname": "Wings of Liberty",
        "region": "Shanghai",
        "team_number": 6494,
        "location": "Shanghai, Shanghai 200135, China",
        "key": "frc6494",
        "country_name": "China",
        "motto": null,
        "rookie_year": 2017
    },
    {
        "website": null,
        "name": "FIRST China Robotics Association",
        "locality": "Beijing",
        "nickname": "Future Star",
        "region": "Beijing",
        "team_number": 6495,
        "location": "Beijing, Beijing 100012, China",
        "key": "frc6495",
        "country_name": "China",
        "motto": null,
        "rookie_year": 2017
    },
    {
        "website": null,
        "name": "FIRST China Robotics Association",
        "locality": "Beijing",
        "nickname": "Semia United",
        "region": "Beijing",
        "team_number": 6496,
        "location": "Beijing, Beijing 100012, China",
        "key": "frc6496",
        "country_name": "China",
        "motto": null,
        "rookie_year": 2017
    },
    {
        "website": null,
        "name": "FIRST China Robotics Association",
        "locality": "Beijing",
        "nickname": "Future Forward",
        "region": "Beijing",
        "team_number": 6497,
        "location": "Beijing, Beijing 100012, China",
        "key": "frc6497",
        "country_name": "China",
        "motto": null,
        "rookie_year": 2017
    },
    {
        "website": null,
        "name": "Castle High School",
        "locality": "Newburgh",
        "nickname": "Castle High School",
        "region": "Indiana",
        "team_number": 6498,
        "location": "Newburgh, Indiana 47630, USA",
        "key": "frc6498",
        "country_name": "USA",
        "motto": null,
        "rookie_year": 2017
    },
    {
        "website": "http://www.innovosrobotics.org",
        "name": "Family/Community",
        "locality": "Orange",
        "nickname": "Innovos Robotics",
        "region": "California",
        "team_number": 6499,
        "location": "Orange, California 92867, USA",
        "key": "frc6499",
        "country_name": "USA",
        "motto": null,
        "rookie_year": 2017
    }
]