[
    {
        "website": "http://millbrookrobotics.com/",
        "name": "NASA/United Therapeutics/John Deere&Millbrook High",
        "locality": "Raleigh",
        "nickname": "GearCats",
        "region": "North Carolina",
        "team_number": 6500,
        "location": "Raleigh, North Carolina 27615, USA",
        "key": "frc6500",
        "country_name": "USA",
        "motto": null,
        "rookie_year": 2017
    },
    {
        "website": null,
        "name": "Durham Academy",
        "locality": "Durham",
        "nickname": "DARC SIDE",
        "region": "North Carolina",
        "team_number": 6502,
        "location": "Durham, North Carolina 27705, USA",
        "key": "frc6502",
        "country_name": "USA",
        "motto": null,
        "rookie_year": 2017
    },
    {
        "website": null,
        "name": "Seattle World School",
        "locality": "Seattle",
        "nickname": "Iron Dragon",
        "region": "Washington",
        "team_number": 6503,
        "location": "Seattle, Washington 98122, USA",
        "key": "frc6503",
        "country_name": "USA",
        "motto": null,
        "rookie_year": 2017
    },
    {
        "website": null,
        "name": "Falls Church High",
        "locality": "Falls Church",
        "nickname": "FCHS FRC",
        "region": "Virginia",
        "team_number": 6504,
        "location": "Falls Church, Virginia 22042, USA",
        "key": "frc6504",
        "country_name": "USA",
        "motto": null,
        "rookie_year": 2017
    },
    {
        "website": null,
        "name": "DoDSTEM & Washington Math Science Tech Pcs",
        "locality": "Washington",
        "nickname": "ElectroPanthers",
        "region": "District of Columbia",
        "team_number": 6505,
        "location": "Washington, District of Columbia 20002, USA",
        "key": "frc6505",
        "country_name": "USA",
        "motto": null,
        "rookie_year": 2017
    },
    {
        "website": null,
        "name": "Salinas High",
        "locality": "Salinas",
        "nickname": "Steel Boot",
        "region": "California",
        "team_number": 6506,
        "location": "Salinas, California 93901, USA",
        "key": "frc6506",
        "country_name": "USA",
        "motto": null,
        "rookie_year": 2017
    },
    {
        "website": "http://elektron-6507.webnode.mx/",
        "name": "ARGOSY FOUNDATION /BOEING  & Universidad TecMilenio Campus Reynosa",
        "locality": "Reynosa",
        "nickname": "ELEKTRON",
        "region": "Tamaulipas",
        "team_number": 6507,
        "location": "Reynosa, Tamaulipas 88715, Mexico",
        "key": "frc6507",
        "country_name": "Mexico",
        "motto": null,
        "rookie_year": 2017
    },
    {
        "website": null,
        "name": "Hastings Secondary College Westport Campus",
        "locality": "Port Macquarie",
        "nickname": "Hastings",
        "region": "New South Wales",
        "team_number": 6508,
        "location": "Port Macquarie, New South Wales 2444, Australia",
        "key": "frc6508",
        "country_name": "Australia",
        "motto": null,
        "rookie_year": 2017
    },
    {
        "website": null,
        "name": "Souther River College",
        "locality": "Gosnells",
        "nickname": "Southern River",
        "region": "Western Australia",
        "team_number": 6509,
        "location": "Gosnells, Western Australia 6110, Australia",
        "key": "frc6509",
        "country_name": "Australia",
        "motto": null,
        "rookie_year": 2017
    },
    {
        "website": "https://www.facebook.com/PymbleLCrobotics/",
        "name": "Pymble Ladies College/Pymble Ladies College Ex-Student Union/Ultraflex&Pymble Ladies' College",
        "locality": "Pymble",
        "nickname": "Pymble Pride",
        "region": "New South Wales",
        "team_number": 6510,
        "location": "Pymble, New South Wales 2073, Australia",
        "key": "frc6510",
        "country_name": "Australia",
        "motto": null,
        "rookie_year": 2017
    },
    {
        "website": null,
        "name": "Oberoi International School",
        "locality": "Mumbai",
        "nickname": "Oberoi",
        "region": "Maharashtra",
        "team_number": 6511,
        "location": "Mumbai, Maharashtra 400063, India",
        "key": "frc6511",
        "country_name": "India",
        "motto": null,
        "rookie_year": 2017
    },
    {
        "website": null,
        "name": "Argosy Foundation/American Nuclear Society/Archer Daniels Midland/Duke Energy/Brunswick Electric Membership Corporation/Brunswick County Schools&Family/Community",
        "locality": "Bolivia",
        "nickname": "Robonauts",
        "region": "North Carolina",
        "team_number": 6512,
        "location": "Bolivia, North Carolina 28422, USA",
        "key": "frc6512",
        "country_name": "USA",
        "motto": null,
        "rookie_year": 2017
    },
    {
        "website": null,
        "name": "HD Supply - Brafasco - Concord/North Canadian Tools/Gama Engineering/Briar Group Air Systems/Rajpura Transport/Tokyo Auto Collision/Fotowurx/Dr. Fabio D'Ambrosi/Gary Machado&Woodbridge College",
        "locality": "Woodbridge",
        "nickname": "Wyverns Robotics",
        "region": "Ontario",
        "team_number": 6513,
        "location": "Woodbridge, Ontario L4L1J3, Canada",
        "key": "frc6513",
        "country_name": "Canada",
        "motto": null,
        "rookie_year": 2017
    },
    {
        "website": null,
        "name": "SUTTON DISTRICT HIGH SCHOOL",
        "locality": "Sutton West",
        "nickname": "Sutton Robotics League",
        "region": "Ontario",
        "team_number": 6514,
        "location": "Sutton West, Ontario L0E 1R0, Canada",
        "key": "frc6514",
        "country_name": "Canada",
        "motto": null,
        "rookie_year": 2017
    },
    {
        "website": null,
        "name": "Calexico High",
        "locality": "Calexico",
        "nickname": "Unimatics",
        "region": "California",
        "team_number": 6515,
        "location": "Calexico, California 92231, USA",
        "key": "frc6515",
        "country_name": "USA",
        "motto": null,
        "rookie_year": 2017
    },
    {
        "website": null,
        "name": "Warren County Career Center",
        "locality": "Lebanon",
        "nickname": "Robonados",
        "region": "Ohio",
        "team_number": 6516,
        "location": "Lebanon, Ohio 45036, USA",
        "key": "frc6516",
        "country_name": "USA",
        "motto": null,
        "rookie_year": 2017
    },
    {
        "website": null,
        "name": "Knox County School District/Argosy Foundation/Alcoa Aluminum/DeRoyal&South Doyle High School",
        "locality": "Knoxville",
        "nickname": "Team FTW",
        "region": "Tennessee",
        "team_number": 6517,
        "location": "Knoxville, Tennessee 37920, USA",
        "key": "frc6517",
        "country_name": "USA",
        "motto": null,
        "rookie_year": 2017
    },
    {
        "website": "https://www.facebook.com/JagBots6518/",
        "name": "NASA/AZ FIRST/Bolle/A Quality Electric&Boulder Creek High School",
        "locality": "Phoenix",
        "nickname": "JagBots",
        "region": "Arizona",
        "team_number": 6518,
        "location": "Phoenix, Arizona 85086, USA",
        "key": "frc6518",
        "country_name": "USA",
        "motto": null,
        "rookie_year": 2017
    },
    {
        "website": null,
        "name": "Argosy Foundation/Performance Contracting, Inc./Marnell Companies, LLC/Bombard Electric, LLC/Nevada Precision Sheet Metal & Southwest Career and Technical Academy",
        "locality": "Las Vegas",
        "nickname": "The Vegas Vortechs",
        "region": "Nevada",
        "team_number": 6519,
        "location": "Las Vegas, Nevada 89113, USA",
        "key": "frc6519",
        "country_name": "USA",
        "motto": null,
        "rookie_year": 2017
    },
    {
        "website": null,
        "name": "Hanoi-Amsterdam High School for the Gifted",
        "locality": "hanoi",
        "nickname": "Hanoi Amsterdam School",
        "region": "Ha Noi",
        "team_number": 6520,
        "location": "hanoi, Ha Noi 150000, Vietnam",
        "key": "frc6520",
        "country_name": "Vietnam",
        "motto": null,
        "rookie_year": 2017
    },
    {
        "website": null,
        "name": "Family/Community",
        "locality": "hanoi",
        "nickname": "FPT",
        "region": "Ha Noi",
        "team_number": 6521,
        "location": "hanoi, Ha Noi 10000, Vietnam",
        "key": "frc6521",
        "country_name": "Vietnam",
        "motto": null,
        "rookie_year": 2017
    },
    {
        "website": null,
        "name": "FRC Team 3132 \"Thunder Down Under\" & Tomaree High School",
        "locality": "Salamander Bay",
        "nickname": "Tomaree High School",
        "region": "New South Wales",
        "team_number": 6522,
        "location": "Salamander Bay, New South Wales 2317, Australia",
        "key": "frc6522",
        "country_name": "Australia",
        "motto": null,
        "rookie_year": 2017
    },
    {
        "website": null,
        "name": "Condobolin High School",
        "locality": "Condobolin",
        "nickname": "Condobolin",
        "region": "New South Wales",
        "team_number": 6523,
        "location": "Condobolin, New South Wales 2877, Australia",
        "key": "frc6523",
        "country_name": "Australia",
        "motto": null,
        "rookie_year": 2017
    },
    {
        "website": null,
        "name": "Cecil Andrews Senior High School",
        "locality": "Seville Grove",
        "nickname": "Cecil Andrews Senior High School",
        "region": "Western Australia",
        "team_number": 6524,
        "location": "Seville Grove, Western Australia 6112, Australia",
        "key": "frc6524",
        "country_name": "Australia",
        "motto": null,
        "rookie_year": 2017
    },
    {
        "website": null,
        "name": "Sydney TAFE",
        "locality": "Sydney",
        "nickname": "Greater Sydney Robotics",
        "region": "New South Wales",
        "team_number": 6525,
        "location": "Sydney, New South Wales 2000, Australia",
        "key": "frc6525",
        "country_name": "Australia",
        "motto": null,
        "rookie_year": 2017
    },
    {
        "website": "http://NFHSREO.weebly.com",
        "name": "Texas Workforce Commission/NASA&Naaman Forest H S",
        "locality": "Garland",
        "nickname": "Cyber Rangers",
        "region": "Texas",
        "team_number": 6526,
        "location": "Garland, Texas 75040, USA",
        "key": "frc6526",
        "country_name": "USA",
        "motto": null,
        "rookie_year": 2017
    },
    {
        "website": null,
        "name": "Lake Mary High School & Lyman High School & Lake Brantley High School & Crooms Academy of Information Technology & Seminole High School",
        "locality": "Lake Mary",
        "nickname": "Short SirKit",
        "region": "Florida",
        "team_number": 6527,
        "location": "Lake Mary, Florida 32746-2666, USA",
        "key": "frc6527",
        "country_name": "USA",
        "motto": null,
        "rookie_year": 2017
    },
    {
        "website": null,
        "name": "Oscar A. Carlson High School",
        "locality": "Rockwood",
        "nickname": "Terror Byte{s}",
        "region": "Michigan",
        "team_number": 6528,
        "location": "Rockwood, Michigan 48173, USA",
        "key": "frc6528",
        "country_name": "USA",
        "motto": null,
        "rookie_year": 2017
    },
    {
        "website": null,
        "name": "O'Bryant Sch Math/Science",
        "locality": "Roxbury Crossing",
        "nickname": "Beantown Blitz",
        "region": "Massachusetts",
        "team_number": 6529,
        "location": "Roxbury Crossing, Massachusetts 02120, USA",
        "key": "frc6529",
        "country_name": "USA",
        "motto": null,
        "rookie_year": 2017
    },
    {
        "website": null,
        "name": "Sunnyslope High School",
        "locality": "Phoenix",
        "nickname": "Ra",
        "region": "Arizona",
        "team_number": 6530,
        "location": "Phoenix, Arizona 85020, USA",
        "key": "frc6530",
        "country_name": "USA",
        "motto": null,
        "rookie_year": 2017
    },
    {
        "website": null,
        "name": "Cedar Springs High School",
        "locality": "Cedar Springs",
        "nickname": "Redhawks",
        "region": "Michigan",
        "team_number": 6531,
        "location": "Cedar Springs, Michigan 49319, USA",
        "key": "frc6531",
        "country_name": "USA",
        "motto": null,
        "rookie_year": 2017
    },
    {
        "website": null,
        "name": "Benjamin Carson High School of Science and Medicine",
        "locality": "Detroit",
        "nickname": "Ben Carson Blue Jays",
        "region": "Michigan",
        "team_number": 6532,
        "location": "Detroit, Michigan 48201, USA",
        "key": "frc6532",
        "country_name": "USA",
        "motto": null,
        "rookie_year": 2017
    },
    {
        "website": null,
        "name": "Beaverton High School",
        "locality": "Beaverton",
        "nickname": "Beaver Tech",
        "region": "Michigan",
        "team_number": 6533,
        "location": "Beaverton, Michigan 48612, USA",
        "key": "frc6533",
        "country_name": "USA",
        "motto": null,
        "rookie_year": 2017
    },
    {
        "website": "http://www.greaat.com",
        "name": "Grand Rapids Ellington Academy of Arts and Technology",
        "locality": "Grand Rapids",
        "nickname": "Saints Scholars",
        "region": "Michigan",
        "team_number": 6534,
        "location": "Grand Rapids, Michigan 49507, USA",
        "key": "frc6534",
        "country_name": "USA",
        "motto": null,
        "rookie_year": 2017
    },
    {
        "website": null,
        "name": "Edison High",
        "locality": "Huntington Beach",
        "nickname": "Edison Chargers",
        "region": "California",
        "team_number": 6535,
        "location": "Huntington Beach, California 92646, USA",
        "key": "frc6535",
        "country_name": "USA",
        "motto": null,
        "rookie_year": 2017
    },
    {
        "website": null,
        "name": "West High School",
        "locality": "Vinton",
        "nickname": "TheDarkSide",
        "region": "Iowa",
        "team_number": 6536,
        "location": "Vinton, Iowa 52349, USA",
        "key": "frc6536",
        "country_name": "USA",
        "motto": null,
        "rookie_year": 2017
    },
    {
        "website": "http://www.wihs.ca",
        "name": "Windsor Islamic High School",
        "locality": "Windsor",
        "nickname": "WIHS Robotics",
        "region": "Ontario",
        "team_number": 6537,
        "location": "Windsor, Ontario N8T 2E7, Canada",
        "key": "frc6537",
        "country_name": "Canada",
        "motto": null,
        "rookie_year": 2017
    },
    {
        "website": null,
        "name": "Lincoln Senior High School",
        "locality": "Ypsilanti",
        "nickname": "Linc-Bots",
        "region": "Michigan",
        "team_number": 6538,
        "location": "Ypsilanti, Michigan 48197, USA",
        "key": "frc6538",
        "country_name": "USA",
        "motto": null,
        "rookie_year": 2017
    },
    {
        "website": null,
        "name": "Ontonagon Area Jr/Sr High School",
        "locality": "Ontonagon",
        "nickname": "Success Robotics Team",
        "region": "Michigan",
        "team_number": 6539,
        "location": "Ontonagon, Michigan 49953, USA",
        "key": "frc6539",
        "country_name": "USA",
        "motto": null,
        "rookie_year": 2017
    },
    {
        "website": null,
        "name": "Argosy/Power Corporation/Hewitt/Commission Scolaire Marguerite-Bourgeoys (CSMB)&ECOLE PIERRE LAPORTE",
        "locality": "Mont-Royal",
        "nickname": "Dynamo",
        "region": "Qu\u00e9bec",
        "team_number": 6540,
        "location": "Mont-Royal, Qu\u00e9bec H3P 2X8, Canada",
        "key": "frc6540",
        "country_name": "Canada",
        "motto": null,
        "rookie_year": 2017
    },
    {
        "website": null,
        "name": "Compagnons du devoir",
        "locality": "LA TALAUDIERE",
        "nickname": "T-FROGS",
        "region": "Loire",
        "team_number": 6541,
        "location": "LA TALAUDIERE, Loire 42350, France",
        "key": "frc6541",
        "country_name": "France",
        "motto": null,
        "rookie_year": 2017
    },
    {
        "website": null,
        "name": "Pittsburg High School&Pittsburg High",
        "locality": "Pittsburg",
        "nickname": "Technomancers",
        "region": "Kansas",
        "team_number": 6542,
        "location": "Pittsburg, Kansas 66762, USA",
        "key": "frc6542",
        "country_name": "USA",
        "motto": null,
        "rookie_year": 2017
    },
    {
        "website": null,
        "name": "Pinnacle Academy",
        "locality": "Oakton",
        "nickname": "pumaTECH",
        "region": "Virginia",
        "team_number": 6543,
        "location": "Oakton, Virginia 22124, USA",
        "key": "frc6543",
        "country_name": "USA",
        "motto": null,
        "rookie_year": 2017
    },
    {
        "website": null,
        "name": "Family/Community",
        "locality": "Windsor",
        "nickname": "A Team Robotics",
        "region": "Ontario",
        "team_number": 6544,
        "location": "Windsor, Ontario N9J 2J1, Canada",
        "key": "frc6544",
        "country_name": "Canada",
        "motto": null,
        "rookie_year": 2017
    },
    {
        "website": null,
        "name": "Tawas Area High School",
        "locality": "Tawas City",
        "nickname": "Tawas Braves",
        "region": "Michigan",
        "team_number": 6545,
        "location": "Tawas City, Michigan 48763, USA",
        "key": "frc6545",
        "country_name": "USA",
        "motto": null,
        "rookie_year": 2017
    },
    {
        "website": null,
        "name": "Navajo Mountain High",
        "locality": "Aneth",
        "nickname": "Jaguars",
        "region": "Utah",
        "team_number": 6546,
        "location": "Aneth, Utah 84510, USA",
        "key": "frc6546",
        "country_name": "USA",
        "motto": null,
        "rookie_year": 2017
    },
    {
        "website": null,
        "name": "Magnolia West H S & Magnolia H S",
        "locality": "Magnolia",
        "nickname": "Flaming Metal Robotics",
        "region": "Texas",
        "team_number": 6547,
        "location": "Magnolia, Texas 77353, USA",
        "key": "frc6547",
        "country_name": "USA",
        "motto": null,
        "rookie_year": 2017
    },
    {
        "website": null,
        "name": "Perry High School",
        "locality": "Perry",
        "nickname": "Perry High School Ramblers",
        "region": "Michigan",
        "team_number": 6548,
        "location": "Perry, Michigan 48872, USA",
        "key": "frc6548",
        "country_name": "USA",
        "motto": null,
        "rookie_year": 2017
    },
    {
        "website": null,
        "name": "Caseville High School",
        "locality": "Caseville",
        "nickname": "caseville eagles",
        "region": "Michigan",
        "team_number": 6549,
        "location": "Caseville, Michigan 48725, USA",
        "key": "frc6549",
        "country_name": "USA",
        "motto": null,
        "rookie_year": 2017
    },
    {
        "website": null,
        "name": "Evart High School",
        "locality": "Evart",
        "nickname": "Wildcat Robotics ",
        "region": "Michigan",
        "team_number": 6550,
        "location": "Evart, Michigan 49631, USA",
        "key": "frc6550",
        "country_name": "USA",
        "motto": null,
        "rookie_year": 2017
    },
    {
        "website": "http://scc4hrobotics.com",
        "name": "4-H Youth Development Organization",
        "locality": "Port Huron",
        "nickname": "MOOTeam",
        "region": "Michigan",
        "team_number": 6551,
        "location": "Port Huron, Michigan 48060, USA",
        "key": "frc6551",
        "country_name": "USA",
        "motto": null,
        "rookie_year": 2017
    },
    {
        "website": null,
        "name": "Houghton Lake Community Schools/Home Depot of Houghton Lake #2769 (Store Manager: Jeromy Werra)&Houghton Lake High School",
        "locality": "Houghton Lake",
        "nickname": "Robocats",
        "region": "Michigan",
        "team_number": 6552,
        "location": "Houghton Lake, Michigan 48629, USA",
        "key": "frc6552",
        "country_name": "USA",
        "motto": null,
        "rookie_year": 2017
    },
    {
        "website": null,
        "name": "Rio Mesa High",
        "locality": "Oxnard",
        "nickname": "Roboticus",
        "region": "California",
        "team_number": 6553,
        "location": "Oxnard, California 93036, USA",
        "key": "frc6553",
        "country_name": "USA",
        "motto": null,
        "rookie_year": 2017
    },
    {
        "website": null,
        "name": "Mike and Nurys Nunns/Advance Lift Mortors/Technicolor&Family/Community",
        "locality": "La Mirada",
        "nickname": "Phoenix Robotics",
        "region": "California",
        "team_number": 6554,
        "location": "La Mirada, California 90638, USA",
        "key": "frc6554",
        "country_name": "USA",
        "motto": null,
        "rookie_year": 2017
    },
    {
        "website": null,
        "name": "\u00d6zel \u015eahinkaya Koleji",
        "locality": "Bursa",
        "nickname": "Ad Astra",
        "region": "Bursa",
        "team_number": 6555,
        "location": "Bursa, Bursa 16120, Turkey",
        "key": "frc6555",
        "country_name": "Turkey",
        "motto": null,
        "rookie_year": 2017
    },
    {
        "website": null,
        "name": "Waldron High School",
        "locality": "Waldron",
        "nickname": "Waldron Bot Heads",
        "region": "Michigan",
        "team_number": 6556,
        "location": "Waldron, Michigan 49288, USA",
        "key": "frc6556",
        "country_name": "USA",
        "motto": null,
        "rookie_year": 2017
    },
    {
        "website": null,
        "name": "Baraga Area High School",
        "locality": "Baraga",
        "nickname": "Vikings",
        "region": "Michigan",
        "team_number": 6557,
        "location": "Baraga, Michigan 49908, USA",
        "key": "frc6557",
        "country_name": "USA",
        "motto": null,
        "rookie_year": 2017
    },
    {
        "website": null,
        "name": "L'Anse Manufacturing/Re/Max Douglass - Chris DeForge 482-1000/Lake Superior Design&L'Anse High School",
        "locality": "Lanse",
        "nickname": "Aluminum Sting",
        "region": "Michigan",
        "team_number": 6558,
        "location": "Lanse, Michigan 49946, USA",
        "key": "frc6558",
        "country_name": "USA",
        "motto": null,
        "rookie_year": 2017
    },
    {
        "website": null,
        "name": "Bay-Arenac Isd",
        "locality": "Bay City",
        "nickname": "Bay-Arenac",
        "region": "Michigan",
        "team_number": 6559,
        "location": "Bay City, Michigan 48706, USA",
        "key": "frc6559",
        "country_name": "USA",
        "motto": null,
        "rookie_year": 2017
    },
    {
        "website": "http://www.chargingchampions.org",
        "name": "Family/Community",
        "locality": "Irvine",
        "nickname": "Charging Champions",
        "region": "California",
        "team_number": 6560,
        "location": "Irvine, California 92603, USA",
        "key": "frc6560",
        "country_name": "USA",
        "motto": null,
        "rookie_year": 2017
    },
    {
        "website": null,
        "name": "Gateway to Success Academy",
        "locality": "Scottville",
        "nickname": "G2S Tech",
        "region": "Michigan",
        "team_number": 6561,
        "location": "Scottville, Michigan 49454, USA",
        "key": "frc6561",
        "country_name": "USA",
        "motto": null,
        "rookie_year": 2017
    },
    {
        "website": null,
        "name": "Mercedes H S",
        "locality": "Mercedes",
        "nickname": "She Heroes",
        "region": "Texas",
        "team_number": 6562,
        "location": "Mercedes, Texas 78570, USA",
        "key": "frc6562",
        "country_name": "USA",
        "motto": null,
        "rookie_year": 2017
    },
    {
        "website": null,
        "name": "CORRELIEU SECONDARY SCHOOL",
        "locality": "Quesnel",
        "nickname": "Correlieu Secondary ",
        "region": "British Columbia",
        "team_number": 6563,
        "location": "Quesnel, British Columbia V2J 1G4, Canada",
        "key": "frc6563",
        "country_name": "Canada",
        "motto": null,
        "rookie_year": 2017
    },
    {
        "website": null,
        "name": "Tommy Douglas Secondary School",
        "locality": "Woodbridge",
        "nickname": "TDSS Titans",
        "region": "Ontario",
        "team_number": 6564,
        "location": "Woodbridge, Ontario L4H 4E9, Canada",
        "key": "frc6564",
        "country_name": "Canada",
        "motto": null,
        "rookie_year": 2017
    },
    {
        "website": null,
        "name": "NASA &Arapahoe Charter School",
        "locality": "Arapahoe",
        "nickname": "Team Bobcat ",
        "region": "North Carolina",
        "team_number": 6565,
        "location": "Arapahoe, North Carolina 28510, USA",
        "key": "frc6565",
        "country_name": "USA",
        "motto": null,
        "rookie_year": 2017
    },
    {
        "website": null,
        "name": "Lamphere High School",
        "locality": "Madison Heights",
        "nickname": "Lamphere Robotics",
        "region": "Michigan",
        "team_number": 6566,
        "location": "Madison Heights, Michigan 48071, USA",
        "key": "frc6566",
        "country_name": "USA",
        "motto": null,
        "rookie_year": 2017
    },
    {
        "website": null,
        "name": "Lake Shore High School",
        "locality": "Saint Clair Shores",
        "nickname": "Lake Shore High School ",
        "region": "Michigan",
        "team_number": 6567,
        "location": "Saint Clair Shores, Michigan 48082, USA",
        "key": "frc6567",
        "country_name": "USA",
        "motto": null,
        "rookie_year": 2017
    },
    {
        "website": null,
        "name": "Decatur High School",
        "locality": "Decatur",
        "nickname": "Decatur Robotics Team",
        "region": "Michigan",
        "team_number": 6568,
        "location": "Decatur, Michigan 49045, USA",
        "key": "frc6568",
        "country_name": "USA",
        "motto": null,
        "rookie_year": 2017
    },
    {
        "website": null,
        "name": "Ontonagon Area Jr/Sr High School",
        "locality": "Ontonagon",
        "nickname": "Gladiators",
        "region": "Michigan",
        "team_number": 6569,
        "location": "Ontonagon, Michigan 49953, USA",
        "key": "frc6569",
        "country_name": "USA",
        "motto": null,
        "rookie_year": 2017
    },
    {
        "website": null,
        "name": "Whiteford High School",
        "locality": "Ottawa Lake",
        "nickname": "Whiteford Bobcats",
        "region": "Michigan",
        "team_number": 6570,
        "location": "Ottawa Lake, Michigan 49267, USA",
        "key": "frc6570",
        "country_name": "USA",
        "motto": null,
        "rookie_year": 2017
    },
    {
        "website": null,
        "name": "Lakeview High School",
        "locality": "Lakeview",
        "nickname": "Lakeview Wildcats",
        "region": "Michigan",
        "team_number": 6571,
        "location": "Lakeview, Michigan 48850, USA",
        "key": "frc6571",
        "country_name": "USA",
        "motto": null,
        "rookie_year": 2017
    },
    {
        "website": null,
        "name": "Forest Area High School",
        "locality": "Fife Lake",
        "nickname": "Forest Area",
        "region": "Michigan",
        "team_number": 6572,
        "location": "Fife Lake, Michigan 49633, USA",
        "key": "frc6572",
        "country_name": "USA",
        "motto": null,
        "rookie_year": 2017
    },
    {
        "website": null,
        "name": "Alanson Public School",
        "locality": "Alanson",
        "nickname": "Alanson Vikings",
        "region": "Michigan",
        "team_number": 6573,
        "location": "Alanson, Michigan 49706, USA",
        "key": "frc6573",
        "country_name": "USA",
        "motto": null,
        "rookie_year": 2017
    },
    {
        "website": "http://www.whs.wwusd.org/page/4572",
        "name": "Argosy Foundation/Kiwanis Whitewater Breakfast Club/Whitewater Kiwanis Foundation/MacLean-Fogg Component Solutions/Whitewater Manufacturing/HSI Rentals/Greater Whitewater Committee, Inc./Home Lumber/Kachel Financial Group/Dirk Maroske/Anonymous Community Members/Generac Power Systems/First Citizens State Bank/Wisconsin Makers&Whitewater High",
        "locality": "Whitewater",
        "nickname": "Ferradermis",
        "region": "Wisconsin",
        "team_number": 6574,
        "location": "Whitewater, Wisconsin 53190, USA",
        "key": "frc6574",
        "country_name": "USA",
        "motto": null,
        "rookie_year": 2017
    },
    {
        "website": null,
        "name": "Tempe High School",
        "locality": "Tempe",
        "nickname": "Tempe T-Rex",
        "region": "New South Wales",
        "team_number": 6575,
        "location": "Tempe, New South Wales 2044, Australia",
        "key": "frc6575",
        "country_name": "Australia",
        "motto": null,
        "rookie_year": 2017
    },
    {
        "website": null,
        "name": "High School Science Education",
        "locality": "Hanoi",
        "nickname": "High School Science Education",
        "region": "Ha Noi",
        "team_number": 6576,
        "location": "Hanoi, Ha Noi 10000, Vietnam",
        "key": "frc6576",
        "country_name": "Vietnam",
        "motto": null,
        "rookie_year": 2017
    },
    {
        "website": null,
        "name": "FRC Team 3132 & South City International School",
        "locality": "Kolkata",
        "nickname": "South City International School",
        "region": "West Bengal",
        "team_number": 6577,
        "location": "Kolkata, West Bengal 700068, India",
        "key": "frc6577",
        "country_name": "India",
        "motto": null,
        "rookie_year": 2017
    },
    {
        "website": null,
        "name": "G D Goenka",
        "locality": "New Delhi",
        "nickname": "G D Goenka",
        "region": "Delhi",
        "team_number": 6578,
        "location": "New Delhi, Delhi 110075, India",
        "key": "frc6578",
        "country_name": "India",
        "motto": null,
        "rookie_year": 2017
    },
    {
        "website": "http://kompletekaos.org/",
        "name": "Komplete Kaos Inc",
        "locality": "Helensburgh",
        "nickname": "Komplete Kaos Inc",
        "region": "New South Wales",
        "team_number": 6579,
        "location": "Helensburgh, New South Wales 2508, Australia",
        "key": "frc6579",
        "country_name": "Australia",
        "motto": null,
        "rookie_year": 2017
    },
    {
        "website": null,
        "name": "Marshall Academy",
        "locality": "Marshall",
        "nickname": "Griffons",
        "region": "Michigan",
        "team_number": 6580,
        "location": "Marshall, Michigan 49068, USA",
        "key": "frc6580",
        "country_name": "USA",
        "motto": null,
        "rookie_year": 2017
    },
    {
        "website": null,
        "name": "Hancock Central High School",
        "locality": "Hancock",
        "nickname": "Hancock Bulldogs ",
        "region": "Michigan",
        "team_number": 6581,
        "location": "Hancock, Michigan 49930, USA",
        "key": "frc6581",
        "country_name": "USA",
        "motto": null,
        "rookie_year": 2017
    },
    {
        "website": "http:// www.vestabots6582.weebly.com",
        "name": "Michigan Department of Education/Aggressive Tooling, Inc./Edmore Electric&Vestaburg Community High School",
        "locality": "Vestaburg",
        "nickname": "Vestabots",
        "region": "Michigan",
        "team_number": 6582,
        "location": "Vestaburg, Michigan 48891, USA",
        "key": "frc6582",
        "country_name": "USA",
        "motto": null,
        "rookie_year": 2017
    },
    {
        "website": null,
        "name": "New School High",
        "locality": "Plymouth",
        "nickname": "Human Error",
        "region": "Michigan",
        "team_number": 6583,
        "location": "Plymouth, Michigan 48170, USA",
        "key": "frc6583",
        "country_name": "USA",
        "motto": null,
        "rookie_year": 2017
    },
    {
        "website": "http://www.academyoftheholycross.org/",
        "name": "NASA/Valboost/ATI (Ascend through Innovation)/Close.io/1st Choice Collision/Montgomery Adult Day Care&Academy of the Holy Cross",
        "locality": "Kensington",
        "nickname": "AHC Transformers",
        "region": "Maryland",
        "team_number": 6584,
        "location": "Kensington, Maryland 20895, USA",
        "key": "frc6584",
        "country_name": "USA",
        "motto": null,
        "rookie_year": 2017
    },
    {
        "website": null,
        "name": "AZFirst/Steve Sanghi Family Foundation/James. A. Unruh Family Foundation&Many Farms High School",
        "locality": "Many Farms",
        "nickname": "Lobotron",
        "region": "Arizona",
        "team_number": 6585,
        "location": "Many Farms, Arizona 86538, USA",
        "key": "frc6585",
        "country_name": "USA",
        "motto": null,
        "rookie_year": 2017
    },
    {
        "website": null,
        "name": "Arkansas High School",
        "locality": "Texarkana",
        "nickname": "Arkansas High School",
        "region": "Arkansas",
        "team_number": 6586,
        "location": "Texarkana, Arkansas 71854, USA",
        "key": "frc6586",
        "country_name": "USA",
        "motto": null,
        "rookie_year": 2017
    },
    {
        "website": null,
        "name": "Will Carleton Charter School Academy",
        "locality": "Hillsdale",
        "nickname": "WCA Cougars",
        "region": "Michigan",
        "team_number": 6587,
        "location": "Hillsdale, Michigan 49242, USA",
        "key": "frc6587",
        "country_name": "USA",
        "motto": null,
        "rookie_year": 2017
    },
    {
        "website": "http://www.lawtoncs.org",
        "name": "Lawton High School",
        "locality": "Lawton",
        "nickname": "Lawton High School",
        "region": "Michigan",
        "team_number": 6588,
        "location": "Lawton, Michigan 49065, USA",
        "key": "frc6588",
        "country_name": "USA",
        "motto": null,
        "rookie_year": 2017
    },
    {
        "website": null,
        "name": "Sollman & Sons Mold & Tool Inc&Bloomingdale Middle and High School",
        "locality": "Bloomingdale",
        "nickname": "Cardinal.EXE",
        "region": "Michigan",
        "team_number": 6589,
        "location": "Bloomingdale, Michigan 49026, USA",
        "key": "frc6589",
        "country_name": "USA",
        "motto": null,
        "rookie_year": 2017
    },
    {
        "website": null,
        "name": "Transit Tech CTE High School",
        "locality": "Brooklyn",
        "nickname": "SaviTech",
        "region": "New York",
        "team_number": 6590,
        "location": "Brooklyn, New York 11208, USA",
        "key": "frc6590",
        "country_name": "USA",
        "motto": null,
        "rookie_year": 2017
    },
    {
        "website": null,
        "name": "Chem Trend/Alro Steel/Alro Plastics/Boss Engineering/DeMint Graphics/Carney Automotive/SRSLY/A.C. Allen/52 Landscape/Abbot & Fillmore - InsuranceMichigan.com/L & B Outlet&Stockbridge High School",
        "locality": "Stockbridge",
        "nickname": "Stockbridge Panthers",
        "region": "Michigan",
        "team_number": 6591,
        "location": "Stockbridge, Michigan 49285, USA",
        "key": "frc6591",
        "country_name": "USA",
        "motto": null,
        "rookie_year": 2017
    },
    {
        "website": null,
        "name": "Chem-Trend/Padnos&J.W. Sexton High School",
        "locality": "Lansing",
        "nickname": "Sexton Redbots",
        "region": "Michigan",
        "team_number": 6592,
        "location": "Lansing, Michigan 48915, USA",
        "key": "frc6592",
        "country_name": "USA",
        "motto": null,
        "rookie_year": 2017
    },
    {
        "website": null,
        "name": "Richmond Hill High School",
        "locality": "Richmond Hill",
        "nickname": "Lions",
        "region": "New York",
        "team_number": 6593,
        "location": "Richmond Hill, New York 11418, USA",
        "key": "frc6593",
        "country_name": "USA",
        "motto": null,
        "rookie_year": 2017
    },
    {
        "website": null,
        "name": "Everett High School",
        "locality": "Lansing",
        "nickname": "VIKINGS NATION",
        "region": "Michigan",
        "team_number": 6594,
        "location": "Lansing, Michigan 48911, USA",
        "key": "frc6594",
        "country_name": "USA",
        "motto": null,
        "rookie_year": 2017
    },
    {
        "website": null,
        "name": "Eastern High School",
        "locality": "Lansing",
        "nickname": "QUAKE",
        "region": "Michigan",
        "team_number": 6595,
        "location": "Lansing, Michigan 48915, USA",
        "key": "frc6595",
        "country_name": "USA",
        "motto": null,
        "rookie_year": 2017
    },
    {
        "website": null,
        "name": "Ashley High School",
        "locality": "Ashley",
        "nickname": "Ashley BearBots",
        "region": "Michigan",
        "team_number": 6596,
        "location": "Ashley, Michigan 48806, USA",
        "key": "frc6596",
        "country_name": "USA",
        "motto": null,
        "rookie_year": 2017
    },
    {
        "website": null,
        "name": "Saginaw Learn to Earn Academy",
        "locality": "Saginaw",
        "nickname": "Eagles",
        "region": "Michigan",
        "team_number": 6597,
        "location": "Saginaw, Michigan 48603, USA",
        "key": "frc6597",
        "country_name": "USA",
        "motto": null,
        "rookie_year": 2017
    },
    {
        "website": null,
        "name": "Northport Public School",
        "locality": "Northport",
        "nickname": "Northport Wildcats",
        "region": "Michigan",
        "team_number": 6599,
        "location": "Northport, Michigan 49670, USA",
        "key": "frc6599",
        "country_name": "USA",
        "motto": null,
        "rookie_year": 2017
    },
    {
        "website": null,
        "name": "Baldwin Senior High School",
        "locality": "Baldwin",
        "nickname": "Baldwin Panthers",
        "region": "Michigan",
        "team_number": 6600,
        "location": "Baldwin, Michigan 49304, USA",
        "key": "frc6600",
        "country_name": "USA",
        "motto": null,
        "rookie_year": 2017
    },
    {
        "website": null,
        "name": "Family/Community",
        "locality": "Staten Island",
        "nickname": "Easy Company",
        "region": "New York",
        "team_number": 6601,
        "location": "Staten Island, New York 10309, USA",
        "key": "frc6601",
        "country_name": "USA",
        "motto": null,
        "rookie_year": 2017
    },
    {
        "website": null,
        "name": "Mt St Mary Academy",
        "locality": "Little Rock",
        "nickname": "Belle Bots",
        "region": "Arkansas",
        "team_number": 6602,
        "location": "Little Rock, Arkansas 72205, USA",
        "key": "frc6602",
        "country_name": "USA",
        "motto": null,
        "rookie_year": 2017
    },
    {
        "website": null,
        "name": "SOUTH EAST CORNERSTONE SCHOOL DIVISION 209",
        "locality": "Weyburn",
        "nickname": "Cornerstone Crushers",
        "region": "Saskatchewan",
        "team_number": 6603,
        "location": "Weyburn, Saskatchewan S4H 2W4, Canada",
        "key": "frc6603",
        "country_name": "Canada",
        "motto": null,
        "rookie_year": 2017
    },
    {
        "website": null,
        "name": "Argosy Foundation/Eurodrip /Antartic ice/Industrias Recio&UNIVERSIDAD TECMILENIO CAMPUS CULIACAN",
        "locality": "CULIACAN",
        "nickname": "ITAC",
        "region": "Sinaloa",
        "team_number": 6604,
        "location": "CULIACAN, Sinaloa 80100, Mexico",
        "key": "frc6604",
        "country_name": "Mexico",
        "motto": null,
        "rookie_year": 2017
    },
    {
        "website": null,
        "name": "Universidad Tecmilenio Campus Cuernavaca",
        "locality": "Cuernavaca",
        "nickname": "SynergyCuernavaca",
        "region": "Morelos",
        "team_number": 6605,
        "location": "Cuernavaca, Morelos 62589 , Mexico",
        "key": "frc6605",
        "country_name": "Mexico",
        "motto": null,
        "rookie_year": 2017
    },
    {
        "website": null,
        "name": "Universidad Tecmilenio Campus Toluca/General Motors M\u00e9xico/Boeing/Solidworks/Rockwell Automation/Argosy Foundation/SimpleWater/CNCMEXICO/EQUALITY/RIDGID/PINKHAWKS MENTORS&UNIVERSIDAD TECMILENIO ",
        "locality": "Metepec",
        "nickname": "PINK HAWKS",
        "region": "Mexico",
        "team_number": 6606,
        "location": "Metepec, Mexico 52172, Mexico",
        "key": "frc6606",
        "country_name": "Mexico",
        "motto": null,
        "rookie_year": 2017
    },
    {
        "website": null,
        "name": "Universidad Tecmilenio Campus Veracruz",
        "locality": "Veracruz",
        "nickname": "ARMY ROBOT TECHNOLOGY",
        "region": "Veracruz",
        "team_number": 6607,
        "location": "Veracruz, Veracruz 95263, Mexico",
        "key": "frc6607",
        "country_name": "Mexico",
        "motto": null,
        "rookie_year": 2017
    },
    {
        "website": null,
        "name": "UNIVERSIDAD TECMILENIO CAMPUS GUADALAJARA SUR",
        "locality": "Tlaquepaque",
        "nickname": "ARCADIA",
        "region": "Jalisco",
        "team_number": 6608,
        "location": "Tlaquepaque, Jalisco 45530, Mexico",
        "key": "frc6608",
        "country_name": "Mexico",
        "motto": null,
        "rookie_year": 2017
    },
    {
        "website": "http://Suwannee Robotics  (facebook)",
        "name": "Suwannee High School",
        "locality": "Live Oak",
        "nickname": "Suwannee Bulldogs",
        "region": "Florida",
        "team_number": 6609,
        "location": "Live Oak, Florida 32064, USA",
        "key": "frc6609",
        "country_name": "USA",
        "motto": null,
        "rookie_year": 2017
    },
    {
        "website": null,
        "name": "Bendle High School",
        "locality": "Burton",
        "nickname": "Robot Roll Call",
        "region": "Michigan",
        "team_number": 6610,
        "location": "Burton, Michigan 48529, USA",
        "key": "frc6610",
        "country_name": "USA",
        "motto": null,
        "rookie_year": 2017
    },
    {
        "website": null,
        "name": "Au Gres-Sims Middle and High School",
        "locality": "Au Gres",
        "nickname": "Au Gres Robotics",
        "region": "Michigan",
        "team_number": 6611,
        "location": "Au Gres, Michigan 48703, USA",
        "key": "frc6611",
        "country_name": "USA",
        "motto": null,
        "rookie_year": 2017
    },
    {
        "website": null,
        "name": "Deer Valley High",
        "locality": "Antioch",
        "nickname": "Tech NO Logic",
        "region": "California",
        "team_number": 6612,
        "location": "Antioch, California 94531, USA",
        "key": "frc6612",
        "country_name": "USA",
        "motto": null,
        "rookie_year": 2017
    },
    {
        "website": null,
        "name": "Hurley High",
        "locality": "Hurley",
        "nickname": "Gogebic Range Robotics",
        "region": "Wisconsin",
        "team_number": 6613,
        "location": "Hurley, Wisconsin 54534, USA",
        "key": "frc6613",
        "country_name": "USA",
        "motto": null,
        "rookie_year": 2017
    },
    {
        "website": "http://www.robotedist.org",
        "name": "TED \u0130STANBUL KOLEJ\u0130 VAKFI \u00d6ZEL \u00d6\u011eRET\u0130M KURUMLARI \u0130KT\u0130SAD\u0130 \u0130\u015eLETMES\u0130&TED ISTANBUL COLLEGE FOUNDATION PRIVATE HIGH SCHOOL",
        "locality": "\u0130STANBUL",
        "nickname": "ROBOTEDIST",
        "region": "Istanbul",
        "team_number": 6614,
        "location": "\u0130STANBUL, Istanbul 34800, Turkey",
        "key": "frc6614",
        "country_name": "Turkey",
        "motto": null,
        "rookie_year": 2017
    },
    {
        "website": null,
        "name": "Belleville High School",
        "locality": "Belleville",
        "nickname": "Belleville Tigers",
        "region": "Michigan",
        "team_number": 6615,
        "location": "Belleville, Michigan 48111, USA",
        "key": "frc6615",
        "country_name": "USA",
        "motto": null,
        "rookie_year": 2017
    },
    {
        "website": null,
        "name": "Western International High School",
        "locality": "Detroit",
        "nickname": "Mechanical Pumas",
        "region": "Michigan",
        "team_number": 6616,
        "location": "Detroit, Michigan 48209, USA",
        "key": "frc6616",
        "country_name": "USA",
        "motto": null,
        "rookie_year": 2017
    },
    {
        "website": null,
        "name": "Bellingham High School",
        "locality": "Bellingham",
        "nickname": "Bellinghan High School Black Hawks Robotics Club",
        "region": "Massachusetts",
        "team_number": 6617,
        "location": "Bellingham, Massachusetts 02019, USA",
        "key": "frc6617",
        "country_name": "USA",
        "motto": null,
        "rookie_year": 2017
    },
    {
        "website": null,
        "name": "Flat Rock Community High School",
        "locality": "Flat Rock",
        "nickname": "Flat Rock Rams",
        "region": "Michigan",
        "team_number": 6618,
        "location": "Flat Rock, Michigan 48134, USA",
        "key": "frc6618",
        "country_name": "USA",
        "motto": null,
        "rookie_year": 2017
    },
    {
        "website": "http://www.gravitechx.org/",
        "name": "Livermore High",
        "locality": "Livermore",
        "nickname": "GravitechX",
        "region": "California",
        "team_number": 6619,
        "location": "Livermore, California 94551, USA",
        "key": "frc6619",
        "country_name": "USA",
        "motto": null,
        "rookie_year": 2017
    },
    {
        "website": "https://sites.google.com/site/roboticsinnshs/home",
        "name": "National Marker Corporation/NASA/Control Automation Group&North Smithfield High School",
        "locality": "Slatersville",
        "nickname": "The Northmen",
        "region": "Rhode Island",
        "team_number": 6620,
        "location": "Slatersville, Rhode Island 02876, USA",
        "key": "frc6620",
        "country_name": "USA",
        "motto": null,
        "rookie_year": 2017
    },
    {
        "website": "http://fischer-science.weebly.com/",
        "name": "Chatham High School",
        "locality": "Chatham",
        "nickname": "Artemis Robotics Team (ART)",
        "region": "New York",
        "team_number": 6621,
        "location": "Chatham, New York 12037, USA",
        "key": "frc6621",
        "country_name": "USA",
        "motto": null,
        "rookie_year": 2017
    },
    {
        "website": null,
        "name": "Fondation du Coll\u00e8ge Stanislas/ApescM/Argosy Foundation&COLLEGE STANISLAS",
        "locality": "Outremont",
        "nickname": "Stan Robotix",
        "region": "Qu\u00e9bec",
        "team_number": 6622,
        "location": "Outremont, Qu\u00e9bec H2V 3G5, Canada",
        "key": "frc6622",
        "country_name": "Canada",
        "motto": null,
        "rookie_year": 2017
    },
    {
        "website": null,
        "name": "Ecole Sup\u00e9rieure de G\u00e9nie Civil et des Nouvelles Technologies",
        "locality": "Mekn\u00e8s",
        "nickname": "Robot Maroc",
        "region": "Mekn\u00e8s",
        "team_number": 6623,
        "location": "Mekn\u00e8s, Mekn\u00e8s 5000, Morocco",
        "key": "frc6623",
        "country_name": "Morocco",
        "motto": null,
        "rookie_year": 2017
    },
    {
        "website": null,
        "name": "Marinette High",
        "locality": "Marinette",
        "nickname": "Marinette RoboMarines",
        "region": "Wisconsin",
        "team_number": 6624,
        "location": "Marinette, Wisconsin 54143, USA",
        "key": "frc6624",
        "country_name": "USA",
        "motto": null,
        "rookie_year": 2017
    },
    {
        "website": null,
        "name": "\u0130MM\u0130B Erkan Avc\u0131 Mesleki ve Teknik Anadolu Lisesi",
        "locality": "\u0130stanbul",
        "nickname": "\u0130EA Robotics",
        "region": "Istanbul",
        "team_number": 6625,
        "location": "\u0130stanbul, Istanbul 34180, Turkey",
        "key": "frc6625",
        "country_name": "Turkey",
        "motto": null,
        "rookie_year": 2017
    },
    {
        "website": null,
        "name": "Andrews High",
        "locality": "Andrews",
        "nickname": "Andrews High School",
        "region": "South Carolina",
        "team_number": 6626,
        "location": "Andrews, South Carolina 29510, USA",
        "key": "frc6626",
        "country_name": "USA",
        "motto": null,
        "rookie_year": 2017
    },
    {
        "website": "http://www.nordic-knights.com",
        "name": "Cottage Inn Pizza of Niles&Niles Senior High School",
        "locality": "Niles",
        "nickname": "Niles Career Tech Robotics",
        "region": "Michigan",
        "team_number": 6627,
        "location": "Niles, Michigan 49120, USA",
        "key": "frc6627",
        "country_name": "USA",
        "motto": null,
        "rookie_year": 2017
    },
    {
        "website": null,
        "name": "Argosy Foundation/Geoff Martha - Medtronic Executive&Kerkhoven Secondary",
        "locality": "Kerkhoven",
        "nickname": "KMS ROBOTICS",
        "region": "Minnesota",
        "team_number": 6628,
        "location": "Kerkhoven, Minnesota 56252, USA",
        "key": "frc6628",
        "country_name": "USA",
        "motto": null,
        "rookie_year": 2017
    },
    {
        "website": null,
        "name": "Concord Academy:Boyne",
        "locality": "Boyne City",
        "nickname": "Concord Boyne Kestrels",
        "region": "Michigan",
        "team_number": 6629,
        "location": "Boyne City, Michigan 49712, USA",
        "key": "frc6629",
        "country_name": "USA",
        "motto": null,
        "rookie_year": 2017
    },
    {
        "website": "https://www.facebook.com/Union-Knights-Robotics-FRC-Team-286031215076524/",
        "name": "John Deere/FIRST/Leighty Fund/DuPont Pioneer \u2013 Hanson Seed&Union High School",
        "locality": "La Porte City",
        "nickname": "F.U.N.  (FieRCely Uknighted Nation)",
        "region": "Iowa",
        "team_number": 6630,
        "location": "La Porte City, Iowa 50651, USA",
        "key": "frc6630",
        "country_name": "USA",
        "motto": null,
        "rookie_year": 2017
    },
    {
        "website": null,
        "name": "Reese High School",
        "locality": "Reese",
        "nickname": "Reese Rockets High School Robotics",
        "region": "Michigan",
        "team_number": 6631,
        "location": "Reese, Michigan 48757, USA",
        "key": "frc6631",
        "country_name": "USA",
        "motto": null,
        "rookie_year": 2017
    },
    {
        "website": null,
        "name": "Northview Heights Secondary School",
        "locality": "Toronto",
        "nickname": "NHSS Robotics",
        "region": "Ontario",
        "team_number": 6632,
        "location": "Toronto, Ontario M2R1N6, Canada",
        "key": "frc6632",
        "country_name": "Canada",
        "motto": null,
        "rookie_year": 2017
    },
    {
        "website": null,
        "name": "Detroit Delta Preparatory Academy for Social Justice",
        "locality": "Detroit",
        "nickname": "Robo-Elephants",
        "region": "Michigan",
        "team_number": 6633,
        "location": "Detroit, Michigan 48223, USA",
        "key": "frc6633",
        "country_name": "USA",
        "motto": null,
        "rookie_year": 2017
    },
    {
        "website": "https://www.facebook.com/6634phoenixforces/?fref=ts",
        "name": "HQ ROOKIE GRANT/BOEING&Universidad Tecmilenio Campus San Nicol\u00e1s ",
        "locality": "San Nicol\u00e1s de los Garza",
        "nickname": "Phoenix Forces 6634",
        "region": "Nuevo Le\u00f3n",
        "team_number": 6634,
        "location": "San Nicol\u00e1s de los Garza, Nuevo Le\u00f3n 66460, Mexico",
        "key": "frc6634",
        "country_name": "Mexico",
        "motto": null,
        "rookie_year": 2017
    },
    {
        "website": null,
        "name": "Jackson Preparatory & Early College",
        "locality": "Jackson",
        "nickname": "JPEC Falcons",
        "region": "Michigan",
        "team_number": 6635,
        "location": "Jackson, Michigan 49201, USA",
        "key": "frc6635",
        "country_name": "USA",
        "motto": null,
        "rookie_year": 2017
    },
    {
        "website": null,
        "name": "NASA&Jamaica Gateway to the Sciences",
        "locality": "Jamaica",
        "nickname": "Full Metal Beavers",
        "region": "New York",
        "team_number": 6636,
        "location": "Jamaica, New York 11432, USA",
        "key": "frc6636",
        "country_name": "USA",
        "motto": null,
        "rookie_year": 2017
    },
    {
        "website": null,
        "name": "Carney-Nadeau School",
        "locality": "Carney",
        "nickname": "Wolf Robotics",
        "region": "Michigan",
        "team_number": 6637,
        "location": "Carney, Michigan 49812, USA",
        "key": "frc6637",
        "country_name": "USA",
        "motto": null,
        "rookie_year": 2017
    },
    {
        "website": null,
        "name": "Fulton High School",
        "locality": "Middleton",
        "nickname": "Fulton Pirates",
        "region": "Michigan",
        "team_number": 6638,
        "location": "Middleton, Michigan 48856, USA",
        "key": "frc6638",
        "country_name": "USA",
        "motto": null,
        "rookie_year": 2017
    },
    {
        "website": null,
        "name": "Duke Energy &Saint Stephens High",
        "locality": "Hickory",
        "nickname": "Mechanical Minds ",
        "region": "North Carolina",
        "team_number": 6639,
        "location": "Hickory, North Carolina 28601, USA",
        "key": "frc6639",
        "country_name": "USA",
        "motto": null,
        "rookie_year": 2017
    },
    {
        "website": null,
        "name": "Arkansas FIRST  Incorporate/Exxon Mobile/Molex&Mayflower High School",
        "locality": "Mayflower",
        "nickname": "Metal Eagles",
        "region": "Arkansas",
        "team_number": 6640,
        "location": "Mayflower, Arkansas 72106, USA",
        "key": "frc6640",
        "country_name": "USA",
        "motto": null,
        "rookie_year": 2017
    },
    {
        "website": null,
        "name": "Galatasaray High School",
        "locality": "Istanbul",
        "nickname": "GSLRobotX",
        "region": "Istanbul",
        "team_number": 6641,
        "location": "Istanbul, Istanbul 34433, Turkey",
        "key": "frc6641",
        "country_name": "Turkey",
        "motto": null,
        "rookie_year": 2017
    },
    {
        "website": null,
        "name": "Harrison Community High School",
        "locality": "Harrison",
        "nickname": "Harrison Hornets",
        "region": "Michigan",
        "team_number": 6642,
        "location": "Harrison, Michigan 48625, USA",
        "key": "frc6642",
        "country_name": "USA",
        "motto": null,
        "rookie_year": 2017
    },
    {
        "website": null,
        "name": "Walden Iii High",
        "locality": "Racine",
        "nickname": "Walnuts and Bolts",
        "region": "Wisconsin",
        "team_number": 6643,
        "location": "Racine, Wisconsin 53405, USA",
        "key": "frc6643",
        "country_name": "USA",
        "motto": null,
        "rookie_year": 2017
    },
    {
        "website": null,
        "name": "Rocklin High",
        "locality": "Rocklin",
        "nickname": "Atomic Automatons",
        "region": "California",
        "team_number": 6644,
        "location": "Rocklin, California 95765, USA",
        "key": "frc6644",
        "country_name": "USA",
        "motto": null,
        "rookie_year": 2017
    },
    {
        "website": null,
        "name": "Texas Workforce Commision/Bezos Family Foundation&Crosby High School",
        "locality": "Crosby",
        "nickname": "Alloy Obsession",
        "region": "Texas",
        "team_number": 6645,
        "location": "Crosby, Texas 77532, USA",
        "key": "frc6645",
        "country_name": "USA",
        "motto": null,
        "rookie_year": 2017
    },
    {
        "website": null,
        "name": "Henry T Waskow H S",
        "locality": "Belton",
        "nickname": "Belton New Tech High School",
        "region": "Texas",
        "team_number": 6646,
        "location": "Belton, Texas 76513, USA",
        "key": "frc6646",
        "country_name": "USA",
        "motto": null,
        "rookie_year": 2017
    },
    {
        "website": "http://voltec6647.mx/",
        "name": "GM/I-CTEC/NEXON/Ferro Alloys de M\u00e9xico SA de CV/Sieena Software S. de R.L. de C.V./Sigma Alimentos&ITESM PREPA TEC EUGENIO GARZA LAGUERA Y VALLE ALTO",
        "locality": "MONTERREY",
        "nickname": "Voltec Robotics",
        "region": "Nuevo Le\u00f3n",
        "team_number": 6647,
        "location": "MONTERREY, Nuevo Le\u00f3n 64890, Mexico",
        "key": "frc6647",
        "country_name": "Mexico",
        "motto": null,
        "rookie_year": 2017
    },
    {
        "website": null,
        "name": "John Adams High School",
        "locality": "Ozone Park",
        "nickname": "John Adams High School",
        "region": "New York",
        "team_number": 6648,
        "location": "Ozone Park, New York 11417, USA",
        "key": "frc6648",
        "country_name": "USA",
        "motto": null,
        "rookie_year": 2017
    },
    {
        "website": null,
        "name": "C.O.O.R. Isd",
        "locality": "Saint Helen",
        "nickname": "Charlton Heston Academy",
        "region": "Michigan",
        "team_number": 6649,
        "location": "Saint Helen, Michigan 48656, USA",
        "key": "frc6649",
        "country_name": "USA",
        "motto": null,
        "rookie_year": 2017
    },
    {
        "website": null,
        "name": "Fresno High",
        "locality": "Fresno",
        "nickname": "Tribebots",
        "region": "California",
        "team_number": 6650,
        "location": "Fresno, California 93704, USA",
        "key": "frc6650",
        "country_name": "USA",
        "motto": null,
        "rookie_year": 2017
    },
    {
        "website": null,
        "name": "Sterling High School",
        "locality": "Sterling",
        "nickname": "Golden Bots",
        "region": "Illinois",
        "team_number": 6651,
        "location": "Sterling, Illinois 61081, USA",
        "key": "frc6651",
        "country_name": "USA",
        "motto": null,
        "rookie_year": 2017
    },
    {
        "website": "http://www.tigrerobotics.com",
        "name": " Bendix Commercial Vehicle Systems/OverClockers IT  & Universidad Autonoma de Nuevo Le\u00f3n & Facultad de Ingenier\u00eda Mec\u00e1nica y El\u00e9ctrica",
        "locality": "Monterrey",
        "nickname": "TigreRobotics",
        "region": "Nuevo Le\u00f3n",
        "team_number": 6652,
        "location": "Monterrey, Nuevo Le\u00f3n 66451, Mexico",
        "key": "frc6652",
        "country_name": "Mexico",
        "motto": null,
        "rookie_year": 2017
    },
    {
        "website": null,
        "name": "West Wyalong High School",
        "locality": "West Wyalong",
        "nickname": "West Wyalong",
        "region": "New South Wales",
        "team_number": 6653,
        "location": "West Wyalong, New South Wales 2671, Australia",
        "key": "frc6653",
        "country_name": "Australia",
        "motto": null,
        "rookie_year": 2017
    },
    {
        "website": null,
        "name": "Central High School",
        "locality": "Knoxville",
        "nickname": "Central Robobcatics",
        "region": "Tennessee",
        "team_number": 6654,
        "location": "Knoxville, Tennessee 37918, USA",
        "key": "frc6654",
        "country_name": "USA",
        "motto": null,
        "rookie_year": 2017
    },
    {
        "website": null,
        "name": "Texas Workforce Comission/Lockheed Martin&Sam Houston H S",
        "locality": "Arlington",
        "nickname": "Texan Robotics",
        "region": "Texas",
        "team_number": 6655,
        "location": "Arlington, Texas 76014, USA",
        "key": "frc6655",
        "country_name": "USA",
        "motto": null,
        "rookie_year": 2017
    },
    {
        "website": null,
        "name": "Payson Pet Club/Payson Concrete and Materials /Smart Systems /Sam and Barbara Brewer/Threads Local Print Shop Payson /Safeway Payson/Payson Elks/Anderson Dental/Sawmill Theatre/Notary Services of Payson/Wal-Mart Payson/Rim Country Pet Salon&Payson Center for Success High School",
        "locality": "Payson",
        "nickname": "Ryu Botics",
        "region": "Arizona",
        "team_number": 6656,
        "location": "Payson, Arizona 85541, USA",
        "key": "frc6656",
        "country_name": "USA",
        "motto": null,
        "rookie_year": 2017
    },
    {
        "website": null,
        "name": "University Preparatory High",
        "locality": "Visalia",
        "nickname": "University Prep High School Robotics Team",
        "region": "California",
        "team_number": 6657,
        "location": "Visalia, California 93277, USA",
        "key": "frc6657",
        "country_name": "USA",
        "motto": null,
        "rookie_year": 2017
    },
    {
        "website": null,
        "name": "Boeing&Eagle Rock High",
        "locality": "Los Angeles",
        "nickname": "Rockbotics",
        "region": "California",
        "team_number": 6658,
        "location": "Los Angeles, California 90041, USA",
        "key": "frc6658",
        "country_name": "USA",
        "motto": null,
        "rookie_year": 2017
    },
    {
        "website": null,
        "name": "Escondido High",
        "locality": "Escondido",
        "nickname": "Cougar Robotics",
        "region": "California",
        "team_number": 6659,
        "location": "Escondido, California 92026, USA",
        "key": "frc6659",
        "country_name": "USA",
        "motto": null,
        "rookie_year": 2017
    },
    {
        "website": "http://stem.nerinxhs.org",
        "name": "Nerinx Hall High School",
        "locality": "Saint Louis",
        "nickname": "MarkerBots",
        "region": "Missouri",
        "team_number": 6660,
        "location": "Saint Louis, Missouri 63119, USA",
        "key": "frc6660",
        "country_name": "USA",
        "motto": null,
        "rookie_year": 2017
    },
    {
        "website": null,
        "name": "MARC GARNEAU COLLEGIATE INSTITUTE",
        "locality": "North York",
        "nickname": "Polaris",
        "region": "Ontario",
        "team_number": 6661,
        "location": "North York, Ontario M3C 1B3, Canada",
        "key": "frc6661",
        "country_name": "Canada",
        "motto": null,
        "rookie_year": 2017
    },
    {
        "website": null,
        "name": "College Park High",
        "locality": "Pleasant Hill",
        "nickname": "E.W.A. (Engineers with Attitude)",
        "region": "California",
        "team_number": 6662,
        "location": "Pleasant Hill, California 94523, USA",
        "key": "frc6662",
        "country_name": "USA",
        "motto": null,
        "rookie_year": 2017
    },
    {
        "website": null,
        "name": "Onamia Secondary",
        "locality": "Onamia",
        "nickname": "Kamikaze Krew",
        "region": "Minnesota",
        "team_number": 6663,
        "location": "Onamia, Minnesota 56359, USA",
        "key": "frc6663",
        "country_name": "USA",
        "motto": null,
        "rookie_year": 2017
    },
    {
        "website": null,
        "name": "DELL Corp.&Teenage Parent Prog",
        "locality": "Pharr",
        "nickname": "LADYBOTS",
        "region": "Texas",
        "team_number": 6664,
        "location": "Pharr, Texas 78577, USA",
        "key": "frc6664",
        "country_name": "USA",
        "motto": null,
        "rookie_year": 2017
    },
    {
        "website": null,
        "name": "NASA&Santa Catalina School",
        "locality": "Monterey",
        "nickname": "Nuns and Bolts",
        "region": "California",
        "team_number": 6665,
        "location": "Monterey, California 93940, USA",
        "key": "frc6665",
        "country_name": "USA",
        "motto": null,
        "rookie_year": 2017
    },
    {
        "website": "https://www.facebook.com/regiobots",
        "name": "Gobierno Municipio de Guadalupe Nuevo Le\u00f3n&Universidad Tecmilenio Campus Guadalupe",
        "locality": "Guadalupe",
        "nickname": "Regiobots",
        "region": "Nuevo Le\u00f3n",
        "team_number": 6666,
        "location": "Guadalupe, Nuevo Le\u00f3n 67190, Mexico",
        "key": "frc6666",
        "country_name": "Mexico",
        "motto": null,
        "rookie_year": 2017
    },
    {
        "website": null,
        "name": "STEM Academy at Showalter & STEM Academy at Showalter",
        "locality": "Chester",
        "nickname": "STEM Clippers",
        "region": "Pennsylvania",
        "team_number": 6667,
        "location": "Chester, Pennsylvania 19013, USA",
        "key": "frc6667",
        "country_name": "USA",
        "motto": null,
        "rookie_year": 2017
    },
    {
        "website": null,
        "name": "Hesperia High",
        "locality": "Hesperia",
        "nickname": "Scorpion ",
        "region": "California",
        "team_number": 6668,
        "location": "Hesperia, California 92345, USA",
        "key": "frc6668",
        "country_name": "USA",
        "motto": null,
        "rookie_year": 2017
    },
    {
        "website": null,
        "name": "Atlantic High School",
        "locality": "Delray Beach",
        "nickname": "ATL Eagles Robotics",
        "region": "Florida",
        "team_number": 6669,
        "location": "Delray Beach, Florida 33445, USA",
        "key": "frc6669",
        "country_name": "USA",
        "motto": null,
        "rookie_year": 2017
    },
    {
        "website": null,
        "name": "Bay View High",
        "locality": "Milwaukee",
        "nickname": "Red Cat Robots",
        "region": "Wisconsin",
        "team_number": 6670,
        "location": "Milwaukee, Wisconsin 53207, USA",
        "key": "frc6670",
        "country_name": "USA",
        "motto": null,
        "rookie_year": 2017
    },
    {
        "website": null,
        "name": "Diamond Hill-Jarvis H S",
        "locality": "Fort Worth",
        "nickname": "Adamas Robotics",
        "region": "Texas",
        "team_number": 6671,
        "location": "Fort Worth, Texas 76106, USA",
        "key": "frc6671",
        "country_name": "USA",
        "motto": null,
        "rookie_year": 2017
    },
    {
        "website": null,
        "name": "Cistercian Preparatory School",
        "locality": "Irving",
        "nickname": "Fusion Corps",
        "region": "Texas",
        "team_number": 6672,
        "location": "Irving, Texas 75039, USA",
        "key": "frc6672",
        "country_name": "USA",
        "motto": null,
        "rookie_year": 2017
    },
    {
        "website": null,
        "name": "Alexis Elementary Jr/Sr High School",
        "locality": "Glenevis",
        "nickname": "Alexis Tech Warriors",
        "region": "Alberta",
        "team_number": 6673,
        "location": "Glenevis, Alberta T0E0X0, Canada",
        "key": "frc6673",
        "country_name": "Canada",
        "motto": null,
        "rookie_year": 2017
    },
    {
        "website": null,
        "name": "Maricopa Institute of Technology",
        "locality": "Phoenix",
        "nickname": "MIT Iron Eagles",
        "region": "Arizona",
        "team_number": 6674,
        "location": "Phoenix, Arizona 85043, USA",
        "key": "frc6674",
        "country_name": "USA",
        "motto": null,
        "rookie_year": 2017
    },
    {
        "website": null,
        "name": "CREC Academy of Science and Innovation",
        "locality": "New Britain",
        "nickname": "Ingenious Innovators",
        "region": "Connecticut",
        "team_number": 6675,
        "location": "New Britain, Connecticut 06053, USA",
        "key": "frc6675",
        "country_name": "USA",
        "motto": null,
        "rookie_year": 2017
    },
    {
        "website": null,
        "name": "Universidad Tecmilenio Camp\u00fas Cd. Obreg\u00f3n",
        "locality": "Obreg\u00f3n",
        "nickname": "Thunder Hawks",
        "region": "Sonora",
        "team_number": 6676,
        "location": "Obreg\u00f3n, Sonora 85000, Mexico",
        "key": "frc6676",
        "country_name": "Mexico",
        "motto": null,
        "rookie_year": 2017
    },
    {
        "website": null,
        "name": "Pascagoula-Gautier School District/Argosy Foundation/Mississippi Power /New York Pizza-Pascagoula/Jerry Lee's Grocery - Pascagoula&Pascagoula High School&Pascagoula-Gautier College and Career Technical Instititute",
        "locality": "Pascagoula",
        "nickname": "Team Avengers",
        "region": "Mississippi",
        "team_number": 6677,
        "location": "Pascagoula, Mississippi 39567, USA",
        "key": "frc6677",
        "country_name": "USA",
        "motto": null,
        "rookie_year": 2017
    },
    {
        "website": null,
        "name": "Svendborg Tekniske Gymnasium",
        "locality": "Svendborg",
        "nickname": "DKRobotics",
        "region": "South Denmark",
        "team_number": 6678,
        "location": "Svendborg, South Denmark 5700, Denmark",
        "key": "frc6678",
        "country_name": "Denmark",
        "motto": null,
        "rookie_year": 2017
    },
    {
        "website": "http://www.18tesla.ca",
        "name": "Family/Community",
        "locality": "Calgary",
        "nickname": "TESLA Robotics",
        "region": "Alberta",
        "team_number": 6679,
        "location": "Calgary, Alberta T2T 5E2, Canada",
        "key": "frc6679",
        "country_name": "Canada",
        "motto": null,
        "rookie_year": 2017
    },
    {
        "website": null,
        "name": "Idaho State University TRIO Programs",
        "locality": "Pocatello",
        "nickname": "TRIObotics",
        "region": "Idaho",
        "team_number": 6680,
        "location": "Pocatello, Idaho 83209, USA",
        "key": "frc6680",
        "country_name": "USA",
        "motto": null,
        "rookie_year": 2017
    },
    {
        "website": null,
        "name": "F.H. COLLINS SECONDARY SCHOOL",
        "locality": "Whitehorse",
        "nickname": "FHC Warriors",
        "region": "Yukon Territory",
        "team_number": 6681,
        "location": "Whitehorse, Yukon Territory Y1A 3J1, Canada",
        "key": "frc6681",
        "country_name": "Canada",
        "motto": null,
        "rookie_year": 2017
    },
    {
        "website": "http://N/A",
        "name": "Family/Community",
        "locality": "La Luz",
        "nickname": "Team Outreach",
        "region": "New Mexico",
        "team_number": 6682,
        "location": "La Luz, New Mexico 88337, USA",
        "key": "frc6682",
        "country_name": "USA",
        "motto": null,
        "rookie_year": 2017
    },
    {
        "website": null,
        "name": "Kevin English/Greg Rinala/FIRST Robotics/Az FIRST/The Moore Family/Jayme Fitzpatrick/West MEC/Deirdre Hammond/Bruce Moore/Steve Sanghi Family Foundation /James. A. Unruh Family Foundation&Mountain Ridge High School",
        "locality": "Glendale",
        "nickname": "The ROAR-Botics",
        "region": "Arizona",
        "team_number": 6683,
        "location": "Glendale, Arizona 85310, USA",
        "key": "frc6683",
        "country_name": "USA",
        "motto": null,
        "rookie_year": 2017
    },
    {
        "website": "https://sites.google.com/a/carrizospringscisd.net/robocats/system/app/pages/sitemap/hierarchy",
        "name": "Carrizo Springs H S",
        "locality": "Carrizo Springs",
        "nickname": "RoboCats",
        "region": "Texas",
        "team_number": 6684,
        "location": "Carrizo Springs, Texas 78834, USA",
        "key": "frc6684",
        "country_name": "USA",
        "motto": null,
        "rookie_year": 2017
    },
    {
        "website": "http://robotics.rpbhs.org",
        "name": "NextEra Energy Inc./National Aeronautics and Space Administration (NASA)/POSCO INC.&Royal Palm Beach High School",
        "locality": "West Palm Beach",
        "nickname": "Royal Palm Robotics ",
        "region": "Florida",
        "team_number": 6685,
        "location": "West Palm Beach, Florida 33411, USA",
        "key": "frc6685",
        "country_name": "USA",
        "motto": null,
        "rookie_year": 2017
    },
    {
        "website": null,
        "name": "DePuy Synthes Products /K & M Construction&Palm Beach Central High School",
        "locality": "West Palm Beach",
        "nickname": "Bionic Broncos",
        "region": "Florida",
        "team_number": 6686,
        "location": "West Palm Beach, Florida 33411, USA",
        "key": "frc6686",
        "country_name": "USA",
        "motto": null,
        "rookie_year": 2017
    },
    {
        "website": null,
        "name": "Kids Robotech club /Techno wiz Kids&Garland H S",
        "locality": "Garland",
        "nickname": "Owltronics",
        "region": "Texas",
        "team_number": 6687,
        "location": "Garland, Texas 75040, USA",
        "key": "frc6687",
        "country_name": "USA",
        "motto": null,
        "rookie_year": 2017
    },
    {
        "website": null,
        "name": "Cisco Systems/West Valley College/The Brin Wojcicki Foundation/TechShop/HP&Family/Community",
        "locality": "San Jose",
        "nickname": "West Valley Middle College Robotics Team",
        "region": "California",
        "team_number": 6688,
        "location": "San Jose, California 95129, USA",
        "key": "frc6688",
        "country_name": "USA",
        "motto": null,
        "rookie_year": 2017
    },
    {
        "website": null,
        "name": "Conalep Xochimilco ",
        "locality": "Mexico City ",
        "nickname": "Robit",
        "region": "Distrito Federal",
        "team_number": 6689,
        "location": "Mexico City , Distrito Federal 16020, Mexico",
        "key": "frc6689",
        "country_name": "Mexico",
        "motto": null,
        "rookie_year": 2017
    },
    {
        "website": null,
        "name": "Merrimack Valley High School",
        "locality": "Concord",
        "nickname": "MV roboPride",
        "region": "New Hampshire",
        "team_number": 6690,
        "location": "Concord, New Hampshire 03303, USA",
        "key": "frc6690",
        "country_name": "USA",
        "motto": null,
        "rookie_year": 2017
    },
    {
        "website": null,
        "name": "New Valence Robotics&Brewster Academy",
        "locality": "Wolfeboro",
        "nickname": "PiRho Tech",
        "region": "New Hampshire",
        "team_number": 6691,
        "location": "Wolfeboro, New Hampshire 03894, USA",
        "key": "frc6691",
        "country_name": "USA",
        "motto": null,
        "rookie_year": 2017
    },
    {
        "website": "http://science.aquinashs.net/robotics",
        "name": "Bill Lemann&Aquinas High School",
        "locality": "San Bernardino",
        "nickname": "Robofalcons",
        "region": "California",
        "team_number": 6692,
        "location": "San Bernardino, California 92404, USA",
        "key": "frc6692",
        "country_name": "USA",
        "motto": null,
        "rookie_year": 2017
    },
    {
        "website": null,
        "name": "Ridge View High",
        "locality": "Columbia",
        "nickname": "TrailBLAZERS",
        "region": "South Carolina",
        "team_number": 6693,
        "location": "Columbia, South Carolina 29229, USA",
        "key": "frc6693",
        "country_name": "USA",
        "motto": null,
        "rookie_year": 2017
    },
    {
        "website": "https://www.facebook.com/Innobotics-FIRST-Robotics-1708905749429805/?fref=ts",
        "name": "Auto Productos Aguilar S de R.L. de C.V./Cafe Club International S de R.L. de C.V./Club Zorros A.C./Deustsch Ge Boren/Regidores del XXI Ayuntamiento de Mexicali&Preparatoria y Universidad 16 de Septiembre &Centro de Bachillerato Tecnol\u00f3gico Industrial y de Servicios #21 ( CBTIS 21)",
        "locality": "Mexicali",
        "nickname": "INNOBOTICS",
        "region": "Baja California",
        "team_number": 6694,
        "location": "Mexicali, Baja California 21370, Mexico",
        "key": "frc6694",
        "country_name": "Mexico",
        "motto": null,
        "rookie_year": 2017
    },
    {
        "website": null,
        "name": "San Marcos High",
        "locality": "San Marcos",
        "nickname": "Alpha Knights",
        "region": "California",
        "team_number": 6695,
        "location": "San Marcos, California 92078, USA",
        "key": "frc6695",
        "country_name": "USA",
        "motto": null,
        "rookie_year": 2017
    },
    {
        "website": null,
        "name": "Corbett School",
        "locality": "Corbett",
        "nickname": "Cardinal Dynamics",
        "region": "Oregon",
        "team_number": 6696,
        "location": "Corbett, Oregon 97019, USA",
        "key": "frc6696",
        "country_name": "USA",
        "motto": null,
        "rookie_year": 2017
    },
    {
        "website": "http://Eurobotics.weebly.com",
        "name": "\u00d6ZEL \u00c7EKMEK\u00d6Y AVRUPA KOLEJ\u0130",
        "locality": "\u0130STANBUL",
        "nickname": "EUROBOTICS",
        "region": "Istanbul",
        "team_number": 6697,
        "location": "\u0130STANBUL, Istanbul 34782, Turkey",
        "key": "frc6697",
        "country_name": "Turkey",
        "motto": null,
        "rookie_year": 2017
    },
    {
        "website": null,
        "name": "BCHS ASSETS Program/Buhach Colony Pacific Club/Buhach Colony Agriculture/Turning Point Industries&Buhach Colony High",
        "locality": "Atwater",
        "nickname": "Thunder Robotics",
        "region": "California",
        "team_number": 6699,
        "location": "Atwater, California 95301, USA",
        "key": "frc6699",
        "country_name": "USA",
        "motto": null,
        "rookie_year": 2017
    },
    {
        "website": null,
        "name": "Lester B. Pearson High School",
        "locality": "Calgary",
        "nickname": "Patriot Robotics",
        "region": "Alberta",
        "team_number": 6700,
        "location": "Calgary, Alberta T1Y5P4, Canada",
        "key": "frc6700",
        "country_name": "Canada",
        "motto": null,
        "rookie_year": 2017
    },
    {
        "website": null,
        "name": "Phoenix Academy",
        "locality": "Moose Jaw",
        "nickname": "Phoenix ",
        "region": "Saskatchewan",
        "team_number": 6701,
        "location": "Moose Jaw, Saskatchewan S6H0L9, Canada",
        "key": "frc6701",
        "country_name": "Canada",
        "motto": null,
        "rookie_year": 2017
    },
    {
        "website": null,
        "name": "ITESM (Instituto Tecnologico de Estudios Superiores de Monterrey) &ITESM, PREPA TEC SANTA ANITA",
        "locality": "Tlajomulco de Zu\u00f1iga",
        "nickname": "StingBots Santa Anita",
        "region": "Jalisco",
        "team_number": 6702,
        "location": "Tlajomulco de Zu\u00f1iga, Jalisco 45645, Mexico",
        "key": "frc6702",
        "country_name": "Mexico",
        "motto": null,
        "rookie_year": 2017
    },
    {
        "website": null,
        "name": "PRINCE GEORGE SECONDARY SCHOOL",
        "locality": "Prince George",
        "nickname": "Prince George Secondary School Robotics Club",
        "region": "British Columbia",
        "team_number": 6703,
        "location": "Prince George, British Columbia V2M 2S7, Canada",
        "key": "frc6703",
        "country_name": "Canada",
        "motto": null,
        "rookie_year": 2017
    },
    {
        "website": null,
        "name": "Mid Pacific Institute - High School",
        "locality": "Honolulu",
        "nickname": "Mid Pacific Owl Robotics",
        "region": "Hawaii",
        "team_number": 6704,
        "location": "Honolulu, Hawaii 96822, USA",
        "key": "frc6704",
        "country_name": "USA",
        "motto": null,
        "rookie_year": 2017
    },
    {
        "website": null,
        "name": "Dunwoody High School",
        "locality": "Atlanta",
        "nickname": "Dunwoody WildCat 5e",
        "region": "Georgia",
        "team_number": 6705,
        "location": "Atlanta, Georgia 30338, USA",
        "key": "frc6705",
        "country_name": "USA",
        "motto": null,
        "rookie_year": 2017
    },
    {
        "website": "http://www.team6706.com",
        "name": "Shenzhen Senior High School",
        "locality": "Shenzhen",
        "nickname": "GOLEM",
        "region": "Guangdong",
        "team_number": 6706,
        "location": "Shenzhen, Guangdong 518000, China",
        "key": "frc6706",
        "country_name": "China",
        "motto": null,
        "rookie_year": 2017
    },
    {
        "website": null,
        "name": "Renville County West Senior High",
        "locality": "Renville",
        "nickname": "RCW   Jaguars",
        "region": "Minnesota",
        "team_number": 6707,
        "location": "Renville, Minnesota 56284, USA",
        "key": "frc6707",
        "country_name": "USA",
        "motto": null,
        "rookie_year": 2017
    },
    {
        "website": "http://www.conalepmex.edu.mx",
        "name": "Daimler M\u00e9xico/Tornillos Victoria/BBraun Aesculap/Edutk/ITAC Asociacion de Industriales Tianguistenco/Red Pack/CONALEP Estado de M\u00e9xico&Colegio de Eucacion Profesional Tecnica, CONALEP Estado de Mexico",
        "locality": "Almoloya del Rio",
        "nickname": "Lobos Conalep",
        "region": "Mexico",
        "team_number": 6708,
        "location": "Almoloya del Rio, Mexico 52540, Mexico",
        "key": "frc6708",
        "country_name": "Mexico",
        "motto": null,
        "rookie_year": 2017
    },
    {
        "website": null,
        "name": "Big Lake Senior High",
        "locality": "Big Lake",
        "nickname": "Spudinc",
        "region": "Minnesota",
        "team_number": 6709,
        "location": "Big Lake, Minnesota 55309, USA",
        "key": "frc6709",
        "country_name": "USA",
        "motto": null,
        "rookie_year": 2017
    },
    {
        "website": null,
        "name": "United Technologies/Georgia Power Company&Banneker High School&Westlake High School",
        "locality": "Atlanta",
        "nickname": "Southside Robotics",
        "region": "Georgia",
        "team_number": 6710,
        "location": "Atlanta, Georgia 30349, USA",
        "key": "frc6710",
        "country_name": "USA",
        "motto": null,
        "rookie_year": 2017
    },
    {
        "website": null,
        "name": "Atwater High",
        "locality": "Atwater",
        "nickname": "Millenial Falcons",
        "region": "California",
        "team_number": 6711,
        "location": "Atwater, California 95301, USA",
        "key": "frc6711",
        "country_name": "USA",
        "motto": null,
        "rookie_year": 2017
    },
    {
        "website": null,
        "name": "North Murray High School",
        "locality": "Chatsworth",
        "nickname": "Mountaineers",
        "region": "Georgia",
        "team_number": 6712,
        "location": "Chatsworth, Georgia 30705, USA",
        "key": "frc6712",
        "country_name": "USA",
        "motto": null,
        "rookie_year": 2017
    },
    {
        "website": null,
        "name": "Johnson Magnet",
        "locality": "Augusta",
        "nickname": "A. R. Johnson's Panthers",
        "region": "Georgia",
        "team_number": 6714,
        "location": "Augusta, Georgia 30901, USA",
        "key": "frc6714",
        "country_name": "USA",
        "motto": null,
        "rookie_year": 2017
    },
    {
        "website": null,
        "name": "Hephzibah High School",
        "locality": "Hephzibah",
        "nickname": "HZB Robotics",
        "region": "Georgia",
        "team_number": 6715,
        "location": "Hephzibah, Georgia 30815, USA",
        "key": "frc6715",
        "country_name": "USA",
        "motto": null,
        "rookie_year": 2017
    },
    {
        "website": null,
        "name": "Academy of Richmond County High School",
        "locality": "Augusta",
        "nickname": "Circuit Br8kers",
        "region": "Georgia",
        "team_number": 6716,
        "location": "Augusta, Georgia 30904, USA",
        "key": "frc6716",
        "country_name": "USA",
        "motto": null,
        "rookie_year": 2017
    },
    {
        "website": null,
        "name": "Emery High",
        "locality": "Castle Dale",
        "nickname": "SPARTANS",
        "region": "Utah",
        "team_number": 6717,
        "location": "Castle Dale, Utah 84513, USA",
        "key": "frc6717",
        "country_name": "USA",
        "motto": null,
        "rookie_year": 2017
    },
    {
        "website": null,
        "name": "Oakland Technical High",
        "locality": "Oakland",
        "nickname": "Rocket Dogs",
        "region": "California",
        "team_number": 6718,
        "location": "Oakland, California 94611, USA",
        "key": "frc6718",
        "country_name": "USA",
        "motto": null,
        "rookie_year": 2017
    },
    {
        "website": null,
        "name": "PRINCE OF WALES SECONDARY SCHOOL",
        "locality": "Vancouver",
        "nickname": "P.O.W.E.R.",
        "region": "British Columbia",
        "team_number": 6719,
        "location": "Vancouver, British Columbia V6L 2E7, Canada",
        "key": "frc6719",
        "country_name": "Canada",
        "motto": null,
        "rookie_year": 2017
    },
    {
        "website": null,
        "name": "Walker-Hackensack-Akeley Sec.",
        "locality": "Walker",
        "nickname": "Walker-Hackensack-Akeley",
        "region": "Minnesota",
        "team_number": 6720,
        "location": "Walker, Minnesota 56484, USA",
        "key": "frc6720",
        "country_name": "USA",
        "motto": null,
        "rookie_year": 2017
    },
    {
        "website": null,
        "name": "Charles a Tindley Accelerated Sch",
        "locality": "Indianapolis",
        "nickname": "3960 Tindley Trailblazers",
        "region": "Indiana",
        "team_number": 6721,
        "location": "Indianapolis, Indiana 46205, USA",
        "key": "frc6721",
        "country_name": "USA",
        "motto": null,
        "rookie_year": 2017
    },
    {
        "website": "http://www.seahawkmetal.com",
        "name": "FACTS Engineering /Brothers Powder Coating&Sunlake High School",
        "locality": "Land O Lakes",
        "nickname": "Seahawk Metal",
        "region": "Florida",
        "team_number": 6722,
        "location": "Land O Lakes, Florida 34638, USA",
        "key": "frc6722",
        "country_name": "USA",
        "motto": null,
        "rookie_year": 2017
    },
    {
        "website": null,
        "name": "Mt Greylock Reg High",
        "locality": "Williamstown",
        "nickname": "Mt Greylock Robotics Team",
        "region": "Massachusetts",
        "team_number": 6723,
        "location": "Williamstown, Massachusetts 01267, USA",
        "key": "frc6723",
        "country_name": "USA",
        "motto": null,
        "rookie_year": 2017
    },
    {
        "website": null,
        "name": "ECOLE SECONDAIRE LINDSAY THURBER COMPREHENSIVE HIGH SCHOOL",
        "locality": "Red Deer",
        "nickname": "Raiders Robotics",
        "region": "Alberta",
        "team_number": 6724,
        "location": "Red Deer, Alberta T4N 2L6, Canada",
        "key": "frc6724",
        "country_name": "Canada",
        "motto": null,
        "rookie_year": 2017
    },
    {
        "website": "http://www.tvdsb.ca/Westminster.cfm",
        "name": "WESTMINSTER SECONDARY SCHOOL",
        "locality": "London",
        "nickname": "Westminster SS",
        "region": "Ontario",
        "team_number": 6725,
        "location": "London, Ontario N6J 1W1, Canada",
        "key": "frc6725",
        "country_name": "Canada",
        "motto": null,
        "rookie_year": 2017
    },
    {
        "website": null,
        "name": "Warren County High & Warren Early College High & Warren New Tech High",
        "locality": "Warrenton",
        "nickname": "Warren County School Eagles",
        "region": "North Carolina",
        "team_number": 6726,
        "location": "Warrenton, North Carolina 27589, USA",
        "key": "frc6726",
        "country_name": "USA",
        "motto": null,
        "rookie_year": 2017
    },
    {
        "website": null,
        "name": "Texas Workforce Commission/Belton High School&Belton H S",
        "locality": "Belton",
        "nickname": "HOT Bots",
        "region": "Texas",
        "team_number": 6727,
        "location": "Belton, Texas 76513, USA",
        "key": "frc6727",
        "country_name": "USA",
        "motto": null,
        "rookie_year": 2017
    },
    {
        "website": null,
        "name": "Morrilton Sr. High School & Sacred Heart Catholic School",
        "locality": "Morrilton",
        "nickname": "The Fast and the Curious",
        "region": "Arkansas",
        "team_number": 6728,
        "location": "Morrilton, Arkansas 72110, USA",
        "key": "frc6728",
        "country_name": "USA",
        "motto": null,
        "rookie_year": 2017
    },
    {
        "website": null,
        "name": "Duke Energy/NASA&Psrc Early College at Rcc",
        "locality": "Lumberton",
        "nickname": "RECHS Eagles",
        "region": "North Carolina",
        "team_number": 6729,
        "location": "Lumberton, North Carolina 28360, USA",
        "key": "frc6729",
        "country_name": "USA",
        "motto": null,
        "rookie_year": 2017
    },
    {
        "website": null,
        "name": "Crossings Christian School",
        "locality": "Oklahoma City",
        "nickname": "CCS Nuclear Knights",
        "region": "Oklahoma",
        "team_number": 6730,
        "location": "Oklahoma City, Oklahoma 73134, USA",
        "key": "frc6730",
        "country_name": "USA",
        "motto": null,
        "rookie_year": 2017
    },
    {
        "website": null,
        "name": "Corindus Vascular Robotics&Family/Community",
        "locality": "Belmont",
        "nickname": "Belmont Robotics",
        "region": "Massachusetts",
        "team_number": 6731,
        "location": "Belmont, Massachusetts 02478, USA",
        "key": "frc6731",
        "country_name": "USA",
        "motto": null,
        "rookie_year": 2017
    },
    {
        "website": null,
        "name": "Rockwell Automation&Bruce High",
        "locality": "Bruce",
        "nickname": "BHS RoboRaiders",
        "region": "Wisconsin",
        "team_number": 6732,
        "location": "Bruce, Wisconsin 54848, USA",
        "key": "frc6732",
        "country_name": "USA",
        "motto": null,
        "rookie_year": 2017
    },
    {
        "website": null,
        "name": "Texas Workforce Commission/Dell&Home School",
        "locality": "Pharr",
        "nickname": "PSJA North Raiders",
        "region": "Texas",
        "team_number": 6733,
        "location": "Pharr, Texas 78577, USA",
        "key": "frc6733",
        "country_name": "USA",
        "motto": null,
        "rookie_year": 2017
    },
    {
        "website": null,
        "name": "FRC Team 3132/Sydney TAFE&Family/Community",
        "locality": "Sydney",
        "nickname": "Sydney TAFE",
        "region": "New South Wales",
        "team_number": 6734,
        "location": "Sydney, New South Wales 2007, Australia",
        "key": "frc6734",
        "country_name": "Australia",
        "motto": null,
        "rookie_year": 2017
    },
    {
        "website": null,
        "name": "Noble Street Charter High School",
        "locality": "Chicago",
        "nickname": "Rauner College Prep",
        "region": "Illinois",
        "team_number": 6735,
        "location": "Chicago, Illinois 60642, USA",
        "key": "frc6735",
        "country_name": "USA",
        "motto": null,
        "rookie_year": 2017
    },
    {
        "website": null,
        "name": "ROY GESHER METALS LTD/isreali navy&kziniy-yam aco",
        "locality": "AKKO",
        "nickname": "Knights of the Sea",
        "region": "HaZafon (Northern)",
        "team_number": 6736,
        "location": "AKKO, HaZafon (Northern) 2066, Israel",
        "key": "frc6736",
        "country_name": "Israel",
        "motto": null,
        "rookie_year": 2017
    },
    {
        "website": null,
        "name": "\u05e2\u05d9\u05e8\u05d9\u05d9\u05ea \u05d7\u05d9\u05e4\u05d4/\u05e2\u05ea\u05d9\u05d3 \u05e8\u05e9\u05ea \u05d7\u05d9\u05e0\u05d5\u05da/\u05e7\u05e8\u05d9\u05ea \u05d4\u05d7\u05d9\u05e0\u05d5\u05da \u05e2\u05ea\u05d9\u05d3 \u05d3\u05d0\u05dc\u05d9\u05ea \u05d0\u05dc \u05db\u05e8\u05de\u05dc&Atid Tech Center",
        "locality": "HAIFA",
        "nickname": "H.R.T",
        "region": "Haifa",
        "team_number": 6737,
        "location": "HAIFA, Haifa 3542116, Israel",
        "key": "frc6737",
        "country_name": "Israel",
        "motto": null,
        "rookie_year": 2017
    },
    {
        "website": null,
        "name": "Yeshivat Bnei Akiva Lapid \"Torat Nahum\" Modi'in",
        "locality": "Modi'in",
        "nickname": "Excalibur",
        "region": "Yerushalayim",
        "team_number": 6738,
        "location": "Modi'in, Yerushalayim 7172445, Israel",
        "key": "frc6738",
        "country_name": "Israel",
        "motto": null,
        "rookie_year": 2017
    },
    {
        "website": null,
        "name": "Amal tel shevaa",
        "locality": "tel sheva",
        "nickname": "Tel Shevaa",
        "region": "HaDarom (Southern)",
        "team_number": 6739,
        "location": "tel sheva, HaDarom (Southern) 8495000 , Israel",
        "key": "frc6739",
        "country_name": "Israel",
        "motto": null,
        "rookie_year": 2017
    },
    {
        "website": null,
        "name": "shvlim",
        "locality": "pardes hana",
        "nickname": "g3- glue gun & glitter",
        "region": "Haifa",
        "team_number": 6740,
        "location": "pardes hana, Haifa 000000, Israel",
        "key": "frc6740",
        "country_name": "Israel",
        "motto": null,
        "rookie_year": 2017
    },
    {
        "website": null,
        "name": "Tichon Hadash Darca Bat Yam",
        "locality": "rishon le tzion",
        "nickname": "Space monkeys",
        "region": "Tel-Aviv",
        "team_number": 6741,
        "location": "rishon le tzion, Tel-Aviv 7549112, Israel",
        "key": "frc6741",
        "country_name": "Israel",
        "motto": null,
        "rookie_year": 2017
    },
    {
        "website": null,
        "name": "Universal Learning Academy",
        "locality": "Westland",
        "nickname": "Blue Jays",
        "region": "Michigan",
        "team_number": 6742,
        "location": "Westland, Michigan 48185, USA",
        "key": "frc6742",
        "country_name": "USA",
        "motto": null,
        "rookie_year": 2017
    },
    {
        "website": null,
        "name": "Dunbar High School",
        "locality": "Fort Myers",
        "nickname": "Tiger Engineering",
        "region": "Florida",
        "team_number": 6743,
        "location": "Fort Myers, Florida 33916, USA",
        "key": "frc6743",
        "country_name": "USA",
        "motto": null,
        "rookie_year": 2017
    },
    {
        "website": null,
        "name": "Mehlville High School",
        "locality": "Saint Louis",
        "nickname": "314-Saint Louis PI",
        "region": "Missouri",
        "team_number": 6744,
        "location": "Saint Louis, Missouri 63125, USA",
        "key": "frc6744",
        "country_name": "USA",
        "motto": null,
        "rookie_year": 2017
    },
    {
        "website": null,
        "name": "Detroit Area Pre-College Engineering Program (DAPCEP)",
        "locality": "Detroit",
        "nickname": "DAPCEP",
        "region": "Michigan",
        "team_number": 6745,
        "location": "Detroit, Michigan 48201, USA",
        "key": "frc6745",
        "country_name": "USA",
        "motto": null,
        "rookie_year": 2017
    },
    {
        "website": null,
        "name": "Our Lady of Mercy Academy",
        "locality": "Syosset",
        "nickname": "Mustangs",
        "region": "New York",
        "team_number": 6746,
        "location": "Syosset, New York 11791, USA",
        "key": "frc6746",
        "country_name": "USA",
        "motto": null,
        "rookie_year": 2017
    },
    {
        "website": null,
        "name": "East Jefferson High School",
        "locality": "Metairie",
        "nickname": "East Jefferson High School",
        "region": "Louisiana",
        "team_number": 6747,
        "location": "Metairie, Louisiana 70001, USA",
        "key": "frc6747",
        "country_name": "USA",
        "motto": null,
        "rookie_year": 2017
    },
    {
        "website": null,
        "name": "Dobson High School",
        "locality": "Mesa",
        "nickname": "MustangRobotics",
        "region": "Arizona",
        "team_number": 6748,
        "location": "Mesa, Arizona 85202, USA",
        "key": "frc6748",
        "country_name": "USA",
        "motto": null,
        "rookie_year": 2017
    },
    {
        "website": null,
        "name": "Eagle Ridge Academy Charter School",
        "locality": "Hopkins",
        "nickname": "tERAbytes",
        "region": "Minnesota",
        "team_number": 6749,
        "location": "Hopkins, Minnesota 55343, USA",
        "key": "frc6749",
        "country_name": "USA",
        "motto": null,
        "rookie_year": 2017
    },
    {
        "website": null,
        "name": "Woodland High School",
        "locality": "Stockbridge",
        "nickname": "PackAttack",
        "region": "Georgia",
        "team_number": 6750,
        "location": "Stockbridge, Georgia 30281, USA",
        "key": "frc6750",
        "country_name": "USA",
        "motto": null,
        "rookie_year": 2017
    },
    {
        "website": null,
        "name": "Texas Workforce Commission Jess Jankowitsch&Sunset High School",
        "locality": "Dallas",
        "nickname": "RoboFlash",
        "region": "Texas",
        "team_number": 6751,
        "location": "Dallas, Texas 75208, USA",
        "key": "frc6751",
        "country_name": "USA",
        "motto": null,
        "rookie_year": 2017
    },
    {
        "website": "http://chargerroboticsclub.weebly.com/",
        "name": "Texas Workforce Commission/Mouser Electronics&Central H S",
        "locality": "Keller",
        "nickname": "Charged Up",
        "region": "Texas",
        "team_number": 6752,
        "location": "Keller, Texas 76244, USA",
        "key": "frc6752",
        "country_name": "USA",
        "motto": null,
        "rookie_year": 2017
    },
    {
        "website": null,
        "name": "D & J Auto&Calvary Baptist Academy",
        "locality": "Midland",
        "nickname": "CBA Kings",
        "region": "Michigan",
        "team_number": 6753,
        "location": "Midland, Michigan 48640, USA",
        "key": "frc6753",
        "country_name": "USA",
        "motto": null,
        "rookie_year": 2017
    },
    {
        "website": null,
        "name": "Texas Workforce Commission /Idea Public Schools/Stainless steel &Idea College Prep",
        "locality": "Edinburg",
        "nickname": "Trailbots ",
        "region": "Texas",
        "team_number": 6754,
        "location": "Edinburg, Texas 78541, USA",
        "key": "frc6754",
        "country_name": "USA",
        "motto": null,
        "rookie_year": 2017
    },
    {
        "website": null,
        "name": "Summit High",
        "locality": "Fontana",
        "nickname": "Overdrive",
        "region": "California",
        "team_number": 6755,
        "location": "Fontana, California 92336, USA",
        "key": "frc6755",
        "country_name": "USA",
        "motto": null,
        "rookie_year": 2017
    },
    {
        "website": null,
        "name": "Cross Creek High School",
        "locality": "Augusta",
        "nickname": "Cross Creek Razorbacks",
        "region": "Georgia",
        "team_number": 6756,
        "location": "Augusta, Georgia 30906, USA",
        "key": "frc6756",
        "country_name": "USA",
        "motto": null,
        "rookie_year": 2017
    },
    {
        "website": null,
        "name": "Forest Park High School",
        "locality": "Forest Park",
        "nickname": "Apex Robotics FPHS",
        "region": "Georgia",
        "team_number": 6757,
        "location": "Forest Park, Georgia 30297, USA",
        "key": "frc6757",
        "country_name": "USA",
        "motto": null,
        "rookie_year": 2017
    },
    {
        "website": null,
        "name": "IBM/Akkerman/Casey's General Store&Kasson-Mantorville Senior High",
        "locality": "Kasson",
        "nickname": "Otternauts ",
        "region": "Minnesota",
        "team_number": 6758,
        "location": "Kasson, Minnesota 55944, USA",
        "key": "frc6758",
        "country_name": "USA",
        "motto": null,
        "rookie_year": 2017
    },
    {
        "website": null,
        "name": "Pearl River High School",
        "locality": "Pearl River",
        "nickname": "Rebel",
        "region": "Louisiana",
        "team_number": 6759,
        "location": "Pearl River, Louisiana 70452, USA",
        "key": "frc6759",
        "country_name": "USA",
        "motto": null,
        "rookie_year": 2017
    },
    {
        "website": null,
        "name": "Osram/FIRST of NH Fund/Robert Hassett/Utopia Machine Works/Ferguson Tool and Instrument/John Oberti/The Villager/Stella's Corner&Hillsboro-Deering High School",
        "locality": "Hillsborough",
        "nickname": "Hillcats",
        "region": "New Hampshire",
        "team_number": 6762,
        "location": "Hillsborough, New Hampshire 03244, USA",
        "key": "frc6762",
        "country_name": "USA",
        "motto": null,
        "rookie_year": 2017
    },
    {
        "website": null,
        "name": "Sousa Signs/ForceMonkey Labs/Ben and Jerry's/Arthur Sullivan/PAR Electronics/St Mary's Bank&Manchester School of Technology",
        "locality": "Manchester",
        "nickname": "FUSION",
        "region": "New Hampshire",
        "team_number": 6763,
        "location": "Manchester, New Hampshire 03103, USA",
        "key": "frc6763",
        "country_name": "USA",
        "motto": null,
        "rookie_year": 2017
    },
    {
        "website": null,
        "name": "Fillmore Senior High",
        "locality": "Fillmore",
        "nickname": "Fillmore Flashes",
        "region": "California",
        "team_number": 6764,
        "location": "Fillmore, California 93015, USA",
        "key": "frc6764",
        "country_name": "USA",
        "motto": null,
        "rookie_year": 2017
    },
    {
        "website": null,
        "name": "Columbus Downtown High School",
        "locality": "Columbus",
        "nickname": "Columbus City Schools",
        "region": "Ohio",
        "team_number": 6765,
        "location": "Columbus, Ohio 43215, USA",
        "key": "frc6765",
        "country_name": "USA",
        "motto": null,
        "rookie_year": 2017
    },
    {
        "website": null,
        "name": "Atom robot education",
        "locality": "Shenzhen",
        "nickname": "Atom Storm",
        "region": "Guangdong",
        "team_number": 6766,
        "location": "Shenzhen, Guangdong 518028, China",
        "key": "frc6766",
        "country_name": "China",
        "motto": null,
        "rookie_year": 2017
    },
    {
        "website": "http://Denisonengineering.com",
        "name": "Consolidated container company/Texas instraments&Denison H S",
        "locality": "Denison",
        "nickname": "Denison Engineering  ",
        "region": "Texas",
        "team_number": 6768,
        "location": "Denison, Texas 75020, USA",
        "key": "frc6768",
        "country_name": "USA",
        "motto": null,
        "rookie_year": 2017
    },
    {
        "website": null,
        "name": "Yuxin School Attached To Capital Normal University&FIRST China Robotics Association",
        "locality": "Beijing",
        "nickname": "Future Star",
        "region": "Beijing",
        "team_number": 6769,
        "location": "Beijing, Beijing 100012, China",
        "key": "frc6769",
        "country_name": "China",
        "motto": null,
        "rookie_year": 2017
    },
    {
        "website": null,
        "name": "FIRST China Robotics Association",
        "locality": "Beijing",
        "nickname": "Semia United",
        "region": "Beijing",
        "team_number": 6770,
        "location": "Beijing, Beijing 100012, China",
        "key": "frc6770",
        "country_name": "China",
        "motto": null,
        "rookie_year": 2017
    },
    {
        "website": null,
        "name": "FIRST China Robotics Association",
        "locality": "Beijing",
        "nickname": "Future Forward",
        "region": "Beijing",
        "team_number": 6771,
        "location": "Beijing, Beijing 100012, China",
        "key": "frc6771",
        "country_name": "China",
        "motto": null,
        "rookie_year": 2017
    }
]