[
    {
        "website": "http://heroboticsteam.moonfruit.com/",
        "name": "Coloplast/Boston Scientific/General Mills/The Bakken Museum/EJ Ajax & Sons Inc./Medtronic/NASA/St. Thomas University/Loram/Carlson Advisors LLP/Install This Sign and Awning Co./Girl Scouts of Minnesota and Wisconsin River Valleys/Minneapolis Public Schools Career and Technical Education/Patrick Henry High School Booster Club/Shingle Creek Neighborhood Association/Dunwoody College of Technology/GOFIRST/Patrick Henry High School Foundation&Henry Senior High",
        "locality": "Minneapolis",
        "nickname": "Herobotics",
        "region": "Minnesota",
        "team_number": 2500,
        "location": "Minneapolis, Minnesota 55412, USA",
        "key": "frc2500",
        "country_name": "USA",
        "motto": "Together, we WILL\u00a0build a new heroic future",
        "rookie_year": 2008
    },
    {
        "website": "http://www.team2501.com",
        "name": "3M / Tolerance Tool / Gopher Electronics & North Senior High & North Senior High",
        "locality": "North St. Paul",
        "nickname": "Bionic Polars",
        "region": "Minnesota",
        "team_number": 2501,
        "location": "North St. Paul, Minnesota 55109, USA",
        "key": "frc2501",
        "country_name": "USA",
        "motto": "Rawr",
        "rookie_year": 2008
    },
    {
        "website": "http://team2502.com/",
        "name": "MTS Systems Corporation / Continental Engineering &  Manufacturing (CEM) / Emerson Process Management / Banner Engineering & Eden Prairie Senior High",
        "locality": "Eden Prairie",
        "nickname": "Talon Robotics",
        "region": "Minnesota",
        "team_number": 2502,
        "location": "Eden Prairie, Minnesota 55346, USA",
        "key": "frc2502",
        "country_name": "USA",
        "motto": "Make work!",
        "rookie_year": 2008
    },
    {
        "website": "http://team2503.com",
        "name": "3M/Maxbotix/Precision Tool Technologies Inc./Central Lakes College/Brainerd Lakes Area Businesses & Brainerd Senior High",
        "locality": "Brainerd",
        "nickname": "Warrior Robotics",
        "region": "Minnesota",
        "team_number": 2503,
        "location": "Brainerd, Minnesota 56401, USA",
        "key": "frc2503",
        "country_name": "USA",
        "motto": "Resistance is Futile",
        "rookie_year": 2008
    },
    {
        "website": "http://www.farringtonrobotics.com/",
        "name": "National Defense Education Program(NDEP) / Pearl Harbor Naval Shipyard / Monsanto / BAE SYSTEMS / Industrial Electronics / KenKay Machine Co. / Farrington Alumni and Community Foundation / McDonalds of Hawaii / Friends of Hawaii Robotics & Governor Wallace Rider Farrington High School",
        "locality": "Honolulu",
        "nickname": "The Governors",
        "region": "Hawaii",
        "team_number": 2504,
        "location": "Honolulu, Hawaii 96817, USA",
        "key": "frc2504",
        "country_name": "USA",
        "motto": "Robotics is where geeks become heroes",
        "rookie_year": 2008
    },
    {
        "website": null,
        "name": "Don Mills Collegiate Institute & Georges Vanier S.S. & Toronto District School Board",
        "locality": "Toronto",
        "nickname": "The Electric Sheep",
        "region": "ON",
        "team_number": 2505,
        "location": "Toronto, ON, Canada",
        "key": "frc2505",
        "country_name": "Canada",
        "motto": null,
        "rookie_year": 2008
    },
    {
        "website": "http://saberrobotics.org",
        "name": "Ladish Co. Foundation/Underwriters Laboratory/Krones/Rockwell Automation/GE Volunteers of GE Healthcare/Snap-On Tools/MSOE&Franklin High",
        "locality": "Franklin",
        "nickname": "Saber Robotics",
        "region": "Wisconsin",
        "team_number": 2506,
        "location": "Franklin, Wisconsin 53132, USA",
        "key": "frc2506",
        "country_name": "USA",
        "motto": "Syncing our teeth into technology",
        "rookie_year": 2008
    },
    {
        "website": "http://www.frc2508.com/",
        "name": "3M & Stillwater Area High School",
        "locality": "Stillwater",
        "nickname": "Armada",
        "region": "Minnesota",
        "team_number": 2508,
        "location": "Stillwater, Minnesota 55082, USA",
        "key": "frc2508",
        "country_name": "USA",
        "motto": null,
        "rookie_year": 2008
    },
    {
        "website": "http://None",
        "name": "3M & Hutchinson Senior High",
        "locality": "Hutchinson ",
        "nickname": "Tigerbots",
        "region": "Minnesota",
        "team_number": 2509,
        "location": "Hutchinson , Minnesota 55350, USA",
        "key": "frc2509",
        "country_name": "USA",
        "motto": "One team one Tigger, all for one, all for the Tiger",
        "rookie_year": 2008
    },
    {
        "website": "http://www.freewebs.com/yayrobots",
        "name": "University of Minnesota -Twin Cities - & Albrook School & Cloquet School District & fond du lac ojibwe school",
        "locality": "Cloquet",
        "nickname": "anishinaabe",
        "region": "MN",
        "team_number": 2510,
        "location": "Cloquet, MN, USA",
        "key": "frc2510",
        "country_name": "USA",
        "motto": null,
        "rookie_year": 2008
    },
    {
        "website": "http://team2511.com",
        "name": "St. Jude Medical/EAC Product Development Solutions/PTC&Lakeville South High",
        "locality": "Lakeville",
        "nickname": "Cougars",
        "region": "Minnesota",
        "team_number": 2511,
        "location": "Lakeville, Minnesota 55044, USA",
        "key": "frc2511",
        "country_name": "USA",
        "motto": "Free to Fail!",
        "rookie_year": 2008
    },
    {
        "website": "http://www.daredevils2512.org",
        "name": "Archer Racing/Stewart Taylor Printing/Tricel Honeycomb/Lake Superior Consulting/Saturn Systems/Minnesota Power/F.I.Salter/National Bank of Commerce/AAR Aircraft Services Duluth/Kiwanis of Friendly Duluth/Krech Ojard & Associates Inc./ISD 709&East Senior High",
        "locality": "Duluth",
        "nickname": "Duluth East Daredevils",
        "region": "Minnesota",
        "team_number": 2512,
        "location": "Duluth, Minnesota 55804, USA",
        "key": "frc2512",
        "country_name": "USA",
        "motto": "I can do that",
        "rookie_year": 2008
    },
    {
        "website": "http://www.tertola.com",
        "name": "Graco & Edison Senior High",
        "locality": "Minneapolis",
        "nickname": "T.E.R.T.O.L.A.",
        "region": "Minnesota",
        "team_number": 2513,
        "location": "Minneapolis, Minnesota 55418, USA",
        "key": "frc2513",
        "country_name": "USA",
        "motto": null,
        "rookie_year": 2008
    },
    {
        "website": null,
        "name": "3M & Mahtonedi High School",
        "locality": "Mahtomedi",
        "nickname": "3M MHS",
        "region": "MN",
        "team_number": 2514,
        "location": "Mahtomedi, MN, USA",
        "key": "frc2514",
        "country_name": "USA",
        "motto": null,
        "rookie_year": 2008
    },
    {
        "website": "http://www.2515tigerbots.com",
        "name": "BH Electronics/Nextera Energy/Action Trackchair/Medtronic/Bend-Rite & Marshall High School",
        "locality": "Marshall",
        "nickname": "TigerBots",
        "region": "Minnesota",
        "team_number": 2515,
        "location": "Marshall, Minnesota 56258, USA",
        "key": "frc2515",
        "country_name": "USA",
        "motto": null,
        "rookie_year": 2008
    },
    {
        "website": "http://evergreenrobotics.org",
        "name": "U.S. Digital/The Boeing Company/Rockwell Collins/OctoberBest Regional High-Tech Show & HERITAGE HIGH SCHOOL",
        "locality": "Vancouver",
        "nickname": "Green Wrenches",
        "region": "WA",
        "team_number": 2517,
        "location": "Vancouver, WA, USA",
        "key": "frc2517",
        "country_name": "USA",
        "motto": null,
        "rookie_year": 2008
    },
    {
        "website": "http://www.first2518.weebly.com",
        "name": "St. Jude Medical Foundation & Simley Senior High",
        "locality": "Inver Grove Heights",
        "nickname": "Spartans",
        "region": "Minnesota",
        "team_number": 2518,
        "location": "Inver Grove Heights, Minnesota 55076, USA",
        "key": "frc2518",
        "country_name": "USA",
        "motto": "Robotics for Everyone",
        "rookie_year": 2008
    },
    {
        "website": "http://www.robotics9000net",
        "name": "Valley High School",
        "locality": "Las Vegas",
        "nickname": "Robotics 9000",
        "region": "NV",
        "team_number": 2520,
        "location": "Las Vegas, NV, USA",
        "key": "frc2520",
        "country_name": "USA",
        "motto": null,
        "rookie_year": 2008
    },
    {
        "website": "http://www.sert2521.org",
        "name": "Oregon Department of Education/Autodesk/Georgia Pacific/Mid Valley Metals & South Eugene High School",
        "locality": "Eugene",
        "nickname": "SERT",
        "region": "Oregon",
        "team_number": 2521,
        "location": "Eugene, Oregon 97405, USA",
        "key": "frc2521",
        "country_name": "USA",
        "motto": "Do the Thing",
        "rookie_year": 2008
    },
    {
        "website": "http://www.royalrobotics.org",
        "name": "Microsoft / Google / The Boeing Company / OSPI / SPEEA / Exotic Tool Welding Inc. / Mobile Tool Management & Lynnwood High School",
        "locality": "Lynnwood",
        "nickname": "Royal Robotics",
        "region": "Washington",
        "team_number": 2522,
        "location": "Lynnwood, Washington 98012, USA",
        "key": "frc2522",
        "country_name": "USA",
        "motto": "In the past people were born royal. Nowadays royalty comes from what you do.",
        "rookie_year": 2008
    },
    {
        "website": "http://www.firstinspires.org/",
        "name": "NSA Industries/Weidmann /VT Space Grant Consortium&St Johnsbury Academy",
        "locality": "Saint Johnsbury",
        "nickname": "Tech Storm",
        "region": "Vermont",
        "team_number": 2523,
        "location": "Saint Johnsbury, Vermont 05819, USA",
        "key": "frc2523",
        "country_name": "USA",
        "motto": null,
        "rookie_year": 2008
    },
    {
        "website": "http://rhsyamets.webs.com",
        "name": "UTI, NASCAR & GATEWAY & Roosevelt High School-YPS",
        "locality": "Yonkers",
        "nickname": "Roosevelt Rough Riders",
        "region": "NY",
        "team_number": 2524,
        "location": "Yonkers, NY, USA",
        "key": "frc2524",
        "country_name": "USA",
        "motto": null,
        "rookie_year": 2008
    },
    {
        "website": "http://www.firstinspires.org/",
        "name": "Medtronic & Robbinsdale Armstrong Senior High",
        "locality": "Minneapolis",
        "nickname": "The pHalcons",
        "region": "Minnesota",
        "team_number": 2525,
        "location": "Minneapolis, Minnesota 55441, USA",
        "key": "frc2525",
        "country_name": "USA",
        "motto": "Carpe Diem",
        "rookie_year": 2008
    },
    {
        "website": "http://www.crimsonrobotics.com/",
        "name": "Boston Scientific/TURCK Inc./Twin Cities Fan Companies, Ltd./Aloft Technologies Inc/BKBM Engineers/NTI/Nvidia/ICA Corporation/Accorde Orthodontists/Allegra Printing Brooklyn Park/Tennant/Pinnacle Engineering/Entrust Datacard/Solos Pizza Cafe/Three Squares Restaraunt/Chipotle/Natur-Bag/Alchemy Mfg./Hitesman & Wold PA/Youngstedts Maple Grove Tire and Auto/Mobile Veterinary Ultrasound/Rush Creek Golf Club/World Taekwando Academy-Osseo/Dunkirk Dental/Osseo Lions Club/Maple Grove Lions Club/Rita's Italian Ice/Avallo Marketing/Legato Industries Inc&Maple Grove Senior High&Family/Community",
        "locality": "Osseo",
        "nickname": "Crimson Robotics",
        "region": "Minnesota",
        "team_number": 2526,
        "location": "Osseo, Minnesota 55369, USA",
        "key": "frc2526",
        "country_name": "USA",
        "motto": null,
        "rookie_year": 2008
    },
    {
        "website": "http://www.firstinspires.org/",
        "name": "Army Research Labs/Maryland Space Business Roundtable/Applied Control Engineering/Key Technologies Inc/Netzer Metalcraft/Baltimore City Public School System & Western High",
        "locality": "Baltimore",
        "nickname": "RoboDoves",
        "region": "Maryland",
        "team_number": 2528,
        "location": "Baltimore, Maryland 21209, USA",
        "key": "frc2528",
        "country_name": "USA",
        "motto": "Drive like a girl!",
        "rookie_year": 2008
    },
    {
        "website": "http://www.humboldthawksrobotics.com/",
        "name": "Ecolab & Humboldt Secondary School",
        "locality": "St. Paul",
        "nickname": "Robohawks",
        "region": "Minnesota",
        "team_number": 2529,
        "location": "St. Paul, Minnesota 55107, USA",
        "key": "frc2529",
        "country_name": "USA",
        "motto": null,
        "rookie_year": 2008
    },
    {
        "website": "http://www.frcteam2530.org/index",
        "name": "Medtronic Inc./IBM/Mayo Clinic & Mayo Senior High & Century Senior High & John Marshall Senior High",
        "locality": "Rochester",
        "nickname": "Inconceivable",
        "region": "Minnesota",
        "team_number": 2530,
        "location": "Rochester, Minnesota 55904, USA",
        "key": "frc2530",
        "country_name": "USA",
        "motto": "Building Kids Who Build Robots",
        "rookie_year": 2008
    },
    {
        "website": "http://www.firstinspires.org/",
        "name": "Mark and Teresa Fleishhakker Foundation/Emerson Process Management & Chaska High School",
        "locality": "Chaska",
        "nickname": "RoboHawks",
        "region": "Minnesota",
        "team_number": 2531,
        "location": "Chaska, Minnesota 55318, USA",
        "key": "frc2531",
        "country_name": "USA",
        "motto": "Soar Hawks",
        "rookie_year": 2008
    },
    {
        "website": "http://fprobotics.webs.com/",
        "name": "St Jude Medical & Forest Lake Senior High",
        "locality": "Forest Lake",
        "nickname": "FLASH Power",
        "region": "Minnesota",
        "team_number": 2532,
        "location": "Forest Lake, Minnesota 55025, USA",
        "key": "frc2532",
        "country_name": "USA",
        "motto": null,
        "rookie_year": 2008
    },
    {
        "website": "http://www.juarez.cps.k12.il.us",
        "name": "NASA / EPIR & Juarez High School",
        "locality": "Chicago",
        "nickname": "Juarez Aztec Eagles",
        "region": "IL",
        "team_number": 2533,
        "location": "Chicago, IL, USA",
        "key": "frc2533",
        "country_name": "USA",
        "motto": null,
        "rookie_year": 2008
    },
    {
        "website": "http://www.firstinspires.org/",
        "name": "AXA Advisors LLC&Boys Latin School of Maryland",
        "locality": "Baltimore ",
        "nickname": "Lumberjack Robotics",
        "region": "Maryland",
        "team_number": 2534,
        "location": "Baltimore , Maryland 21210, USA",
        "key": "frc2534",
        "country_name": "USA",
        "motto": "One Heartbeat",
        "rookie_year": 2008
    },
    {
        "website": "http://Tigears.org",
        "name": "medtronic & Minneapolis South High School",
        "locality": "Minneapolis",
        "nickname": "TIGEARS",
        "region": "MN",
        "team_number": 2535,
        "location": "Minneapolis, MN, USA",
        "key": "frc2535",
        "country_name": "USA",
        "motto": null,
        "rookie_year": 2008
    },
    {
        "website": null,
        "name": "Morgan State University / Baltimore City Public School / NASA & Carver Vocational  Technical  High School",
        "locality": "Baltimore",
        "nickname": "Carver Bears",
        "region": "MD",
        "team_number": 2536,
        "location": "Baltimore, MD, USA",
        "key": "frc2536",
        "country_name": "USA",
        "motto": null,
        "rookie_year": 2008
    },
    {
        "website": "http://www.team2537.com",
        "name": "The National Security Agency / Leidos / Booz Allen Hamilton / The PTR Group / AKAYLA / Maryland Space Business Roundtable / Ramparts / W.R.Grace / Bright Minds / Tenetics / SPAWAR-National Defense Education Program & Atholton High",
        "locality": "Columbia",
        "nickname": "Space RAIDers",
        "region": "Maryland",
        "team_number": 2537,
        "location": "Columbia, Maryland 21044, USA",
        "key": "frc2537",
        "country_name": "USA",
        "motto": "Raiding Space for Innovative and Technological Ideas to Develop the Future",
        "rookie_year": 2008
    },
    {
        "website": "http://www.plaidpillagers.com/",
        "name": "Medtronic / Morris Education Foundation / Superior Industries & Morris Area Secondary",
        "locality": "Morris",
        "nickname": "The Plaid Pillagers",
        "region": "Minnesota",
        "team_number": 2538,
        "location": "Morris, Minnesota 56267, USA",
        "key": "frc2538",
        "country_name": "USA",
        "motto": "in Pursuit of Leadership And Innovative Design",
        "rookie_year": 2008
    },
    {
        "website": "http://www.Team2539.com",
        "name": "TE Connectivity/Comcast NBCUniversal/The Ames Companies/Hershey/N.S. Johnson Heating & Cooling&Palmyra Area Shs",
        "locality": "Palmyra",
        "nickname": "Krypton Cougars",
        "region": "Pennsylvania",
        "team_number": 2539,
        "location": "Palmyra, Pennsylvania 17078, USA",
        "key": "frc2539",
        "country_name": "USA",
        "motto": null,
        "rookie_year": 2008
    },
    {
        "website": null,
        "name": "NASA/Northrop Grumman Ship Systems & South Pontotoc High School",
        "locality": "Pontotoc",
        "nickname": "SPARC",
        "region": "MS",
        "team_number": 2540,
        "location": "Pontotoc, MS, USA",
        "key": "frc2540",
        "country_name": "USA",
        "motto": null,
        "rookie_year": 2008
    },
    {
        "website": "http://go4bots.gopherweb.org",
        "name": "The Boeing Company/Microchip/Oregon Department of Education & Gresham High School",
        "locality": "Gresham",
        "nickname": "Go4bots",
        "region": "OR",
        "team_number": 2542,
        "location": "Gresham, OR, USA",
        "key": "frc2542",
        "country_name": "USA",
        "motto": null,
        "rookie_year": 2008
    },
    {
        "website": "http://www.titanbot.org/",
        "name": "NAVAIR North Island/DoD STEM/Qualcomm/Booz Allen Hamilton Inc./United Technologies Aerospace Systems/Nordson Asymtek/McCarthy Family Foundation&Eastlake High",
        "locality": "Chula Vista",
        "nickname": "TitanBot",
        "region": "California",
        "team_number": 2543,
        "location": "Chula Vista, California 91915, USA",
        "key": "frc2543",
        "country_name": "USA",
        "motto": "TitanBot Connectivity: The ability to connect people, technology . . . the world",
        "rookie_year": 2008
    },
    {
        "website": "http://www.hcrobotics.org",
        "name": "GE & Harbor Creek Senior Hs",
        "locality": "Harborcreek",
        "nickname": "HCRC",
        "region": "Pennsylvania",
        "team_number": 2544,
        "location": "Harborcreek, Pennsylvania 16421, USA",
        "key": "frc2544",
        "country_name": "USA",
        "motto": "What you need, is a bigger hammer",
        "rookie_year": 2008
    },
    {
        "website": "http://web.me.com/beth.fawley",
        "name": "NASA/BAE Systems/PTC & Columbia Heights Senior High",
        "locality": "Minneapolis",
        "nickname": "Quantum Mechanics",
        "region": "Minnesota",
        "team_number": 2545,
        "location": "Minneapolis, Minnesota 55421, USA",
        "key": "frc2545",
        "country_name": "USA",
        "motto": "'nuff said",
        "rookie_year": 2008
    },
    {
        "website": null,
        "name": "DIGITAL HARBOR HIGH SCHOOL",
        "locality": "Baltimore",
        "nickname": "Electric Sheep",
        "region": "MD",
        "team_number": 2546,
        "location": "Baltimore, MD, USA",
        "key": "frc2546",
        "country_name": "USA",
        "motto": null,
        "rookie_year": 2008
    },
    {
        "website": null,
        "name": "GE Volunteers/Rockwell Automation/Hayes Disc Brake/Marquette University College of Engineering/Milwaukee School of Engineerin/University of Wisconsin-Milwaukee School of Engineering & Bay View High School",
        "locality": "Milwaukee",
        "nickname": "Redcat Robos",
        "region": "WI",
        "team_number": 2547,
        "location": "Milwaukee, WI, USA",
        "key": "frc2547",
        "country_name": "USA",
        "motto": null,
        "rookie_year": 2008
    },
    {
        "website": "http://www.washburnmillerbots.com/",
        "name": "Minneapolis Public Schools/Best Buy & Washburn Senior High",
        "locality": "Minneapolis",
        "nickname": "Millerbots",
        "region": "Minnesota",
        "team_number": 2549,
        "location": "Minneapolis, Minnesota 55419, USA",
        "key": "frc2549",
        "country_name": "USA",
        "motto": "Humans are so Last Year",
        "rookie_year": 2008
    },
    {
        "website": "http://team2550.blogspot.com/",
        "name": "Boeing Company/Autodesk/Daimler/Pacific Swiss Manufacturing/Oregon Department of Education&Clackamas Academy of Industrial Sciences",
        "locality": "Oregon City",
        "nickname": "Skynet",
        "region": "Oregon",
        "team_number": 2550,
        "location": "Oregon City, Oregon 97045, USA",
        "key": "frc2550",
        "country_name": "USA",
        "motto": "\"Design It. Build It. Live it!",
        "rookie_year": 2008
    },
    {
        "website": "http://penguinempirerobotics.weebly.com",
        "name": "Brin Wojcicki/SOUNDVISION/Sonance/Hennessey Fund/Bank of Marin/Mitch & Terry Nilsen/Deepflight&San Marin High",
        "locality": "Novato",
        "nickname": "Penguin Empire",
        "region": "California",
        "team_number": 2551,
        "location": "Novato, California 94945, USA",
        "key": "frc2551",
        "country_name": "USA",
        "motto": "Luctor et Emergo",
        "rookie_year": 2008
    },
    {
        "website": null,
        "name": "NASA & Pearl High School",
        "locality": "Pearl",
        "nickname": "Pirates",
        "region": "MS",
        "team_number": 2553,
        "location": "Pearl, MS, USA",
        "key": "frc2553",
        "country_name": "USA",
        "motto": null,
        "rookie_year": 2008
    },
    {
        "website": "http://www.jpsrobotics2554.org",
        "name": "Picatinny Arsenal/BAE Systems/Middlesex County College/Pinnacle Federal Credit Union/Edison Public School District/Kim's Kumon Center/The Knott's Company/Rainbow Kids Dental  & J P Stevens High",
        "locality": "Edison",
        "nickname": "The WarHawks",
        "region": "New Jersey",
        "team_number": 2554,
        "location": "Edison, New Jersey 08820, USA",
        "key": "frc2554",
        "country_name": "USA",
        "motto": "Don't Worry About it - We Got This",
        "rookie_year": 2008
    },
    {
        "website": "http://www.firstinspires.org/",
        "name": "3V Precision Machining, Inc/Tacoma Public Schools /OSPI & Wilson",
        "locality": "Tacoma",
        "nickname": "RoboRams",
        "region": "Washington",
        "team_number": 2555,
        "location": "Tacoma, Washington 98406, USA",
        "key": "frc2555",
        "country_name": "USA",
        "motto": null,
        "rookie_year": 2008
    },
    {
        "website": "http://www.radioactiveroaches.org",
        "name": "Doolittle Institute/DoDSTEM/University of Florida Research Engineering & Education Facility/Niceville High School Boosters/Ft Walton Machining/American Elite Molding&Niceville Senior High School",
        "locality": "Niceville",
        "nickname": "RadioActive Roaches",
        "region": "Florida",
        "team_number": 2556,
        "location": "Niceville, Florida 32578, USA",
        "key": "frc2556",
        "country_name": "USA",
        "motto": "Better is the enemy of good enough",
        "rookie_year": 2008
    },
    {
        "website": "http://www.sotabots.com",
        "name": "Boeing / Office of Superintendent of Public Instruction / Tacoma School District / F5 Networks, Inc / Delivery Express / Zumar Industries Incorporated / Blue Origin / Hewitt Cabinets & Interiors  / Intellectual Ventures / Elements of Education Partners / Google / Science and Math Institute & Tacoma School of the Arts",
        "locality": "Tacoma",
        "nickname": "SOTAbots ",
        "region": "Washington",
        "team_number": 2557,
        "location": "Tacoma, Washington 98408, USA",
        "key": "frc2557",
        "country_name": "USA",
        "motto": "Can I get an Oh Yupp?",
        "rookie_year": 2008
    },
    {
        "website": null,
        "name": "SCITECH HIGH SCHOOL",
        "locality": "Harrisburg",
        "nickname": "SciBot",
        "region": "PA",
        "team_number": 2558,
        "location": "Harrisburg, PA, USA",
        "key": "frc2558",
        "country_name": "USA",
        "motto": null,
        "rookie_year": 2008
    },
    {
        "website": "http://www.normalityzero.com",
        "name": "TE Connectivity/The Hershey Company/Janville Roofing and Siding/Collective Intelligence/Mount Joy Wire/Kroah Remodeling  & Dauphin County Technical School",
        "locality": "Harrisburg",
        "nickname": "Normality Zero",
        "region": "Pennsylvania",
        "team_number": 2559,
        "location": "Harrisburg, Pennsylvania 17109, USA",
        "key": "frc2559",
        "country_name": "USA",
        "motto": "Nothing ventured, Nothing gained",
        "rookie_year": 2008
    },
    {
        "website": "http://www.grandviewrobodog.org",
        "name": "Consolidated School District #4/Grandview Education Foundation/Honeywell/KC STEM Alliance/Techni-Serve/SMG&Grandview Sr. High",
        "locality": "Grandview",
        "nickname": "RoboDog",
        "region": "Missouri",
        "team_number": 2560,
        "location": "Grandview, Missouri 64030, USA",
        "key": "frc2560",
        "country_name": "USA",
        "motto": "Go, Dog, Go!",
        "rookie_year": 2008
    },
    {
        "website": null,
        "name": "NewTown Solutions / 3M & Arlington High School",
        "locality": "Saint Paul",
        "nickname": "St Paul East Side RobEASTs",
        "region": "MN",
        "team_number": 2561,
        "location": "Saint Paul, MN, USA",
        "key": "frc2561",
        "country_name": "USA",
        "motto": null,
        "rookie_year": 2008
    },
    {
        "website": null,
        "name": "PRIOR / Polytechnic University of P.R. & Robinson High School",
        "locality": "San Juan",
        "nickname": "Robinson",
        "region": "PR",
        "team_number": 2562,
        "location": "San Juan, PR, USA",
        "key": "frc2562",
        "country_name": "USA",
        "motto": null,
        "rookie_year": 2008
    },
    {
        "website": null,
        "name": "PRIOR/Polytechnic University of P.R. & Manuela Toro High School",
        "locality": "Caguas",
        "nickname": "Toros",
        "region": "PR",
        "team_number": 2563,
        "location": "Caguas, PR, USA",
        "key": "frc2563",
        "country_name": "USA",
        "motto": null,
        "rookie_year": 2008
    },
    {
        "website": null,
        "name": "BAE Systems/PRIOR/Polytechnic University of P.R. & San Antonio High School",
        "locality": "San Juan",
        "nickname": "Red Hawks",
        "region": "PR",
        "team_number": 2564,
        "location": "San Juan, PR, USA",
        "key": "frc2564",
        "country_name": "USA",
        "motto": null,
        "rookie_year": 2008
    },
    {
        "website": null,
        "name": "Polytechnic University of P.R./PRIOR & Bonneville High School",
        "locality": "Cupey",
        "nickname": "Technovations",
        "region": "PR",
        "team_number": 2565,
        "location": "Cupey, PR, USA",
        "key": "frc2565",
        "country_name": "USA",
        "motto": null,
        "rookie_year": 2008
    },
    {
        "website": null,
        "name": "PRIOR/Polytechnic University of P.R & Uiversity Gardens High School",
        "locality": "San Juan",
        "nickname": "Universitiers",
        "region": "PR",
        "team_number": 2566,
        "location": "San Juan, PR, USA",
        "key": "frc2566",
        "country_name": "USA",
        "motto": null,
        "rookie_year": 2008
    },
    {
        "website": null,
        "name": "PRIOR/Polytechnic University of P.R. & Vocacional Miguel Such High School",
        "locality": "San Juan",
        "nickname": "Miguel",
        "region": "PR",
        "team_number": 2567,
        "location": "San Juan, PR, USA",
        "key": "frc2567",
        "country_name": "USA",
        "motto": null,
        "rookie_year": 2008
    },
    {
        "website": null,
        "name": "Polytechnic University of P.R./PRIOR & Jose E. Aponte de la Torre  High School",
        "locality": "Carolina",
        "nickname": "STORM",
        "region": "PR",
        "team_number": 2568,
        "location": "Carolina, PR, USA",
        "key": "frc2568",
        "country_name": "USA",
        "motto": null,
        "rookie_year": 2008
    },
    {
        "website": null,
        "name": "BAE Systems/PRIOR/Polytechnic University of P.R. & Central de Artes Visuales High School",
        "locality": "San Juan",
        "nickname": "Artist Engineers",
        "region": "PR",
        "team_number": 2569,
        "location": "San Juan, PR, USA",
        "key": "frc2569",
        "country_name": "USA",
        "motto": null,
        "rookie_year": 2008
    },
    {
        "website": null,
        "name": "Caterpillar Inc. & Sahuarita High School",
        "locality": "Sahuarita",
        "nickname": "SHS",
        "region": "AZ",
        "team_number": 2570,
        "location": "Sahuarita, AZ, USA",
        "key": "frc2570",
        "country_name": "USA",
        "motto": null,
        "rookie_year": 2008
    },
    {
        "website": null,
        "name": "NASA/JCPenney & Haileyville Public Schools",
        "locality": "Haileyville",
        "nickname": "Chief robot",
        "region": "OK",
        "team_number": 2571,
        "location": "Haileyville, OK, USA",
        "key": "frc2571",
        "country_name": "USA",
        "motto": null,
        "rookie_year": 2008
    },
    {
        "website": null,
        "name": "3M & Johnson Senior High School",
        "locality": "Saint Paul",
        "nickname": "governors",
        "region": "MN",
        "team_number": 2572,
        "location": "Saint Paul, MN, USA",
        "key": "frc2572",
        "country_name": "USA",
        "motto": null,
        "rookie_year": 2008
    },
    {
        "website": null,
        "name": "ConEdison & Brookly Amity High School",
        "locality": "Brooklyn",
        "nickname": "Mustang",
        "region": "NY",
        "team_number": 2573,
        "location": "Brooklyn, NY, USA",
        "key": "frc2573",
        "country_name": "USA",
        "motto": null,
        "rookie_year": 2008
    },
    {
        "website": "http://www.robohuskie.com",
        "name": "Bremer Bank / Medtronic Foundation & St. Anthony Village Senior High",
        "locality": "Minneapolis",
        "nickname": "RoboHuskie",
        "region": "Minnesota",
        "team_number": 2574,
        "location": "Minneapolis, Minnesota 55418, USA",
        "key": "frc2574",
        "country_name": "USA",
        "motto": "BOT <3   (BOT Love)",
        "rookie_year": 2008
    },
    {
        "website": "http://www.whitehurricane.com.br",
        "name": "B&S Solutions/Rotary Clube Santa Branca & Escola Estadual Prof. Waldemar Salgado High School",
        "locality": "Santa Branca",
        "nickname": "White Hurricane",
        "region": "SP",
        "team_number": 2575,
        "location": "Santa Branca, SP, Brazil",
        "key": "frc2575",
        "country_name": "Brazil",
        "motto": null,
        "rookie_year": 2008
    },
    {
        "website": "http://www.corazondechileno.cl/",
        "name": "Universidad Andres Bello/Robots Chile/Doosan Bobcat/Ferrital/Sabic Polymershapes/3M/Municipalidad de Quilicura/SOFOFA/Imprenta Estrella&Corporacion Corazon Tecnologico de Chile",
        "locality": "Santiago",
        "nickname": "Chilean Heart",
        "region": "Regi\u00f3n Metropolitana de Santiago",
        "team_number": 2576,
        "location": "Santiago, Regi\u00f3n Metropolitana de Santiago 7700468, Chile",
        "key": "frc2576",
        "country_name": "Chile",
        "motto": "When your Heart is FIRST, amazing things happen",
        "rookie_year": 2008
    },
    {
        "website": "http://www.firstinspires.org/",
        "name": "the Pingry School",
        "locality": "Basking Ridge",
        "nickname": "Pingry Robotics",
        "region": "New Jersey",
        "team_number": 2577,
        "location": "Basking Ridge, New Jersey 07920, USA",
        "key": "frc2577",
        "country_name": "USA",
        "motto": null,
        "rookie_year": 2008
    },
    {
        "website": "https://www.facebook.com/Team2579/?fref=ts",
        "name": "Pershing Square Foundation&Long Island City High School",
        "locality": "Astoria",
        "nickname": "LIC Robodogs",
        "region": "New York",
        "team_number": 2579,
        "location": "Astoria, New York 11106, USA",
        "key": "frc2579",
        "country_name": "USA",
        "motto": "We've got some tough nuts",
        "rookie_year": 2008
    },
    {
        "website": null,
        "name": "Northrop Grumman Corp / NASA-Lockeed Martin & St. Augustine High School",
        "locality": "New Orleans",
        "nickname": "Mecha-Knights",
        "region": "LA",
        "team_number": 2580,
        "location": "New Orleans, LA, USA",
        "key": "frc2580",
        "country_name": "USA",
        "motto": null,
        "rookie_year": 2008
    },
    {
        "website": "http://2581.lafrc.org",
        "name": "NASA / LEAP Program University Of New Orleans & Carroll High School",
        "locality": "Monroe",
        "nickname": "Bulldog Robotic Team",
        "region": "LA",
        "team_number": 2581,
        "location": "Monroe, LA, USA",
        "key": "frc2581",
        "country_name": "USA",
        "motto": null,
        "rookie_year": 2008
    },
    {
        "website": "http://www.lufkinpantherbots.com",
        "name": "Lufkin GE/Lockheed Martin/LufTex Gears/Lufkin High School&Lufkin H S",
        "locality": "Lufkin",
        "nickname": "PantherBots",
        "region": "Texas",
        "team_number": 2582,
        "location": "Lufkin, Texas 75901, USA",
        "key": "frc2582",
        "country_name": "USA",
        "motto": "You have three choices in life. Give up, give in, or give it all you've got.",
        "rookie_year": 2008
    },
    {
        "website": "http://www.team2583.org",
        "name": "3M/Texas Workforce Commission/IBM/Dell/Reddwerks & Westwood H S",
        "locality": "Austin",
        "nickname": "RoboWarriors",
        "region": "Texas",
        "team_number": 2583,
        "location": "Austin, Texas 78750, USA",
        "key": "frc2583",
        "country_name": "USA",
        "motto": "Capture the Flag",
        "rookie_year": 2008
    },
    {
        "website": "http://resedarobotics.com",
        "name": "IMS / Reseda Women's Club / ARC & RESEDA SENIOR HIGH",
        "locality": "Reseda",
        "nickname": "Reseda Regents Robotics R^3",
        "region": "CA",
        "team_number": 2584,
        "location": "Reseda, CA, USA",
        "key": "frc2584",
        "country_name": "USA",
        "motto": null,
        "rookie_year": 2008
    },
    {
        "website": "http://www.firstinspires.org/",
        "name": "Pentier / Texas Workforce Commission / ExxonMobil / Kids Robotics Academy & Bellaire H S",
        "locality": "Bellaire",
        "nickname": "Impact",
        "region": "Texas",
        "team_number": 2585,
        "location": "Bellaire, Texas 77401, USA",
        "key": "frc2585",
        "country_name": "USA",
        "motto": "\"Student built, Student driven\"",
        "rookie_year": 2008
    },
    {
        "website": "http://www.firstinspires.org/",
        "name": "Baraga Telephone/U.P.net/The Saavedra Family/Grandma and Grandpa Stroup/The Laemmerich Family/Calumet High School & Calumet High School",
        "locality": "Calumet",
        "nickname": "Copper Bots",
        "region": "Michigan",
        "team_number": 2586,
        "location": "Calumet, Michigan 49913, USA",
        "key": "frc2586",
        "country_name": "USA",
        "motto": null,
        "rookie_year": 2008
    },
    {
        "website": "http://discobots.org",
        "name": "DiscoBots.org / Bechtel / ExxonMobil / Shell / Oracle / Texas Workforce Commission / EP Energy / GE & Lamar H S & Carnegie Vanguard H S",
        "locality": "Houston",
        "nickname": "DiscoBots",
        "region": "Texas",
        "team_number": 2587,
        "location": "Houston, Texas 77098, USA",
        "key": "frc2587",
        "country_name": "USA",
        "motto": "Groovin to the beat of technology !",
        "rookie_year": 2008
    },
    {
        "website": null,
        "name": "DIamond Ranch High School",
        "locality": "Pomona",
        "nickname": "JAVA",
        "region": "CA",
        "team_number": 2588,
        "location": "Pomona, CA, USA",
        "key": "frc2588",
        "country_name": "USA",
        "motto": null,
        "rookie_year": 2008
    },
    {
        "website": "http://www.trsdrobotics.com",
        "name": "Triton Regional High School",
        "locality": "Byfield",
        "nickname": "The Codebandits",
        "region": "MA",
        "team_number": 2589,
        "location": "Byfield, MA, USA",
        "key": "frc2589",
        "country_name": "USA",
        "motto": null,
        "rookie_year": 2008
    },
    {
        "website": "http://frc2590.org/",
        "name": "NAVAIR  /  DoDSTEM/CCL Label/New York Society of Cosmetic Chemists/Investors Foundation/Leidos/Robbinsville Education Association/Robbinsville Education Foundation/DesignTree/RAS Process Equipment/Gilbane Inc./SRI International/McGraw Hill Financial/NorthStar Vet&Robbinsville High School",
        "locality": "Robbinsville",
        "nickname": "Nemesis",
        "region": "New Jersey",
        "team_number": 2590,
        "location": "Robbinsville, New Jersey 08691, USA",
        "key": "frc2590",
        "country_name": "USA",
        "motto": "We run our team like a high tech business.",
        "rookie_year": 2008
    },
    {
        "website": "http://www.firstinspires.org/",
        "name": "Davis Aerospace Technical High School/Detroit Public Schools/General Motors Foundation/United States Air Force/Michigan Engineering Zone & Detroit Academy of Arts and Sciences",
        "locality": "Detroit",
        "nickname": "RedTails",
        "region": "Michigan",
        "team_number": 2591,
        "location": "Detroit, Michigan 48234, USA",
        "key": "frc2591",
        "country_name": "USA",
        "motto": null,
        "rookie_year": 2008
    },
    {
        "website": "http://None",
        "name": "Rio Rico High School",
        "locality": "Rio Rico",
        "nickname": "Hawks",
        "region": "AZ",
        "team_number": 2592,
        "location": "Rio Rico, AZ, USA",
        "key": "frc2592",
        "country_name": "USA",
        "motto": null,
        "rookie_year": 2008
    },
    {
        "website": "http://www.vitalinequality.com",
        "name": "Peabody Veterans Memorial High School",
        "locality": "Peabody",
        "nickname": "Brobot",
        "region": "MA",
        "team_number": 2593,
        "location": "Peabody, MA, USA",
        "key": "frc2593",
        "country_name": "USA",
        "motto": null,
        "rookie_year": 2008
    },
    {
        "website": "http://www.namparobotics.weebly.com",
        "name": "Micron Technology Foundation, Inc./Power Engineers/House of Design/Hill Construction/Greg Schwanke Family/Stone Lumber/Campbell Tractor/Inventure Engineering & Columbia High School",
        "locality": "Nampa",
        "nickname": "Naskcorpions",
        "region": "Idaho",
        "team_number": 2594,
        "location": "Nampa, Idaho 83687, USA",
        "key": "frc2594",
        "country_name": "USA",
        "motto": "Work now...Die Later",
        "rookie_year": 2008
    },
    {
        "website": "http://illuminatirobotics.com",
        "name": "CSULA Engineering and Technology Department / Jacobs Engineering / NASA & Wallis Annenberg High School",
        "locality": "Los Angeles",
        "nickname": "Illuminati",
        "region": "CA",
        "team_number": 2595,
        "location": "Los Angeles, CA, USA",
        "key": "frc2595",
        "country_name": "USA",
        "motto": null,
        "rookie_year": 2008
    },
    {
        "website": null,
        "name": "New Jersey-New York Port Authority / Goldman Sachs / NASA & Ferris High School- Jersey City",
        "locality": "Jersey City",
        "nickname": "Ferrous Bulldog Inovations",
        "region": "NJ",
        "team_number": 2596,
        "location": "Jersey City, NJ, USA",
        "key": "frc2596",
        "country_name": "USA",
        "motto": null,
        "rookie_year": 2008
    },
    {
        "website": null,
        "name": "TRICE/Greater Texas Foundation & Sterling High School",
        "locality": "Houston",
        "nickname": "Raider bots",
        "region": "TX",
        "team_number": 2597,
        "location": "Houston, TX, USA",
        "key": "frc2597",
        "country_name": "USA",
        "motto": null,
        "rookie_year": 2008
    },
    {
        "website": "http://Robotics.teach4ever.net",
        "name": "Bio-Rad / ConocoPhillips / CLYM Environmental / Hercules Community Partnership & CCCOE ROP & Hercules Middle High School",
        "locality": "Hercules",
        "nickname": "Neofighters",
        "region": "CA",
        "team_number": 2598,
        "location": "Hercules, CA, USA",
        "key": "frc2598",
        "country_name": "USA",
        "motto": null,
        "rookie_year": 2008
    },
    {
        "website": "http://teamfullthrottle.org",
        "name": "SRT/QUALCOMM Incorporated/BAE SYSTEMS/Marine Group Boat Works/Dave Stall/Imaging Technologies/Wells Fargo Bank/Best Buy/Home Depot/The Olive Garden & Alternative Education, Sweetwater Union High School District & Montgomery Middle School, SUHSD & ROP Program, SUHSD",
        "locality": "CHULA VISTA",
        "nickname": "FULL THROTTLE",
        "region": "CA",
        "team_number": 2599,
        "location": "CHULA VISTA, CA, USA",
        "key": "frc2599",
        "country_name": "USA",
        "motto": null,
        "rookie_year": 2008
    },
    {
        "website": "http://\\\\jthswebmail\\jtpswebsite$\\HighSchool\\FIRSTRobotics",
        "name": "Picatinny Arsenal/BAE Systems/National Defense Education Program & Jefferson Twp H & Jefferson Twp H",
        "locality": "Oak Ridge",
        "nickname": "Team Falcon",
        "region": "New Jersey",
        "team_number": 2600,
        "location": "Oak Ridge, New Jersey 07438, USA",
        "key": "frc2600",
        "country_name": "USA",
        "motto": "team falcon",
        "rookie_year": 2008
    },
    {
        "website": "http://www.steelhawks.net",
        "name": "Magellan Aerospace/BAE Systems/Queens College, CUNY/THHA/THHS  PTA/The Home Depot/Applebees/The Mu Family/Con Edison&Townsend Harris High School",
        "locality": "Flushing",
        "nickname": "Steel Hawks",
        "region": "New York",
        "team_number": 2601,
        "location": "Flushing, New York 11367, USA",
        "key": "frc2601",
        "country_name": "USA",
        "motto": "Respice, Aspice, Prospice ",
        "rookie_year": 2008
    },
    {
        "website": "http://www.foothillnv.org",
        "name": "Foothill High School",
        "locality": "Henderson",
        "nickname": "Falcons",
        "region": "NV",
        "team_number": 2602,
        "location": "Henderson, NV, USA",
        "key": "frc2602",
        "country_name": "USA",
        "motto": null,
        "rookie_year": 2008
    },
    {
        "website": "http://www.highlandrobotics.com/",
        "name": "Highland Robotics & Highland High School",
        "locality": "Medina",
        "nickname": "Highland Robotics",
        "region": "Ohio",
        "team_number": 2603,
        "location": "Medina, Ohio 44256, USA",
        "key": "frc2603",
        "country_name": "USA",
        "motto": "Mind... Metal... Machine...",
        "rookie_year": 2008
    },
    {
        "website": "http://www.metalandsoul.org",
        "name": "MI Department of Education/Michigan Economic Development Corporation/FCA Foundation/Cargill/Four County Community Foundation/Witco Inc./Ray-Mara Industrial Services/St. Clair County Economic Development Association/Plasko Technologies/L & L Products/Doodling Outback Embroidery/St. Clair County Community College/North Star Enterprises/Dr. John S. Demare D.O./Lakestone Bank&Capac High School",
        "locality": "Capac",
        "nickname": "Metal and Soul",
        "region": "Michigan",
        "team_number": 2604,
        "location": "Capac, Michigan 48014, USA",
        "key": "frc2604",
        "country_name": "USA",
        "motto": "\"Redefining SUCCESS since 2008\"",
        "rookie_year": 2008
    },
    {
        "website": "http://www.sehomeseamonsters.org",
        "name": "OSPI/Boeing/Google/Tesoro/Bellingham Public Schools Foundation/BP/Haggen/Sehome High School PTSA/Alaska Airlines/Freeland Associates/Hiltner Combustion Systems/Redpoint Structures/SPIE/Toyota of Bellingham/3D Coporation/Dawson Construction/Diehl Ford/Pizza Time/Seakamp Engineering/WECU/Wilson Engineering&Sehome High School",
        "locality": "Bellingham",
        "nickname": "Sehome Seamonsters",
        "region": "Washington",
        "team_number": 2605,
        "location": "Bellingham, Washington 98225, USA",
        "key": "frc2605",
        "country_name": "USA",
        "motto": "Let's get Kraken!",
        "rookie_year": 2008
    },
    {
        "website": "https://rosemountrobotics.org/",
        "name": "MSP Communications/Optum/IBM&Rosemount Senior High",
        "locality": "Rosemount",
        "nickname": "Irish Robotics",
        "region": "Minnesota",
        "team_number": 2606,
        "location": "Rosemount, Minnesota 55068, USA",
        "key": "frc2606",
        "country_name": "USA",
        "motto": null,
        "rookie_year": 2008
    },
    {
        "website": "http://www.robovikings.com",
        "name": "Lockheed Martin Corp/Signature Consulting Solutions & Archbishop Wood High School",
        "locality": "Warminster ",
        "nickname": "The Fighting RoboVikings",
        "region": "Pennsylvania",
        "team_number": 2607,
        "location": "Warminster , Pennsylvania 18974, USA",
        "key": "frc2607",
        "country_name": "USA",
        "motto": "Purveyors of Gracious Professionalism",
        "rookie_year": 2008
    },
    {
        "website": "http://www.mightrobotics.com",
        "name": "MiGHT Home School",
        "locality": "Farmington Hills",
        "nickname": "MiGHT",
        "region": "MI",
        "team_number": 2608,
        "location": "Farmington Hills, MI, USA",
        "key": "frc2608",
        "country_name": "USA",
        "motto": null,
        "rookie_year": 2008
    },
    {
        "website": "http://Beaverworx.ca",
        "name": "Toyota Motor Manufacturing Canada/Polycon Industries/Balluff Canada/Synnex/General Motors Oshawa/Dana Corporation/Chris Jones - No Frills/Kendrew Distribution Services/Wellington Catholic DSB&Our Lady of Lourdes CHS",
        "locality": "Guelph",
        "nickname": "BeaverworX",
        "region": "Ontario",
        "team_number": 2609,
        "location": "Guelph, Ontario N1H 5H7, Canada",
        "key": "frc2609",
        "country_name": "Canada",
        "motto": "Success for all",
        "rookie_year": 2008
    },
    {
        "website": "http://www.jacktownvectors.org/",
        "name": "Jackson County Intermediate School District/Michigan Automotive Compressor/South Central Michigan Works/ALRO Steel/Technique, Inc/Lomar Machine and Tool Company/Orbitform/TLC Laser Eye Center/Consumer's Energy/Hatch Stamping Company/Livonia Tool and Laser/Exotic Automation and Supply/State of Michigan/DASI Solutions & Jackson Area Career Center",
        "locality": "Jackson",
        "nickname": "Jacktown Vectors",
        "region": "Michigan",
        "team_number": 2611,
        "location": "Jackson, Michigan 49201, USA",
        "key": "frc2611",
        "country_name": "USA",
        "motto": "Semper Prodest",
        "rookie_year": 2008
    },
    {
        "website": "http://www.corsairs2612.org/",
        "name": "General Motors Foundation/Wayne State C2 Pipeline/AxleTech International/Paulson's Audio & Video/Michigan Department of Education/Dalton Industries/Cross the Road Electronics/Genisys Credit Union/Crestmark Bank&Waterford Mott High School",
        "locality": "Waterford",
        "nickname": "The Corsairs",
        "region": "Michigan",
        "team_number": 2612,
        "location": "Waterford, Michigan 48328, USA",
        "key": "frc2612",
        "country_name": "USA",
        "motto": null,
        "rookie_year": 2008
    },
    {
        "website": "http://www.firstinspires.org/",
        "name": "Bezos Foundation-Lucia Sevic/Texas Workforce Commission-Jess Jankowitsch/Navigator Oil Company-Jack Blake Jr.&Van Horn H S",
        "locality": "Van Horn",
        "nickname": "PROTOBOTS",
        "region": "Texas",
        "team_number": 2613,
        "location": "Van Horn, Texas 79855, USA",
        "key": "frc2613",
        "country_name": "USA",
        "motto": "That which we do not create--- we will obliterate",
        "rookie_year": 2008
    },
    {
        "website": "http://marsfirst.org",
        "name": "NASA Robotics Alliance/United Way/West Virginia University/Mon County Board of Education/Aurora Flight Sciences/WV Space Grant Consortium/Mylan Pharmaceuticals & MARS",
        "locality": "Morgantown",
        "nickname": "Mountaineer Area RoboticS (MARS)",
        "region": "West Virginia",
        "team_number": 2614,
        "location": "Morgantown, West Virginia 26506, USA",
        "key": "frc2614",
        "country_name": "USA",
        "motto": "We came to be inspired, we stay because we are, we will become the inspiration",
        "rookie_year": 2008
    },
    {
        "website": "http://team2617.com",
        "name": "General Motors/New Frontier 21 & J.W. Sexton High School Science, Math, and Engineering Magnet",
        "locality": "Lansing",
        "nickname": "Robo Reds",
        "region": "MI",
        "team_number": 2617,
        "location": "Lansing, MI, USA",
        "key": "frc2617",
        "country_name": "USA",
        "motto": null,
        "rookie_year": 2008
    },
    {
        "website": null,
        "name": "Neya System, LLC. & Shady Side Academy",
        "locality": "Pittsburgh",
        "nickname": "The Mad Hatters",
        "region": "PA",
        "team_number": 2618,
        "location": "Pittsburgh, PA, USA",
        "key": "frc2618",
        "country_name": "USA",
        "motto": null,
        "rookie_year": 2008
    },
    {
        "website": "http://www.the-charge.com",
        "name": "The Dow Chemical Company / Nexteer / Dow Corning Corporation / FIRST of the Great Lakes Bay Region / Midland Public Schools / Michigan Baseball Foundation / Midland Steel & H.H. Dow High School",
        "locality": "Midland",
        "nickname": "The Charge",
        "region": "Michigan",
        "team_number": 2619,
        "location": "Midland, Michigan 48640, USA",
        "key": "frc2619",
        "country_name": "USA",
        "motto": "Unleash Your Potential",
        "rookie_year": 2008
    },
    {
        "website": "http://www.firstinspires.org/",
        "name": "General Motors Battery Assembly/Ford Motor Company&Southgate Anderson High School",
        "locality": "Southgate",
        "nickname": "Titans",
        "region": "Michigan",
        "team_number": 2620,
        "location": "Southgate, Michigan 48195, USA",
        "key": "frc2620",
        "country_name": "USA",
        "motto": null,
        "rookie_year": 2008
    },
    {
        "website": "http://www.firstbedford.org/",
        "name": "NASA / FLIR Systems / MIT Lincoln Laboratory & Bedford High School",
        "locality": "Bedford",
        "nickname": "Bucs",
        "region": "MA",
        "team_number": 2621,
        "location": "Bedford, MA, USA",
        "key": "frc2621",
        "country_name": "USA",
        "motto": null,
        "rookie_year": 2008
    },
    {
        "website": null,
        "name": "Clairemont High School",
        "locality": "San Diego",
        "nickname": "Team 1",
        "region": "CA",
        "team_number": 2622,
        "location": "San Diego, CA, USA",
        "key": "frc2622",
        "country_name": "USA",
        "motto": null,
        "rookie_year": 2008
    },
    {
        "website": null,
        "name": "Deer Valley High School",
        "locality": "Antioch",
        "nickname": "lovenpeace",
        "region": "CA",
        "team_number": 2623,
        "location": "Antioch, CA, USA",
        "key": "frc2623",
        "country_name": "USA",
        "motto": null,
        "rookie_year": 2008
    },
    {
        "website": null,
        "name": "The University of Toronto -- Engineering Faculty & The Bishop Strachan School",
        "locality": "Toronto",
        "nickname": "BotCatz",
        "region": "ON",
        "team_number": 2624,
        "location": "Toronto, ON, Canada",
        "key": "frc2624",
        "country_name": "Canada",
        "motto": null,
        "rookie_year": 2008
    },
    {
        "website": "http://www.team2625.com",
        "name": "St. Joan of Arc Secondary School",
        "locality": "Mississauga",
        "nickname": "ARC Robotics",
        "region": "ON",
        "team_number": 2625,
        "location": "Mississauga, ON, Canada",
        "key": "frc2625",
        "country_name": "Canada",
        "motto": null,
        "rookie_year": 2008
    },
    {
        "website": "http://evolution2626.org",
        "name": "MI-Integration/Robotique FIRST Qu\u00e9bec/Bombardier/Hewitt/CRIM/Seminaire de Sherbrooke Foundation&Seminaire de Sherbrooke",
        "locality": "Sherbrooke",
        "nickname": "Evolution",
        "region": "Qu\u00e9bec",
        "team_number": 2626,
        "location": "Sherbrooke, Qu\u00e9bec J1H 1L6, Canada",
        "key": "frc2626",
        "country_name": "Canada",
        "motto": "Evolution Pure & Simple",
        "rookie_year": 2008
    },
    {
        "website": null,
        "name": "ACTI/BAE Systems & Grace Center for Arts and Technology",
        "locality": "Ann Arbor",
        "nickname": "Techies",
        "region": "MI",
        "team_number": 2627,
        "location": "Ann Arbor, MI, USA",
        "key": "frc2627",
        "country_name": "USA",
        "motto": null,
        "rookie_year": 2008
    },
    {
        "website": null,
        "name": "Velocity11 / Treasure Island Job Corps & SIATech High School",
        "locality": "San Francisco",
        "nickname": "Pirates",
        "region": "CA",
        "team_number": 2628,
        "location": "San Francisco, CA, USA",
        "key": "frc2628",
        "country_name": "USA",
        "motto": null,
        "rookie_year": 2008
    },
    {
        "website": "http://www.halconesfrc.com",
        "name": "MAC, S.A./Estado de Queretaro/Municipio de Queretaro/UVM-Campus Queretaro/CONCYTEQ & COLEGIO ALAMOS HIGH SCHOOL",
        "locality": "QUERETARO",
        "nickname": "Halcones",
        "region": "OAX",
        "team_number": 2629,
        "location": "QUERETARO, OAX, Mexico",
        "key": "frc2629",
        "country_name": "Mexico",
        "motto": null,
        "rookie_year": 2008
    },
    {
        "website": "http://www.thunderbolts2630.com",
        "name": "Emek Hefer/Ruppin Technology College & Ben Gurion & Shahar Maayan & Ramot Yam",
        "locality": "Emek hefer",
        "nickname": "Thunderbolts",
        "region": "HaMerkaz (Central)",
        "team_number": 2630,
        "location": "Emek hefer, HaMerkaz (Central) 40250, Israel",
        "key": "frc2630",
        "country_name": "Israel",
        "motto": "ThunderBolts - Our bolts are as fast as lightning!",
        "rookie_year": 2008
    },
    {
        "website": "http://sites.google.com/site/frcteam2632",
        "name": "Nordson Corp./Boeing/Sliman's/Parker Aircraft Wheel & Brake&Marion L Steele High School",
        "locality": "Amherst",
        "nickname": "SteeleBots",
        "region": "Ohio",
        "team_number": 2632,
        "location": "Amherst, Ohio 44001, USA",
        "key": "frc2632",
        "country_name": "USA",
        "motto": "We are not just building a Robot, We are building a TEAM",
        "rookie_year": 2008
    },
    {
        "website": null,
        "name": "Contra Costa County ROP & Pittsburg High School Home School",
        "locality": "Pittsburg",
        "nickname": "Pittsburg Pirates",
        "region": "CA",
        "team_number": 2633,
        "location": "Pittsburg, CA, USA",
        "key": "frc2633",
        "country_name": "USA",
        "motto": null,
        "rookie_year": 2008
    },
    {
        "website": "http://www.team2634.com",
        "name": "Toronto Catholic DSB / Pratt and Whitney Canada / Computer Sciences Corp & Chaminade College",
        "locality": "North York",
        "nickname": "The Gryphons",
        "region": "Ontario",
        "team_number": 2634,
        "location": "North York, Ontario M6L 1M8, Canada",
        "key": "frc2634",
        "country_name": "Canada",
        "motto": "\"Fortes in Fide\"",
        "rookie_year": 2008
    },
    {
        "website": "http://www.frc2635.org",
        "name": "LAM Research/Intel/Boeing/Mentor Graphics/Best Buy/Thomson Reuter/WA FIRST Robotics/Really Big Video&Lakeridge High School&Lake Oswego Senior High School",
        "locality": "Lake Oswego",
        "nickname": "Lake Monsters",
        "region": "Oregon",
        "team_number": 2635,
        "location": "Lake Oswego, Oregon 97034, USA",
        "key": "frc2635",
        "country_name": "USA",
        "motto": "Building Awesome",
        "rookie_year": 2008
    },
    {
        "website": "http://www.firstinspires.org/",
        "name": "PEF / Astro Machines / Japanese Auto Center / JKSS, Inc. / REDI & Palos Verdes Peninsula High",
        "locality": "Rolling Hills Estates",
        "nickname": "Phantom Catz",
        "region": "California",
        "team_number": 2637,
        "location": "Rolling Hills Estates, California 90274, USA",
        "key": "frc2637",
        "country_name": "USA",
        "motto": null,
        "rookie_year": 2008
    },
    {
        "website": "http://www.gnsrobotics.com/",
        "name": "Gold Coast- Lake Success Rotary/Charles Schwab- Stuart Lempert/Sherman Orthodontics/John Doremus/Great Neck South High School PTSA/Judi Bosworth/Great Neck Alert Fire Department/Great Neck South High School/Medical Supply Company/GE Pickering Medical Supplies/Racedeck Flooring & Great Neck South High School",
        "locality": "Great Neck",
        "nickname": "Rebels",
        "region": "New York",
        "team_number": 2638,
        "location": "Great Neck, New York 11020, USA",
        "key": "frc2638",
        "country_name": "USA",
        "motto": "\"Changing the culture one nut and bolt at a time\"",
        "rookie_year": 2008
    },
    {
        "website": "http://hotbotz2640.org",
        "name": "The Hardwood Store of NC / Keystone Foods / TE Connectivity / ABCO Automation / ThermCraft / Tri-State Steel / Medical Management Services / Edward Jones & Reidsville Robotics",
        "locality": "Reidsville",
        "nickname": "HOTBOTZ",
        "region": "North Carolina",
        "team_number": 2640,
        "location": "Reidsville, North Carolina 27320, USA",
        "key": "frc2640",
        "country_name": "USA",
        "motto": "My Bot Hot!",
        "rookie_year": 2008
    },
    {
        "website": "http://www.team2641.com",
        "name": "GOOD ORTHODONTICS/DIRECT TECHNOLOGY SOLUTIONS/VOCI/ATTENDLE/THEGAMECON&Central Catholic High School",
        "locality": "Pittsburgh",
        "nickname": "PCCR",
        "region": "Pennsylvania",
        "team_number": 2641,
        "location": "Pittsburgh, Pennsylvania 15213, USA",
        "key": "frc2641",
        "country_name": "USA",
        "motto": "TRADITION NEVER GRADUATES",
        "rookie_year": 2008
    },
    {
        "website": "http://www.pittpiratesrobotics.com/",
        "name": "United Therapeutics/Society of Women Engineers/The Lindbeck Family/Huo Family&Pitt County Schools",
        "locality": "Winterville",
        "nickname": "Pitt Pirates",
        "region": "North Carolina",
        "team_number": 2642,
        "location": "Winterville, North Carolina 28590, USA",
        "key": "frc2642",
        "country_name": "USA",
        "motto": "In Scientia Vires",
        "rookie_year": 2008
    },
    {
        "website": "http://team2643.com",
        "name": "Lockheed Martin/Edgewater Networks, Inc./Boston Scientfic/Brin Wojcicki/Qualcomm/Philanthropic Ventures Foundation/BAE Systems/Intuitive Surgical, Inc./SVEF/Solid Works&Santa Teresa High",
        "locality": "San Jose",
        "nickname": "Dark Matter",
        "region": "California",
        "team_number": 2643,
        "location": "San Jose, California 95123, USA",
        "key": "frc2643",
        "country_name": "USA",
        "motto": "To See, To Do, To Improve, To Teach",
        "rookie_year": 2008
    },
    {
        "website": null,
        "name": "North Catholic High School",
        "locality": "Pittsburgh",
        "nickname": "Trojans",
        "region": "PA",
        "team_number": 2644,
        "location": "Pittsburgh, PA, USA",
        "key": "frc2644",
        "country_name": "USA",
        "motto": null,
        "rookie_year": 2008
    },
    {
        "website": "http://www.rprobotics.com",
        "name": "TQ Machining/Pribusin/Kaydon/Comcast/Cannon Muskegon & Reeths-Puffer High School",
        "locality": "Muskegon",
        "nickname": "PowerSurge",
        "region": "MI",
        "team_number": 2645,
        "location": "Muskegon, MI, USA",
        "key": "frc2645",
        "country_name": "USA",
        "motto": null,
        "rookie_year": 2008
    },
    {
        "website": "http://cyborgmustang.keepsblogging.com/",
        "name": "The Boeing Company/Superstition Springs Chrysler Jeep\u200e/Industrial Metal Supply/Copper State Nut and Bolt/The Goode Wright Gentles Agency/Fast Grip/Q-rio/Solidworks/Fry's Food Stores&North High School",
        "locality": "Phoenix",
        "nickname": "Cyborg Mustangs",
        "region": "Arizona",
        "team_number": 2647,
        "location": "Phoenix, Arizona 85014, USA",
        "key": "frc2647",
        "country_name": "USA",
        "motto": null,
        "rookie_year": 2008
    },
    {
        "website": "http://www.team2648.com",
        "name": "Wrabacon, Inc/The Robotics Institute of Maine/TRC/BAE Systems/Maine State Credit Union & Messalonskee High School",
        "locality": "Oakland",
        "nickname": "Infinite Loop",
        "region": "Maine",
        "team_number": 2648,
        "location": "Oakland, Maine 04963, USA",
        "key": "frc2648",
        "country_name": "USA",
        "motto": "Innoventers of the Future!",
        "rookie_year": 2008
    },
    {
        "website": null,
        "name": "Procempa & EMEF Emilio Meier High School",
        "locality": "Porto Alegre",
        "nickname": "Meyer Robotics",
        "region": "RS",
        "team_number": 2649,
        "location": "Porto Alegre, RS, Brazil",
        "key": "frc2649",
        "country_name": "Brazil",
        "motto": null,
        "rookie_year": 2008
    },
    {
        "website": null,
        "name": "Atid Elahleya High School",
        "locality": "Om- Elfahem",
        "nickname": "ELAHLYA",
        "region": "HA",
        "team_number": 2650,
        "location": "Om- Elfahem, HA, Israel",
        "key": "frc2650",
        "country_name": "Israel",
        "motto": null,
        "rookie_year": 2008
    },
    {
        "website": null,
        "name": "University of Texas at El Paso & Bel Air HIgh School",
        "locality": "El Paso",
        "nickname": "Highlander Engineering and Technology",
        "region": "TX",
        "team_number": 2652,
        "location": "El Paso, TX, USA",
        "key": "frc2652",
        "country_name": "USA",
        "motto": null,
        "rookie_year": 2008
    },
    {
        "website": null,
        "name": "Master High School",
        "locality": "Aracaju",
        "nickname": "Master Robotics",
        "region": "SE",
        "team_number": 2653,
        "location": "Aracaju, SE, Brazil",
        "key": "frc2653",
        "country_name": "Brazil",
        "motto": null,
        "rookie_year": 2008
    },
    {
        "website": "http://www.firstinspires.org/",
        "name": "Polaris Industries & Roseau Secondary",
        "locality": "Roseau",
        "nickname": "Rams",
        "region": "Minnesota",
        "team_number": 2654,
        "location": "Roseau, Minnesota 56751, USA",
        "key": "frc2654",
        "country_name": "USA",
        "motto": null,
        "rookie_year": 2008
    },
    {
        "website": "http://team2655.org/",
        "name": "Blue Ridge Tool, Inc. / TE Connectivity / TE Foundation / Analog Devices, Inc. / United Therapeutics  / Tuggle Duggins PA / Volvo / Unified Physician Management / Amica Companies Foundation / PPG Industries Foundation / PTC & Neighborhood Group",
        "locality": "Colfax",
        "nickname": "The Flying Platypi",
        "region": "North Carolina",
        "team_number": 2655,
        "location": "Colfax, North Carolina 27235, USA",
        "key": "frc2655",
        "country_name": "USA",
        "motto": "Ask Me Why I Playtpi?",
        "rookie_year": 2008
    },
    {
        "website": "http://www.quasics.org",
        "name": "The Heinz Endowments/Google/Beulah United Presbyterian Church/Bechtel Plant Machinery, Inc./La-Z-Boy Furniture Galleries/Nancy and Gene Delverny/The Kopp family/The MERS Group&Gateway Shs",
        "locality": "Monroeville",
        "nickname": "Quasics",
        "region": "Pennsylvania",
        "team_number": 2656,
        "location": "Monroeville, Pennsylvania 15146, USA",
        "key": "frc2656",
        "country_name": "USA",
        "motto": "Building better humans",
        "rookie_year": 2008
    },
    {
        "website": "https://sites.google.com/site/thundercats2657/",
        "name": "NASA/Pepper's Supermarket/Tinley Tee Tire Company/United Country Real Estate/Rocky Mountain Transport&Deming High",
        "locality": "Deming",
        "nickname": "Team Thundercats",
        "region": "New Mexico",
        "team_number": 2657,
        "location": "Deming, New Mexico 88030, USA",
        "key": "frc2657",
        "country_name": "USA",
        "motto": "Fueled by HotPockets!",
        "rookie_year": 2008
    },
    {
        "website": "http://www.team2658.org",
        "name": "ViaSat/Northrop Grumman Corp./Qualcomm/Oracle/North County WaterJet /Smart&Final/IMS (Industrial Metal Supply Co.)&Rancho Bernardo High",
        "locality": "San Diego",
        "nickname": "\u03a3-Motion",
        "region": "California",
        "team_number": 2658,
        "location": "San Diego, California 92128, USA",
        "key": "frc2658",
        "country_name": "USA",
        "motto": "We Put People FIRST!",
        "rookie_year": 2008
    },
    {
        "website": "http://www.alemany.org/apps/pages/index.jsp?uREC_ID=41018&type=d&rn=2953793",
        "name": "Boeing & Bishop Alemany High School",
        "locality": "Mission Hills",
        "nickname": "RoboWarriors",
        "region": "California",
        "team_number": 2659,
        "location": "Mission Hills, California 91345, USA",
        "key": "frc2659",
        "country_name": "USA",
        "motto": null,
        "rookie_year": 2008
    },
    {
        "website": "http://www.pengbots2660.org/",
        "name": "BE Aerospace/Boeing & Marysville Arts and Technology High School",
        "locality": "Tulalip",
        "nickname": "Pengbots",
        "region": "Washington",
        "team_number": 2660,
        "location": "Tulalip, Washington 98271, USA",
        "key": "frc2660",
        "country_name": "USA",
        "motto": "Who are we? 26-60",
        "rookie_year": 2008
    },
    {
        "website": null,
        "name": "Sierra Cannyon High School",
        "locality": "Chatsworth",
        "nickname": "Trailblazers",
        "region": "CA",
        "team_number": 2661,
        "location": "Chatsworth, CA, USA",
        "key": "frc2661",
        "country_name": "USA",
        "motto": null,
        "rookie_year": 2008
    },
    {
        "website": "http://www.robokrew.org",
        "name": "Bechtel/Gatorade/Wingfield Livestock Transportation & Tolleson Union High School & University High School",
        "locality": "Tolleson",
        "nickname": "Robo Krew",
        "region": "Arizona",
        "team_number": 2662,
        "location": "Tolleson, Arizona 85353, USA",
        "key": "frc2662",
        "country_name": "USA",
        "motto": "Our robot is only the beginning!",
        "rookie_year": 2008
    },
    {
        "website": null,
        "name": "Grossmont High School",
        "locality": "El Cajon",
        "nickname": "The Foothillers",
        "region": "CA",
        "team_number": 2663,
        "location": "El Cajon, CA, USA",
        "key": "frc2663",
        "country_name": "USA",
        "motto": null,
        "rookie_year": 2008
    },
    {
        "website": null,
        "name": "CSTEM,National Academy Foundation, &NACME & Chavez High School",
        "locality": "Houston",
        "nickname": "Lobos",
        "region": "TX",
        "team_number": 2664,
        "location": "Houston, TX, USA",
        "key": "frc2664",
        "country_name": "USA",
        "motto": null,
        "rookie_year": 2008
    },
    {
        "website": null,
        "name": "TE Connectivity / Leidos / Booz Allen Hamilton / Montgomery County ESC / Noble Solutions / Dayton Public Schools & THURGOOD MARSHALL HIGH SCHOOL",
        "locality": "Dayton",
        "nickname": "CougarBots",
        "region": "Ohio",
        "team_number": 2665,
        "location": "Dayton, Ohio, USA",
        "key": "frc2665",
        "country_name": "USA",
        "motto": null,
        "rookie_year": 2008
    },
    {
        "website": "http://www.firstinspires.org/",
        "name": "Nordson Medical / Uponor & Apple Valley Senior High",
        "locality": "Apple Valley",
        "nickname": "Knights of the Valley",
        "region": "Minnesota",
        "team_number": 2667,
        "location": "Apple Valley, Minnesota 55124, USA",
        "key": "frc2667",
        "country_name": "USA",
        "motto": "keep it simple stupid",
        "rookie_year": 2008
    },
    {
        "website": "http://www.nmtcc.org",
        "name": "BAE Systems / Raytheon / Stein Seal & North Montco Technical Career Center",
        "locality": "Lansdale",
        "nickname": "North Montco Vortex",
        "region": "PA",
        "team_number": 2668,
        "location": "Lansdale, PA, USA",
        "key": "frc2668",
        "country_name": "USA",
        "motto": null,
        "rookie_year": 2008
    },
    {
        "website": "http://www.frc2669.com",
        "name": "Bank Leumi, Rafael, Robotec, Rashi fund & Rabin High School",
        "locality": "Kiryat Yam",
        "nickname": "KY Bots",
        "region": "Z",
        "team_number": 2669,
        "location": "Kiryat Yam, Z, Israel",
        "key": "frc2669",
        "country_name": "Israel",
        "motto": null,
        "rookie_year": 2008
    },
    {
        "website": null,
        "name": "York Memorial Collegiate High School",
        "locality": "Toronto",
        "nickname": "Absent Algorithms",
        "region": "ON",
        "team_number": 2670,
        "location": "Toronto, ON, Canada",
        "key": "frc2670",
        "country_name": "Canada",
        "motto": null,
        "rookie_year": 2008
    },
    {
        "website": null,
        "name": "SRT & Osfia High School",
        "locality": "Osfia",
        "nickname": "Osfia",
        "region": "Z",
        "team_number": 2672,
        "location": "Osfia, Z, Israel",
        "key": "frc2672",
        "country_name": "Israel",
        "motto": null,
        "rookie_year": 2008
    },
    {
        "website": "http://www.firstinspires.org/",
        "name": "General Motors/DTE Energy Foundation/Ford Motor Company/University of Michigan MEZ/Michigan Department of Education/Detroit Public Schools/Google/Toyota Motor Company/McNaughton-McKay Electric Company/DADARA/The Berg Family & Cass Technical High School",
        "locality": "Detroit",
        "nickname": "Tenacious Technicians",
        "region": "Michigan",
        "team_number": 2673,
        "location": "Detroit, Michigan 48201, USA",
        "key": "frc2673",
        "country_name": "USA",
        "motto": "We roll 'till the wheels fall off.",
        "rookie_year": 2008
    },
    {
        "website": null,
        "name": "Escolas Integradas Nilton Lins High School",
        "locality": "Manaus",
        "nickname": "Nilton Lins",
        "region": "AM",
        "team_number": 2674,
        "location": "Manaus, AM, Brazil",
        "key": "frc2674",
        "country_name": "Brazil",
        "motto": null,
        "rookie_year": 2008
    },
    {
        "website": "http://www.team2675.com.br",
        "name": "Col\u00e9gio S\u00e3o Jo\u00e3o Ulbra High School & Col\u00e9gio Ulbra S\u00e3o Lucas High School",
        "locality": "Canoas",
        "nickname": "ABCTech",
        "region": "RS",
        "team_number": 2675,
        "location": "Canoas, RS, Brazil",
        "key": "frc2675",
        "country_name": "Brazil",
        "motto": null,
        "rookie_year": 2008
    },
    {
        "website": "http://www.RoboRaiders2676.com",
        "name": "Ecorse Community High School",
        "locality": "Ecorse",
        "nickname": "Ecorse Robo Raiders",
        "region": "Michigan",
        "team_number": 2676,
        "location": "Ecorse, Michigan 48229, USA",
        "key": "frc2676",
        "country_name": "USA",
        "motto": "We design.  We build.  We win!",
        "rookie_year": 2008
    },
    {
        "website": null,
        "name": "Boyer High School",
        "locality": "Jerusalem",
        "nickname": "Brauder",
        "region": "JM",
        "team_number": 2678,
        "location": "Jerusalem, JM, Israel",
        "key": "frc2678",
        "country_name": "Israel",
        "motto": null,
        "rookie_year": 2008
    },
    {
        "website": "https://www.facebook.com/TigerTeam2679/",
        "name": "The Hebrew University of Jerusalem- The Rachel and Selim Benin School of Computer Science and Engineering/MTM/Mobileye/BRM/Petrus/BTI2XL/Hi-Tech Mechanics/Hi-Tech Engineering Pvt&The Hebrew University Secondary School",
        "locality": "Jerusalem",
        "nickname": "Tiger Team",
        "region": "Yerushalayim",
        "team_number": 2679,
        "location": "Jerusalem, Yerushalayim 95435, Israel",
        "key": "frc2679",
        "country_name": "Israel",
        "motto": null,
        "rookie_year": 2008
    },
    {
        "website": null,
        "name": "Index Rob\u00f3tica / Vex Robotics / EM Minas do Le\u00e3o",
        "locality": "Minas do Le\u00e3o",
        "nickname": "Vex Minas",
        "region": "RS",
        "team_number": 2680,
        "location": "Minas do Le\u00e3o, RS, Brazil",
        "key": "frc2680",
        "country_name": "Brazil",
        "motto": null,
        "rookie_year": 2008
    },
    {
        "website": "https://www.ladypirates2681.com",
        "name": "Credit Suisse/The Bezos Family Foundation & George Westinghouse High School",
        "locality": "Brooklyn",
        "nickname": "Lady G-House Pirates",
        "region": "NY",
        "team_number": 2681,
        "location": "Brooklyn, NY, USA",
        "key": "frc2681",
        "country_name": "USA",
        "motto": null,
        "rookie_year": 2008
    },
    {
        "website": "http://boneyardrobotics.com",
        "name": "Potash Corp. Aurora / Hospira / United Therapeutics / Weyerhauser / Allen Family / Huo Family / The Lindbeck Family & South Central High",
        "locality": "Winterville",
        "nickname": "Boneyard Robotics",
        "region": "North Carolina",
        "team_number": 2682,
        "location": "Winterville, North Carolina 28590, USA",
        "key": "frc2682",
        "country_name": "USA",
        "motto": "Controlled Chaos",
        "rookie_year": 2008
    },
    {
        "website": null,
        "name": "Christopher Haven Foundation & Triton Regional High School",
        "locality": "Byfield",
        "nickname": "Team Haven",
        "region": "MA",
        "team_number": 2685,
        "location": "Byfield, MA, USA",
        "key": "frc2685",
        "country_name": "USA",
        "motto": null,
        "rookie_year": null
    },
    {
        "website": "http://www.2702rebels.com/",
        "name": "General Motors / Rockwell Automation / Communitech & Eastwood Collegiate Institute",
        "locality": "Kitchener",
        "nickname": "Rebels",
        "region": "Ontario",
        "team_number": 2702,
        "location": "Kitchener, Ontario N2H 1H6, Canada",
        "key": "frc2702",
        "country_name": "Canada",
        "motto": "The FIRST Step",
        "rookie_year": 2009
    },
    {
        "website": null,
        "name": "Ben Shemen High School",
        "locality": "ben shemen y.v.",
        "nickname": "fire fox",
        "region": "M",
        "team_number": 2703,
        "location": "ben shemen y.v., M, Israel",
        "key": "frc2703",
        "country_name": "Israel",
        "motto": null,
        "rookie_year": null
    },
    {
        "website": "http://www.goteam2704.org",
        "name": "Caterpillar Inc/BHS RoboBoosters & Batavia Sr High School",
        "locality": "Batavia",
        "nickname": "Roaring Robotics",
        "region": "Illinois",
        "team_number": 2704,
        "location": "Batavia, Illinois 60510, USA",
        "key": "frc2704",
        "country_name": "USA",
        "motto": null,
        "rookie_year": 2009
    },
    {
        "website": "http://www.ism-werobot.com/",
        "name": "Entrust Datacard  & THE INTERNATIONAL SCHOOL OF MINNESOTA & EAGLE RIDGE ACADEMY CHARTER SCHOOL",
        "locality": "Eden Prairie",
        "nickname": "WE ROBOT",
        "region": "Minnesota",
        "team_number": 2705,
        "location": "Eden Prairie, Minnesota 55344, USA",
        "key": "frc2705",
        "country_name": "USA",
        "motto": "Humans and Robots, Hand in Hand",
        "rookie_year": 2009
    },
    {
        "website": "http://team2706.ca",
        "name": "General Dynamics Mission Systems Canada/KRP Properties/Enertron Electric/Carleton University, Faculty of Engineering & Design/Rockwell Collins/PTC/Solidworks/Telepin Software/TD Canada Trust/Ottawa Public Library/Clyde & Co Canada/City of Ottawa/Shopify/Charles Taylor Adjusting/Cisco Systems/Kevin Lam/Ottawa West Community Robotics&Neighborhood Group",
        "locality": "Carp",
        "nickname": "Merge Robotics",
        "region": "Ontario",
        "team_number": 2706,
        "location": "Carp, Ontario K0A 1L0, Canada",
        "key": "frc2706",
        "country_name": "Canada",
        "motto": "Resolution Imminent!",
        "rookie_year": 2009
    },
    {
        "website": "http://www.firstinspires.org/",
        "name": "Jasen A MIller & Normandy High",
        "locality": "Saint Louis",
        "nickname": "Team PCD",
        "region": "Missouri",
        "team_number": 2707,
        "location": "Saint Louis, Missouri 63133, USA",
        "key": "frc2707",
        "country_name": "USA",
        "motto": "Building Gracious Professionalism and Leadership through understanding.",
        "rookie_year": 2009
    },
    {
        "website": "http://www.lakeeffectrobotics.ca/",
        "name": "LIMESTONE DISTRICT PUBLIC BOARD",
        "locality": "Kingston",
        "nickname": "Lake Effect Robotics",
        "region": "Ontario",
        "team_number": 2708,
        "location": "Kingston, Ontario K7L 3S7, Canada",
        "key": "frc2708",
        "country_name": "Canada",
        "motto": null,
        "rookie_year": 2009
    },
    {
        "website": "http://www.firstinspires.org/",
        "name": "Horizon Pharma/NASA/M&M Industries/Illinois Institute of Technology&Perspectives Charter High School",
        "locality": "Chicago",
        "nickname": "Iron Wolves",
        "region": "Illinois",
        "team_number": 2709,
        "location": "Chicago, Illinois 60653, USA",
        "key": "frc2709",
        "country_name": "USA",
        "motto": null,
        "rookie_year": 2009
    },
    {
        "website": null,
        "name": "Ball Aerospace/BAE Systems/PTC & Centaurus High School",
        "locality": "Lafayette",
        "nickname": "Centaurus Robotics",
        "region": "CO",
        "team_number": 2711,
        "location": "Lafayette, CO, USA",
        "key": "frc2711",
        "country_name": "USA",
        "motto": null,
        "rookie_year": 2009
    },
    {
        "website": "http://www.iraiders.org",
        "name": "Citizens of Melrose/Textron Systems/Raytheon/Melrose Cooperative Bank/Churchill Corp/SAME & Melrose High",
        "locality": "Melrose",
        "nickname": "iRaiders",
        "region": "Massachusetts",
        "team_number": 2713,
        "location": "Melrose, Massachusetts 02176, USA",
        "key": "frc2713",
        "country_name": "USA",
        "motto": null,
        "rookie_year": 2009
    },
    {
        "website": null,
        "name": "SRT & Monroe High School",
        "locality": "Monroe",
        "nickname": "Ketronix Robotix",
        "region": "MI",
        "team_number": 2719,
        "location": "Monroe, MI, USA",
        "key": "frc2719",
        "country_name": "USA",
        "motto": null,
        "rookie_year": 2009
    },
    {
        "website": "http://www.firstinspires.org/",
        "name": "Lasara H S",
        "locality": "Lasara",
        "nickname": "Blue mite",
        "region": "Texas",
        "team_number": 2721,
        "location": "Lasara, Texas 78561, USA",
        "key": "frc2721",
        "country_name": "USA",
        "motto": null,
        "rookie_year": 2009
    },
    {
        "website": "http://www.teamrocketrobotics.com",
        "name": "The Boeing Company/Team TinkerNDEP/Leavitt Signs/S & S Textiles/Little Caesar's Pizza/Brown's Bakery/J-M Distributors/SkyKae Kreations&Mount Saint Mary High School",
        "locality": "Oklahoma City",
        "nickname": "Team Rocket",
        "region": "Oklahoma",
        "team_number": 2723,
        "location": "Oklahoma City, Oklahoma 73109, USA",
        "key": "frc2723",
        "country_name": "USA",
        "motto": "Tradition: plywood, zip ties and duck tape!",
        "rookie_year": 2009
    },
    {
        "website": "http://www.firstinspires.org/",
        "name": "Boeing&Neighborhood Group",
        "locality": "Chicago",
        "nickname": "Ice Princesses",
        "region": "Illinois",
        "team_number": 2725,
        "location": "Chicago, Illinois 60612, USA",
        "key": "frc2725",
        "country_name": "USA",
        "motto": "Never Give Up",
        "rookie_year": 2009
    },
    {
        "website": "http://stormrobots.org",
        "name": "Lenape Regional Robotics / Lockheed Martin / Naval Air Systems Command / Comcast & NBC Universal / Storm Robotics Parent Club / National Defense Education Program / Vision Edge L.L.C. / CADPRO Inc. / Pancheros Mexican Grill / Radwell International & Cherokee High School & Lenape High School",
        "locality": "Marlton",
        "nickname": "Storm Robotics Team",
        "region": "New Jersey",
        "team_number": 2729,
        "location": "Marlton, New Jersey 08053, USA",
        "key": "frc2729",
        "country_name": "USA",
        "motto": null,
        "rookie_year": 2009
    },
    {
        "website": "http://www.pigmicepdx.com",
        "name": "Daimler/The Boeing Company/TE Connectivity/FLIR/Do It Best/Mead & Hunt/SolidWorks/East Side Plating/Coast Aluminun/Pastini Pastaria/CHS PTA/Portland Custom/Hankins Hardware&Cleveland High School&Family/Community",
        "locality": "Portland",
        "nickname": "Pigmice",
        "region": "Oregon",
        "team_number": 2733,
        "location": "Portland, Oregon 97202, USA",
        "key": "frc2733",
        "country_name": "USA",
        "motto": "With great ROBOTS comes great Responsibility.",
        "rookie_year": 2009
    },
    {
        "website": "http://www.Fruitvaleisd.com",
        "name": "The Texas High School Project Fund of Communities Foundation of Texas & Fruitvale ISD T-STEM Academy",
        "locality": "Fruitvale",
        "nickname": "RoBobcats",
        "region": "TX",
        "team_number": 2735,
        "location": "Fruitvale, TX, USA",
        "key": "frc2735",
        "country_name": "USA",
        "motto": null,
        "rookie_year": 2009
    },
    {
        "website": "http://www.facebook.com/pages/Houston-TX/YES-Prep-FIRST-Robotics-Team-2737/219102392109",
        "name": "YES Prep Public Schools & YES Prep Public Schools",
        "locality": "Houston",
        "nickname": "Wizards",
        "region": "TX",
        "team_number": 2737,
        "location": "Houston, TX, USA",
        "key": "frc2737",
        "country_name": "USA",
        "motto": null,
        "rookie_year": 2009
    },
    {
        "website": null,
        "name": "NASA/JC Penny Afterschool Program/Judson University/National 4-H Council/Honeywell/University of Illinois Kane County Extension & Bucket of Bolts 4-H Group",
        "locality": "Gilberts",
        "nickname": "Bucket of Bolts",
        "region": "IL",
        "team_number": 2739,
        "location": "Gilberts, IL, USA",
        "key": "frc2739",
        "country_name": "USA",
        "motto": null,
        "rookie_year": 2009
    },
    {
        "website": "http://method2madness.bataviarobotics.com",
        "name": "Caterpillar Inc/NASA & Batavia Robotics",
        "locality": "Batavia",
        "nickname": "Method 2 Madness",
        "region": "IL",
        "team_number": 2741,
        "location": "Batavia, IL, USA",
        "key": "frc2741",
        "country_name": "USA",
        "motto": null,
        "rookie_year": 2009
    },
    {
        "website": null,
        "name": "Berkner Stem Academy",
        "locality": "Richardson",
        "nickname": "Berkner Rambots",
        "region": "TX",
        "team_number": 2743,
        "location": "Richardson, TX, USA",
        "key": "frc2743",
        "country_name": "USA",
        "motto": null,
        "rookie_year": 2009
    },
    {
        "website": "http://www.neisd.net/stem/robotics.html",
        "name": "DeVry Univeristy/Texas High School Project Fund of the Communities Foundation of Texas/Valero Energy Corporation/Kelly Aviation Center, A Subsidiary of Lockheed Martin/SAIC/KCI & Lee STEM Robotics",
        "locality": "San Antonio",
        "nickname": "Incognito",
        "region": "TX",
        "team_number": 2745,
        "location": "San Antonio, TX, USA",
        "key": "frc2745",
        "country_name": "USA",
        "motto": null,
        "rookie_year": 2009
    },
    {
        "website": null,
        "name": "Maxim Electronics / Texas Workforce Commission / Time Warner Cable & R.L. Turner High School",
        "locality": "Carrollton",
        "nickname": "Turner Lions",
        "region": "TX",
        "team_number": 2747,
        "location": "Carrollton, TX, USA",
        "key": "frc2747",
        "country_name": "USA",
        "motto": null,
        "rookie_year": 2009
    },
    {
        "website": "http://www.connersvillerobotics.org",
        "name": "Community Education Coalition/Indiana Department of Workforce Development & Fayette County School Corporation with Connersville High School",
        "locality": "Connersville",
        "nickname": "The 7th Direction",
        "region": "IN",
        "team_number": 2749,
        "location": "Connersville, IN, USA",
        "key": "frc2749",
        "country_name": "USA",
        "motto": null,
        "rookie_year": 2009
    },
    {
        "website": "http:// www.Team2751.org",
        "name": "Tri-County Technical College/Mad Science of Clemson/Robert Bosch LLC/jcpenney & School District of Pickens County",
        "locality": "Pendleton",
        "nickname": "SPARK Robotics",
        "region": "SC",
        "team_number": 2751,
        "location": "Pendleton, SC, USA",
        "key": "frc2751",
        "country_name": "USA",
        "motto": null,
        "rookie_year": 2009
    },
    {
        "website": "http://team-overdrive.com",
        "name": "NASA/Umicore/Colonial Metals/Evonik Industries/Healthcare Facilities Management Society of New Jersey/Firestop Solutions & Teen Technology",
        "locality": "Bridgewater",
        "nickname": "Team Overdrive",
        "region": "NJ",
        "team_number": 2753,
        "location": "Bridgewater, NJ, USA",
        "key": "frc2753",
        "country_name": "USA",
        "motto": null,
        "rookie_year": 2009
    },
    {
        "website": "http://www.lymanrobotics.com",
        "name": "NDEP/Naval Air Warfare Center Training Systems Division/Walt Disney World & Lyman High School",
        "locality": "Longwood",
        "nickname": "B.A.D. (Built And Dangerous!)",
        "region": "FL",
        "team_number": 2757,
        "location": "Longwood, FL, USA",
        "key": "frc2757",
        "country_name": "USA",
        "motto": null,
        "rookie_year": 2009
    },
    {
        "website": null,
        "name": "NASA/OSU College of Engineering, Architecture & Technology & Stillwater High School",
        "locality": "Stillwater",
        "nickname": "Roboneers",
        "region": "OK",
        "team_number": 2759,
        "location": "Stillwater, OK, USA",
        "key": "frc2759",
        "country_name": "USA",
        "motto": null,
        "rookie_year": 2009
    },
    {
        "website": "http://www.team2761.com",
        "name": "Teichert Foundation/Excelsior Metals Inc./Valley Iron, Inc. /Olson Steel/Solidworks/The Tan Family/Sierra Marina/Sunrise Medical & Family/Community",
        "locality": "Fresno",
        "nickname": "IronHorse Robotics",
        "region": "California",
        "team_number": 2761,
        "location": "Fresno, California 93720, USA",
        "key": "frc2761",
        "country_name": "USA",
        "motto": "We Are Building The Future",
        "rookie_year": 2009
    },
    {
        "website": null,
        "name": "Sterling Public Schools",
        "locality": "Sterling",
        "nickname": "Tigers",
        "region": "OK",
        "team_number": 2763,
        "location": "Sterling, OK, USA",
        "key": "frc2763",
        "country_name": "USA",
        "motto": null,
        "rookie_year": 2009
    },
    {
        "website": "http://team2765.org",
        "name": "The Boeing Company/National Defense Education Program/Oklahoma Electric Cooperative/Hitachi/Omega Laser Design&Cleveland County 4-H ",
        "locality": "Norman",
        "nickname": "Radioactive Robotics",
        "region": "Oklahoma",
        "team_number": 2765,
        "location": "Norman, Oklahoma 73071, USA",
        "key": "frc2765",
        "country_name": "USA",
        "motto": "To Make the Best Better",
        "rookie_year": 2009
    },
    {
        "website": "http://www.strykeforce.org",
        "name": "Stryker/Midlink & Kalamazoo County 4-h",
        "locality": "Kalamazoo",
        "nickname": "Stryke Force",
        "region": "Michigan",
        "team_number": 2767,
        "location": "Kalamazoo, Michigan 49009, USA",
        "key": "frc2767",
        "country_name": "USA",
        "motto": "For Flying Out Loud!",
        "rookie_year": 2009
    },
    {
        "website": null,
        "name": "SRT & Curie Metro High School",
        "locality": "Chicago",
        "nickname": "ROBOTS IN MOTION",
        "region": "IL",
        "team_number": 2769,
        "location": "Chicago, IL, USA",
        "key": "frc2769",
        "country_name": "USA",
        "motto": null,
        "rookie_year": 2009
    },
    {
        "website": "http://www.coderedrobotics.com",
        "name": "General Motors Foundation / Robert Bosch / Ford Motor Company  / AutoCam  / Professional Fabracators / PTC / Rockwell Automation / CompuDie / PiPP Mobile / RoMan Manufacturing / Code Red Robotics & Kent County",
        "locality": "Grandville",
        "nickname": "Code Red Robotics the Stray Dogs",
        "region": "Michigan",
        "team_number": 2771,
        "location": "Grandville, Michigan 49418, USA",
        "key": "frc2771",
        "country_name": "USA",
        "motto": "Building Robots to Build Better People",
        "rookie_year": 2009
    },
    {
        "website": "http://www.irondogz.org",
        "name": "Pratt and Whitney  / Edmond Electric / DOD STEM / Hadley Design / The Boeing Company & Memorial Hs",
        "locality": "Edmond",
        "nickname": "IRONDOGZ",
        "region": "Oklahoma",
        "team_number": 2773,
        "location": "Edmond, Oklahoma 73013, USA",
        "key": "frc2773",
        "country_name": "USA",
        "motto": null,
        "rookie_year": 2009
    },
    {
        "website": "http://www.jacksonarearobotics.com",
        "name": "NASA Marshal Space Flight Center/PTC/DeWALT/jcpenney & Liberty Technology Magnet High School & University School of Jackson",
        "locality": "Jackson",
        "nickname": "Jackson Area Robotics",
        "region": "TN",
        "team_number": 2775,
        "location": "Jackson, TN, USA",
        "key": "frc2775",
        "country_name": "USA",
        "motto": null,
        "rookie_year": 2009
    },
    {
        "website": null,
        "name": "Department of Education & Blackwell High School",
        "locality": "Blackwell",
        "nickname": "Blackwell Resistance",
        "region": "OK",
        "team_number": 2777,
        "location": "Blackwell, OK, USA",
        "key": "frc2777",
        "country_name": "USA",
        "motto": null,
        "rookie_year": 2009
    },
    {
        "website": "http://www.CH1RP.org",
        "name": "Baker Hughes-Centrilift / American Airlines / RCB Bank / NGC Industries Inc. / Websites by Leslie / Pizza Time / Club Gatz / Pizza Hut / NASA & Claremore Public Schools",
        "locality": "Claremore",
        "nickname": "CH1RP",
        "region": "OK",
        "team_number": 2779,
        "location": "Claremore, OK, USA",
        "key": "frc2779",
        "country_name": "USA",
        "motto": null,
        "rookie_year": 2009
    },
    {
        "website": "http://www.roboPride.org",
        "name": "Navistar&Queen of Peace High School",
        "locality": "Burbank",
        "nickname": "RoboPRIDE",
        "region": "Illinois",
        "team_number": 2781,
        "location": "Burbank, Illinois 60459, USA",
        "key": "frc2781",
        "country_name": "USA",
        "motto": "The roar of a lion, the hum of a machine",
        "rookie_year": 2009
    },
    {
        "website": "http://www.kyeot.com",
        "name": "UPS / FORD MOTOR COMPANY / Amgen / AT&T / Kentucky Engineering Foundation / Cherry House / Gaylor / The Rawlings Group / Air Hydro Power / Siemens / Norton Healthcare / 80 20 Inc. / 3D Technologies - Solidworks / University of Louisville - J.B Speed School of Engineering / Ciscom Solutions & Neighborhood Group",
        "locality": "La Grange",
        "nickname": "Engineers of Tomorrow ",
        "region": "Kentucky",
        "team_number": 2783,
        "location": "La Grange, Kentucky 40031, USA",
        "key": "frc2783",
        "country_name": "USA",
        "motto": "\"We will either find a way or make one!\"",
        "rookie_year": 2009
    },
    {
        "website": "http://www.firstinspires.org/",
        "name": "United Technologies Corporation/Stanley Works & Kent School",
        "locality": "Kent",
        "nickname": "Prometheus",
        "region": "Connecticut",
        "team_number": 2785,
        "location": "Kent, Connecticut 06757, USA",
        "key": "frc2785",
        "country_name": "USA",
        "motto": "Bringing technology to Kent",
        "rookie_year": 2009
    },
    {
        "website": "https://sites.google.com/site/moodyroboticsteam",
        "name": "Innovation Academy for Engineering, Environmental & Marine Science",
        "locality": "Corpus Christi",
        "nickname": "Team Chaos",
        "region": "TX",
        "team_number": 2787,
        "location": "Corpus Christi, TX, USA",
        "key": "frc2787",
        "country_name": "USA",
        "motto": null,
        "rookie_year": 2009
    },
    {
        "website": "http://www.mnthtitanrobotics.org",
        "name": "Manor ISD/Thor Labs/National Instruments/3M/Texas Workforce Commission/FIRST In Texas/JOERIS General Contractors & Manor New Technology High",
        "locality": "Manor",
        "nickname": "TEXPLOSION",
        "region": "Texas",
        "team_number": 2789,
        "location": "Manor, Texas 78653, USA",
        "key": "frc2789",
        "country_name": "USA",
        "motto": "\"A small force with big leverage!\"",
        "rookie_year": 2009
    },
    {
        "website": "http://www.team2791.org",
        "name": "Precision Valve & Automation (PVA)/Boeing/CipherTechs&Shaker High School",
        "locality": "Latham",
        "nickname": "Shaker Robotics",
        "region": "New York",
        "team_number": 2791,
        "location": "Latham, New York 12110, USA",
        "key": "frc2791",
        "country_name": "USA",
        "motto": "K.I.S.S.",
        "rookie_year": 2009
    },
    {
        "website": null,
        "name": "Oklahoma State Department of Education/NASA Robotics Education FIRST Sponsorship Program & Southmoore High School",
        "locality": "Moore",
        "nickname": "Sabercats",
        "region": "OK",
        "team_number": 2793,
        "location": "Moore, OK, USA",
        "key": "frc2793",
        "country_name": "USA",
        "motto": null,
        "rookie_year": 2009
    },
    {
        "website": "http://www.firstinspires.org/",
        "name": "NASA/TAMA Tulsa Area Manufacturers Association & Tulsa Technology Center",
        "locality": "Broken Arrow",
        "nickname": "Ohm's Claw",
        "region": "Oklahoma",
        "team_number": 2795,
        "location": "Broken Arrow, Oklahoma 74011, USA",
        "key": "frc2795",
        "country_name": "USA",
        "motto": "Get our Technical Training and Go Change the World",
        "rookie_year": 2009
    },
    {
        "website": "http://www.team2797.com",
        "name": "Disney/Lake County School Board&East Ridge High School",
        "locality": "Clermont",
        "nickname": "Knight & Nerdy",
        "region": "Florida",
        "team_number": 2797,
        "location": "Clermont, Florida 34711, USA",
        "key": "frc2797",
        "country_name": "USA",
        "motto": "Where's the duct tape?",
        "rookie_year": 2009
    },
    {
        "website": null,
        "name": "Boeing & East High School & Kansas City Missouri School District",
        "locality": "Kansas City",
        "nickname": "The Teslas",
        "region": "MO",
        "team_number": 2799,
        "location": "Kansas City, MO, USA",
        "key": "frc2799",
        "country_name": "USA",
        "motto": null,
        "rookie_year": 2009
    },
    {
        "website": "http://phoenixmlitary.org",
        "name": "After School Matters and Motorola & Phoenix Military Academy",
        "locality": "Chicago",
        "nickname": "Firebirds",
        "region": "IL",
        "team_number": 2803,
        "location": "Chicago, IL, USA",
        "key": "frc2803",
        "country_name": "USA",
        "motto": null,
        "rookie_year": 2009
    },
    {
        "website": "http://www.waxahachierobotics.org",
        "name": "Waxahachie ISD/Lockheed Martin/Felty Family&Waxahachie Global H S&Waxahachie H S&Waxahachie Ninth Grade Academy",
        "locality": "Waxahachie",
        "nickname": "Ghost in the Machine",
        "region": "Texas",
        "team_number": 2805,
        "location": "Waxahachie, Texas 75165, USA",
        "key": "frc2805",
        "country_name": "USA",
        "motto": "This year, we're thinking bigger.",
        "rookie_year": 2009
    },
    {
        "website": "http://kbotics.ca",
        "name": "Limestone District School Board / Transformix Engineering / Pure Ingenuity & Kingston Collegiate & Vocational Institute",
        "locality": "Kingston",
        "nickname": "K-Botics",
        "region": "Ontario",
        "team_number": 2809,
        "location": "Kingston, Ontario K7L 3S7, Canada",
        "key": "frc2809",
        "country_name": "Canada",
        "motto": "Creating a culture of caring and respect and a tradition of excellence.",
        "rookie_year": 2009
    },
    {
        "website": "http://www.stormbots.com",
        "name": "US Digital/The Boeing Company/Washington State OSPI/Vancouver Public Schools/Protech/Robert Considine/Hewlett Packard Company/ConMet/USNR/Olympus Controls/Vancouver Bolt & Skyview High School",
        "locality": "Vancouver",
        "nickname": "StormBots",
        "region": "Washington",
        "team_number": 2811,
        "location": "Vancouver, Washington 98685, USA",
        "key": "frc2811",
        "country_name": "USA",
        "motto": "We don't just build robots, we build futures.",
        "rookie_year": 2009
    },
    {
        "website": "http://www.prospectgearheads.org/",
        "name": "Brocade Communications Systems/Brin and Wojcicki Foundation/BAE Systems/Walmart/Western Digital Corp/Intuitive Surgical/PTC/Symantec/OOCL, Inc./The Markus Family/Campbell Union High School District/De Anza College Manufacturing and CNC Technologies Department/Exatron, Inc. & Prospect High",
        "locality": "Saratoga",
        "nickname": "Gear Heads",
        "region": "California",
        "team_number": 2813,
        "location": "Saratoga, California 95070, USA",
        "key": "frc2813",
        "country_name": "USA",
        "motto": "It's fun and I like engineering",
        "rookie_year": 2009
    },
    {
        "website": "http://bluedevilmechanics.weebly.com/",
        "name": "Dreher High School/Richland County School District One & Dreher High",
        "locality": "Columbia",
        "nickname": "Blue Devil Mechanics",
        "region": "South Carolina",
        "team_number": 2815,
        "location": "Columbia, South Carolina 29205, USA",
        "key": "frc2815",
        "country_name": "USA",
        "motto": null,
        "rookie_year": 2009
    },
    {
        "website": "http://memphisfirstteams.org",
        "name": "Shelby County Schools & B T WASHINGTON HIGH SCHOOL",
        "locality": "Memphis",
        "nickname": "Bluff City Bots",
        "region": "Tennessee",
        "team_number": 2817,
        "location": "Memphis, Tennessee, USA",
        "key": "frc2817",
        "country_name": "USA",
        "motto": null,
        "rookie_year": 2009
    },
    {
        "website": "http://www.facebook.com/#!/pages/FRC-Team-2819-Team-Dynamite/300815189942935?sk=wall",
        "name": "NASA / Bezos Family Foundation / Maryland Space Business Roundtable & Oxon Hill High",
        "locality": "Oxon Hill",
        "nickname": "Team Dynamite",
        "region": "Maryland",
        "team_number": 2819,
        "location": "Oxon Hill, Maryland 20745, USA",
        "key": "frc2819",
        "country_name": "USA",
        "motto": "Team Dynamite ... exploding with awesomeness!",
        "rookie_year": 2009
    },
    {
        "website": null,
        "name": "NASA/Oklahoma State Department of Education & Preston High School",
        "locality": "Preston",
        "nickname": "TASER",
        "region": "OK",
        "team_number": 2821,
        "location": "Preston, OK, USA",
        "key": "frc2821",
        "country_name": "USA",
        "motto": null,
        "rookie_year": 2009
    },
    {
        "website": "http://hprobotics.org",
        "name": "3M/Thomson Reuters Labs&Highland Park Senior High",
        "locality": "Saint Paul",
        "nickname": "The Automatons",
        "region": "Minnesota",
        "team_number": 2823,
        "location": "Saint Paul, Minnesota 55116, USA",
        "key": "frc2823",
        "country_name": "USA",
        "motto": " ",
        "rookie_year": 2009
    },
    {
        "website": "http://www.team2825.com",
        "name": "Boston Scientific/General Mills & Afsa High School",
        "locality": "Saint Paul",
        "nickname": "Roc Robotics",
        "region": "Minnesota",
        "team_number": 2825,
        "location": "Saint Paul, Minnesota 55127, USA",
        "key": "frc2825",
        "country_name": "USA",
        "motto": null,
        "rookie_year": 2009
    },
    {
        "website": "http://www.waverobotics.com",
        "name": "Bemis Company Inc./Oshkosh Corporation/Schneider Electric/Triangle Manufacturing Company & Oshkosh Recreational Department",
        "locality": "Oshkosh",
        "nickname": "Wave Robotics",
        "region": "Wisconsin",
        "team_number": 2826,
        "location": "Oshkosh, Wisconsin 54901, USA",
        "key": "frc2826",
        "country_name": "USA",
        "motto": "Making a Splash!",
        "rookie_year": 2009
    },
    {
        "website": "http://www.crowncityrobotics09.webs.com/",
        "name": "DODStem/Optimist Club of Coronado/Rotary International/Coronado Schools Foundation/High Tide & Coronado High",
        "locality": "Coronado",
        "nickname": "Crown City Robotics",
        "region": "California",
        "team_number": 2827,
        "location": "Coronado, California 92118, USA",
        "key": "frc2827",
        "country_name": "USA",
        "motto": null,
        "rookie_year": 2009
    },
    {
        "website": "http://www.SirMacHineryRobotics.com",
        "name": "Boeing/jcpenney/Miller Painting, Incorporated & Cornerstone Academy Home School",
        "locality": "Norman",
        "nickname": "Knights of Sir MacHinery",
        "region": "OK",
        "team_number": 2829,
        "location": "Norman, OK, USA",
        "key": "frc2829",
        "country_name": "USA",
        "motto": null,
        "rookie_year": 2009
    },
    {
        "website": "https://sites.google.com/site/team2830/",
        "name": "Rockwell Automation/GE Volunteers of GE Healthcare/Harley-Davidson/CLC Riverside High School/MSOE/George Mosher & Riverside High",
        "locality": "Milwaukee",
        "nickname": "Riverside RoboTigers",
        "region": "Wisconsin",
        "team_number": 2830,
        "location": "Milwaukee, Wisconsin 53211, USA",
        "key": "frc2830",
        "country_name": "USA",
        "motto": null,
        "rookie_year": 2009
    },
    {
        "website": null,
        "name": "Boeing & Perspectives Calumet Campus High Schools",
        "locality": "Chicago",
        "nickname": "Warriors",
        "region": "IL",
        "team_number": 2831,
        "location": "Chicago, IL, USA",
        "key": "frc2831",
        "country_name": "USA",
        "motto": null,
        "rookie_year": 2009
    },
    {
        "website": "http://www.livoniawarriors.org  ",
        "name": "AISIN Technical Center of America, Inc./DENSO International America, Inc./Roush/Linear Mold & Engineering/Ford Motor Company/BAE Systems/RCO Technologies/HM White/Rivian/Alpha Steel/Cooper Standard/NYX&Livonia Public Schools",
        "locality": "Livonia",
        "nickname": "The Livonia  Warriors",
        "region": "Michigan",
        "team_number": 2832,
        "location": "Livonia, Michigan 48154, USA",
        "key": "frc2832",
        "country_name": "USA",
        "motto": "\"Gear UP\"",
        "rookie_year": 2009
    },
    {
        "website": "http://roboscorpion.net",
        "name": "Brownsville Independent School District / Univ. of Texas Rio Grande Valley & Brownsville Early College H S",
        "locality": "Brownsville",
        "nickname": "Roboscorpions",
        "region": "Texas",
        "team_number": 2833,
        "location": "Brownsville, Texas, USA",
        "key": "frc2833",
        "country_name": "USA",
        "motto": null,
        "rookie_year": 2009
    },
    {
        "website": "http://www.team2834.com",
        "name": "FCA Foundation/General Motors/thyssenKrupp/Magna/PTC/Ford Motor Company&Bloomfield Hills High School",
        "locality": "Bloomfield Hills",
        "nickname": "Bionic Black Hawks",
        "region": "Michigan",
        "team_number": 2834,
        "location": "Bloomfield Hills, Michigan 48302, USA",
        "key": "frc2834",
        "country_name": "USA",
        "motto": "Learn, Serve, Grow",
        "rookie_year": 2009
    },
    {
        "website": "http://www.liberty.k12.oh.us/powpak/cgi-bin/homepage.pl?id=lbtylhsrobotics",
        "name": "NASA & Liberty High School",
        "locality": "Youngstown",
        "nickname": "Shazbotz",
        "region": "OH",
        "team_number": 2835,
        "location": "Youngstown, OH, USA",
        "key": "frc2835",
        "country_name": "USA",
        "motto": null,
        "rookie_year": 2009
    },
    {
        "website": "http://www.teambeta.org",
        "name": "ebm-papst Inc./United Technologies Corporation/Sealed Air/ionBank/Thomaston Savings Bank & Nonnewaug High School",
        "locality": "Woodbury",
        "nickname": "Team Beta",
        "region": "Connecticut",
        "team_number": 2836,
        "location": "Woodbury, Connecticut 06798, USA",
        "key": "frc2836",
        "country_name": "USA",
        "motto": "\"We're working on it\"",
        "rookie_year": 2009
    },
    {
        "website": "http://www.polytechfusion.com",
        "name": "Freebird Robotics",
        "locality": "Gilbert",
        "nickname": "Freebirds",
        "region": "AZ",
        "team_number": 2837,
        "location": "Gilbert, AZ, USA",
        "key": "frc2837",
        "country_name": "USA",
        "motto": null,
        "rookie_year": 2009
    },
    {
        "website": "http://www.2838eaglebots.org/",
        "name": "The Boeing Company/Monsanto Company & Barat Academy",
        "locality": "Chesterfield",
        "nickname": "Eaglebots",
        "region": "Missouri",
        "team_number": 2838,
        "location": "Chesterfield, Missouri 63005, USA",
        "key": "frc2838",
        "country_name": "USA",
        "motto": "Eaglebots",
        "rookie_year": 2009
    },
    {
        "website": "http://www.team2839.org",
        "name": "Nordson Asymtek / ViaSat / D & K Engineering / United Technologies Inc. / PowerPlus / BAE Systems / Abbott Labs / Qualcomm / Department of Defense STEM / Booz Allen Hamilton & Escondido Charter High",
        "locality": "Escondido",
        "nickname": "Daedalus",
        "region": "California",
        "team_number": 2839,
        "location": "Escondido, California 92027, USA",
        "key": "frc2839",
        "country_name": "USA",
        "motto": "Intelligence cubed",
        "rookie_year": 2009
    },
    {
        "website": "http://www.pcdsrobotics.org/",
        "name": "PHOENIX COUNTRY DAY SCHOOL",
        "locality": "Paradise Valley",
        "nickname": "Blue Tide",
        "region": "Arizona",
        "team_number": 2840,
        "location": "Paradise Valley, Arizona 85253, USA",
        "key": "frc2840",
        "country_name": "USA",
        "motto": null,
        "rookie_year": 2009
    },
    {
        "website": null,
        "name": "Texas High School Project/Communities Foundation of Texas & Northwest Early College High School",
        "locality": "El Paso",
        "nickname": "NECHS",
        "region": "TX",
        "team_number": 2841,
        "location": "El Paso, TX, USA",
        "key": "frc2841",
        "country_name": "USA",
        "motto": null,
        "rookie_year": 2009
    },
    {
        "website": null,
        "name": "Boeing & Rock Creek Schools",
        "locality": "Bokchito",
        "nickname": "Mustangs",
        "region": "OK",
        "team_number": 2842,
        "location": "Bokchito, OK, USA",
        "key": "frc2842",
        "country_name": "USA",
        "motto": null,
        "rookie_year": 2009
    },
    {
        "website": null,
        "name": "Transmountain Early College High School",
        "locality": "El Paso",
        "nickname": "Metal Heads",
        "region": "TX",
        "team_number": 2843,
        "location": "El Paso, TX, USA",
        "key": "frc2843",
        "country_name": "USA",
        "motto": null,
        "rookie_year": 2009
    },
    {
        "website": "http://www.team2844.com",
        "name": "Betty Fairfax High School",
        "locality": "Laveen",
        "nickname": "Stampede Robotics",
        "region": "Arizona",
        "team_number": 2844,
        "location": "Laveen, Arizona 85339, USA",
        "key": "frc2844",
        "country_name": "USA",
        "motto": null,
        "rookie_year": 2009
    },
    {
        "website": null,
        "name": "NASA/MGS Machine/Nonin Medical & Osseo Senior High School",
        "locality": "Osseo",
        "nickname": "O'Botics",
        "region": "MN",
        "team_number": 2845,
        "location": "Osseo, MN, USA",
        "key": "frc2845",
        "country_name": "USA",
        "motto": null,
        "rookie_year": 2009
    },
    {
        "website": "http://www.firebears.org/",
        "name": "Boston Scientific/United Technologies&Roseville Area Senior High",
        "locality": "Saint Paul",
        "nickname": "FireBears",
        "region": "Minnesota",
        "team_number": 2846,
        "location": "Saint Paul, Minnesota 55113, USA",
        "key": "frc2846",
        "country_name": "USA",
        "motto": null,
        "rookie_year": 2009
    },
    {
        "website": "http://www.fairmontrobotics.com/",
        "name": "3M Foundation/A & E Construction Supply & Fairmont High & Fairmont High",
        "locality": "Fairmont",
        "nickname": "The MegaHertz",
        "region": "Minnesota",
        "team_number": 2847,
        "location": "Fairmont, Minnesota 56031, USA",
        "key": "frc2847",
        "country_name": "USA",
        "motto": "Innovators and Inventors!",
        "rookie_year": 2009
    },
    {
        "website": "http://www.jesuitcp.org/robotics",
        "name": "REV Robotics / FTC Industries / Karlee / Genesee Group Inc. / Burns Controls / FIRST in Texas & Jesuit College Prep School",
        "locality": "Dallas",
        "nickname": "\u26a1 ALL SPARKS \u26a1",
        "region": "Texas",
        "team_number": 2848,
        "location": "Dallas, Texas 75244, USA",
        "key": "frc2848",
        "country_name": "USA",
        "motto": "All It Takes is a Spark",
        "rookie_year": 2009
    },
    {
        "website": "http://www.hammondursamajor.org/ursamajor2849/",
        "name": "Army Research Lab/Rentech Solutions Corporation/Innovim/UMBC Training Center/VMW Express, Inc. & Hammond High",
        "locality": "Columbia",
        "nickname": "Ursa Major",
        "region": "Maryland",
        "team_number": 2849,
        "location": "Columbia, Maryland 21046, USA",
        "key": "frc2849",
        "country_name": "USA",
        "motto": "  ",
        "rookie_year": 2009
    },
    {
        "website": "http://www.cyberwolvesrobotics.net",
        "name": "LCF Enterprises & Lake City High School",
        "locality": "Coeur d'Alene",
        "nickname": "Cyberwolves",
        "region": "ID",
        "team_number": 2850,
        "location": "Coeur d'Alene, ID, USA",
        "key": "frc2850",
        "country_name": "USA",
        "motto": null,
        "rookie_year": 2009
    },
    {
        "website": "http://crevolutionrobotics.org",
        "name": "Utica Community Schools / DELPHI / FCA Foundation / BAE SYSTEMS / Accu-rite Industries & Academy for International Studies & Utica High School & Adlai Stevenson High School & Eisenhower High School & Henry Ford Ii High School",
        "locality": "Sterling Heights",
        "nickname": "Crevolution",
        "region": "Michigan",
        "team_number": 2851,
        "location": "Sterling Heights, Michigan 48314, USA",
        "key": "frc2851",
        "country_name": "USA",
        "motto": "A Creative Revolution ",
        "rookie_year": 2009
    },
    {
        "website": "http://dmhighvoltage.com/",
        "name": "Callisto Integration  / General Motors  / Woodbridge Foam Corporation / Ontario Power Generation / Mulitplex Manufacturing / FABRIS / Solidworks  / Parker Canada / Niagara Catholic District School Board  & Denis Morris Catholic High School",
        "locality": "St Catharines",
        "nickname": "DM High Voltage",
        "region": "Ontario",
        "team_number": 2852,
        "location": "St Catharines, Ontario L2T 2M9, Canada",
        "key": "frc2852",
        "country_name": "Canada",
        "motto": "Sparking Interest, Igniting Imagination ",
        "rookie_year": 2009
    },
    {
        "website": "http://www.mililanirobotics.org",
        "name": "DoD STEM/BAE Systems/SPAWAR/ACS Supply/Pioneer Ace Hardware/Friends of Hawaii Robotics/McDonalds of Hawaii/MHS Science Learning Center&Mililani High School",
        "locality": "Mililani",
        "nickname": "Hot Spot Robotics",
        "region": "Hawaii",
        "team_number": 2853,
        "location": "Mililani, Hawaii 96789, USA",
        "key": "frc2853",
        "country_name": "USA",
        "motto": null,
        "rookie_year": 2009
    },
    {
        "website": "http://evhsrobotics.com/",
        "name": "Evergreen Valley High",
        "locality": "San Jose",
        "nickname": "The Prototypes",
        "region": "California",
        "team_number": 2854,
        "location": "San Jose, California 95148, USA",
        "key": "frc2854",
        "country_name": "USA",
        "motto": "It's Just A Prototype",
        "rookie_year": 2009
    },
    {
        "website": "http://www.beastbot2855.com",
        "name": "3M/Minneapolis Foundation - Larry Fitzgerald First Down Fund/University of St. Thomas/General Dynamics&Como Park Senior High",
        "locality": "Saint Paul",
        "nickname": "BEASTBOT",
        "region": "Minnesota",
        "team_number": 2855,
        "location": "Saint Paul, Minnesota 55117, USA",
        "key": "frc2855",
        "country_name": "USA",
        "motto": "Belong Explore Achieve Succeed Together",
        "rookie_year": 2009
    },
    {
        "website": "http://www.planetarydrive.org/",
        "name": "Xerox Corporation/Newton's Attic/Kinemetrix/Thermal Equipment/Bates Security/Baines Builders Products/Motorvation/Tate Hill Jacobs Architecture/Schneider Electric&Paul Laurence Dunbar High School",
        "locality": "Lexington",
        "nickname": "Planetary Drive",
        "region": "Kentucky",
        "team_number": 2856,
        "location": "Lexington, Kentucky 40513, USA",
        "key": "frc2856",
        "country_name": "USA",
        "motto": "If Better is Possible, Good is not Enough",
        "rookie_year": 2009
    },
    {
        "website": null,
        "name": "Texas High School Project/jcpenney & Williams Preparatory High School & Uplift Education",
        "locality": "Dallas",
        "nickname": "Black Ops",
        "region": "TX",
        "team_number": 2857,
        "location": "Dallas, TX, USA",
        "key": "frc2857",
        "country_name": "USA",
        "motto": null,
        "rookie_year": 2009
    },
    {
        "website": null,
        "name": "Ball Aerospace / NASA / Enhanced Performance Management & Colorado School of Mines Robotics Outreach",
        "locality": "Golden",
        "nickname": "Blasterbots",
        "region": "CO",
        "team_number": 2859,
        "location": "Golden, CO, USA",
        "key": "frc2859",
        "country_name": "USA",
        "motto": null,
        "rookie_year": 2009
    },
    {
        "website": "https://sites.google.com/a/lake-city.k12.mn.us/2861-infinity-s-end/",
        "name": "Hearth and Home Technologies/Medtronic/Acrotech/Lockheed Martin/PTC/StarTech Computing Inc.&Lincoln Secondary",
        "locality": "Lake City",
        "nickname": "Infinity's End",
        "region": "Minnesota",
        "team_number": 2861,
        "location": "Lake City, Minnesota 55041, USA",
        "key": "frc2861",
        "country_name": "USA",
        "motto": "\"Sometimes the questions are complicated and the answers are simple.\"",
        "rookie_year": 2009
    },
    {
        "website": null,
        "name": "Westhill High School",
        "locality": "Stamford",
        "nickname": "UTC Westhill Vikings",
        "region": "CT",
        "team_number": 2862,
        "location": "Stamford, CT, USA",
        "key": "frc2862",
        "country_name": "USA",
        "motto": null,
        "rookie_year": 2009
    },
    {
        "website": null,
        "name": "Texas High School Project Fund of the Communities Foundation of Texas & Mission Early College High School",
        "locality": "El Paso",
        "nickname": "Sigma Phoenix",
        "region": "TX",
        "team_number": 2864,
        "location": "El Paso, TX, USA",
        "key": "frc2864",
        "country_name": "USA",
        "motto": null,
        "rookie_year": 2009
    },
    {
        "website": "http://www.roboteknix.com",
        "name": "Discover Technology/Bay Shore Systems/Itron, Inc./ExtraTech/LCF Enterprises & Post Falls High School",
        "locality": "Post Falls",
        "nickname": "ROBOTEKNIX",
        "region": "ID",
        "team_number": 2865,
        "location": "Post Falls, ID, USA",
        "key": "frc2865",
        "country_name": "USA",
        "motto": null,
        "rookie_year": 2009
    },
    {
        "website": "http://omhsrobotics.webs.com",
        "name": "NASA/Lockheed Martin/Fred Needel, Inc./BAA & Owings Mills High School",
        "locality": "Owings Mills",
        "nickname": "Phoenix Robotics",
        "region": "MD",
        "team_number": 2866,
        "location": "Owings Mills, MD, USA",
        "key": "frc2866",
        "country_name": "USA",
        "motto": null,
        "rookie_year": null
    },
    {
        "website": "http://www.elklogics.com",
        "name": "Elkhart Community Schools/Elkhart Education Foundation & Elkhart Central High School & Elkhart Memorial High School",
        "locality": "Elkhart",
        "nickname": "ElkLogics",
        "region": "Indiana",
        "team_number": 2867,
        "location": "Elkhart, Indiana 46516, USA",
        "key": "frc2867",
        "country_name": "USA",
        "motto": null,
        "rookie_year": 2009
    },
    {
        "website": "http://www.regaleaglerobotics.com/",
        "name": "Bethpage Union Free School District/UTC/Plethora/Solidworks/Waterjets Unlimited /Altice & Bethpage Senior High School",
        "locality": "Bethpage",
        "nickname": "Regal Eagles",
        "region": "New York",
        "team_number": 2869,
        "location": "Bethpage, New York 11714, USA",
        "key": "frc2869",
        "country_name": "USA",
        "motto": "Sic itur ad astra./This Way to the Stars",
        "rookie_year": 2009
    },
    {
        "website": null,
        "name": "Boston Public Schools-John D. O'Bryant School of Mathematics and Science/Massachusetts Institute of Technology/Lincoln Laboratories & John D. O'Bryant School of Mathematics and Science",
        "locality": "Roxbury",
        "nickname": "Beantown Botz",
        "region": "MA",
        "team_number": 2871,
        "location": "Roxbury, MA, USA",
        "key": "frc2871",
        "country_name": "USA",
        "motto": null,
        "rookie_year": 2009
    },
    {
        "website": "http://www.ewsdonline.org/education/club/club.php?sectiondetailid=4653&",
        "name": "Wheatley School",
        "locality": "Old Westbury",
        "nickname": "CyberCats",
        "region": "New York",
        "team_number": 2872,
        "location": "Old Westbury, New York 11568, USA",
        "key": "frc2872",
        "country_name": "USA",
        "motto": null,
        "rookie_year": 2009
    },
    {
        "website": null,
        "name": "NASA & Northwest Rankin High School",
        "locality": "Flowood",
        "nickname": "NWR",
        "region": "MS",
        "team_number": 2873,
        "location": "Flowood, MS, USA",
        "key": "frc2873",
        "country_name": "USA",
        "motto": null,
        "rookie_year": 2009
    },
    {
        "website": "http:// ",
        "name": "Honeywell FM&T/DeHaan Remodeling/Absolute Automotive/May Technology & Mfg. Inc/Schefers Roofing/Grain Valley High School/Jeff Grisham/Lunar Bowl/Elkins Heating and Cooling/Emmert Welding&Grain Valley High",
        "locality": "Grain Valley",
        "nickname": "Iron Eagles",
        "region": "Missouri",
        "team_number": 2874,
        "location": "Grain Valley, Missouri 64029, USA",
        "key": "frc2874",
        "country_name": "USA",
        "motto": "Together we can!",
        "rookie_year": 2009
    },
    {
        "website": "http://www.firstinspires.org/",
        "name": "Cold Spring Harbor High School",
        "locality": "Cold Spring Harbor",
        "nickname": "CyberHawks",
        "region": "New York",
        "team_number": 2875,
        "location": "Cold Spring Harbor, New York 11724, USA",
        "key": "frc2875",
        "country_name": "USA",
        "motto": null,
        "rookie_year": 2009
    },
    {
        "website": "http://www.bhsrobotix.com/",
        "name": "Lockheed Martin Co/Renesas/PTC&Burlington High",
        "locality": "Burlington",
        "nickname": "Devilbotz",
        "region": "Massachusetts",
        "team_number": 2876,
        "location": "Burlington, Massachusetts 01803, USA",
        "key": "frc2876",
        "country_name": "USA",
        "motto": "Slow is smooth and smooth is fast",
        "rookie_year": 2009
    },
    {
        "website": "http://www.ligerbots.org",
        "name": "Google/PTC/Raytheon/Dunkin Donuts/Shark Ninja/At Once Inc./The Village Bank/Whole Foods/Tanowitz Law Office, PC/McVittie Tax Advisors/Newton Schools Foundation/Newton Public Schools/BAE/You-Do-It Electronics/Bose/Textron & Newton South High & Newton North High",
        "locality": "Newton",
        "nickname": "LigerBots",
        "region": "Massachusetts",
        "team_number": 2877,
        "location": "Newton, Massachusetts 02459, USA",
        "key": "frc2877",
        "country_name": "USA",
        "motto": "North & South together as one!",
        "rookie_year": 2009
    },
    {
        "website": "http://frc2879.com",
        "name": "Pentair Foundation/Medtronic/Electro-Mechanical Contracting, Inc&St. Louis Park Senior High",
        "locality": "Saint Louis Park",
        "nickname": "Oriole Robotics",
        "region": "Minnesota",
        "team_number": 2879,
        "location": "Saint Louis Park, Minnesota 55426, USA",
        "key": "frc2879",
        "country_name": "USA",
        "motto": null,
        "rookie_year": 2009
    },
    {
        "website": "http://sites.google.com/site/thefingerpuppetmafiacom",
        "name": "SRT-STEM Center & Galveston Ball Prep.",
        "locality": "Galveston",
        "nickname": "Finger Puppet Mafia",
        "region": "TX",
        "team_number": 2880,
        "location": "Galveston, TX, USA",
        "key": "frc2880",
        "country_name": "USA",
        "motto": null,
        "rookie_year": 2009
    },
    {
        "website": "http://www.frcteam2881.com",
        "name": "Girl Scouts of Central Texas/Dell Inc./National Instruments/Duck Tape/BAE Systems Inc./RGK Foundation/CC Carlton/Silicon Labs/GSCTX Troop #3993&Girl Scouts of Central Texas Troop 3993",
        "locality": "Austin",
        "nickname": "Lady Cans",
        "region": "Texas",
        "team_number": 2881,
        "location": "Austin, Texas 78753, USA",
        "key": "frc2881",
        "country_name": "USA",
        "motto": "Ladies can, can you?",
        "rookie_year": 2009
    },
    {
        "website": "http://www.firstinspires.org/",
        "name": "Bezos Foundation/Texas Workforce Commission&Morton Ranch H S",
        "locality": "Katy",
        "nickname": "Nuts n Boltz",
        "region": "Texas",
        "team_number": 2882,
        "location": "Katy, Texas 77449, USA",
        "key": "frc2882",
        "country_name": "USA",
        "motto": null,
        "rookie_year": 2009
    },
    {
        "website": "http://www.team2883.com/",
        "name": "Marvin Windows & Warroad High School",
        "locality": "Warroad",
        "nickname": "F.R.E.D (Fighting Rednecks Engineering and Design)",
        "region": "Minnesota",
        "team_number": 2883,
        "location": "Warroad, Minnesota 56763, USA",
        "key": "frc2883",
        "country_name": "USA",
        "motto": "Get er done",
        "rookie_year": 2009
    },
    {
        "website": "http://www.engiknights.com",
        "name": "BAE Systems/PRIOR & Notre Dame High School",
        "locality": "Caguas",
        "nickname": "EngiKnights",
        "region": "PR",
        "team_number": 2884,
        "location": "Caguas, PR, USA",
        "key": "frc2884",
        "country_name": "USA",
        "motto": null,
        "rookie_year": 2009
    },
    {
        "website": null,
        "name": "BAE Systems/PRIOR & Cupey Ville High School",
        "locality": "San Juan",
        "nickname": "Falcons",
        "region": "PR",
        "team_number": 2885,
        "location": "San Juan, PR, USA",
        "key": "frc2885",
        "country_name": "USA",
        "motto": null,
        "rookie_year": 2009
    },
    {
        "website": null,
        "name": "SRT-Nypro & Alonzo A. Crim Open Campus High School",
        "locality": "Atlanta",
        "nickname": "Blue Bots",
        "region": "GA",
        "team_number": 2887,
        "location": "Atlanta, GA, USA",
        "key": "frc2887",
        "country_name": "USA",
        "motto": null,
        "rookie_year": 2009
    },
    {
        "website": "http://www.beaverbots.org",
        "name": "PTC/NuVu & Beaver Country Day School",
        "locality": "Chestnut Hill",
        "nickname": "The Beaverbots",
        "region": "MA",
        "team_number": 2888,
        "location": "Chestnut Hill, MA, USA",
        "key": "frc2888",
        "country_name": "USA",
        "motto": null,
        "rookie_year": 2009
    },
    {
        "website": "http://www.hawkcollective2890.com/",
        "name": "GE Volunteers (GE Energy [Power and Water]) / BAE Systems (Norfolk Ship Repair) / DoD STEM / SPAWAR System Center Atlantic / The MITRE Corporation / Taylor McCorkill / THOR Solutions, LLC / Raytheon / Hickory Middle School TechnoHawks Robotics / Ciccone Brothers Custom Railings / Hickory HS Parent Teacher Student Association &Hickory High",
        "locality": "Chesapeake",
        "nickname": "The Hawk Collective",
        "region": "Virginia",
        "team_number": 2890,
        "location": "Chesapeake, Virginia 23322, USA",
        "key": "frc2890",
        "country_name": "USA",
        "motto": "You will be assimilated.",
        "rookie_year": 2009
    },
    {
        "website": "http://rosemontrobotics.com",
        "name": "NASA/IEEE & Rosemont High School",
        "locality": "Sacramento",
        "nickname": "Hottie Botties",
        "region": "CA",
        "team_number": 2892,
        "location": "Sacramento, CA, USA",
        "key": "frc2892",
        "country_name": "USA",
        "motto": null,
        "rookie_year": 2009
    },
    {
        "website": "http://logomotion.pnhrobotics.org",
        "name": "Boeing & Parkway North High School",
        "locality": "Saint Louis",
        "nickname": "Parkway North Robohobos",
        "region": "MO",
        "team_number": 2893,
        "location": "Saint Louis, MO, USA",
        "key": "frc2893",
        "country_name": "USA",
        "motto": null,
        "rookie_year": 2009
    },
    {
        "website": "https://www.teambroncobots.com/ace/index.html",
        "name": "Boeing / Kastle Grinding / Honeywell / Garmin Industries / Ewing Marion Kauffman Foundation / R&D Leverage / Blessed Ministries / Kauffman Foundation / DuBois Consultants, Inc. & Afrikan Centered Education Collegium Campus",
        "locality": "Kansas City",
        "nickname": "ACE Robotics",
        "region": "MO",
        "team_number": 2894,
        "location": "Kansas City, MO, USA",
        "key": "frc2894",
        "country_name": "USA",
        "motto": null,
        "rookie_year": 2009
    },
    {
        "website": "http://team2895.org",
        "name": "Bloomberg/Pershing Square Foundation/Arkwin Industries & Queens High School for Information, Research and T",
        "locality": "Far Rockaway",
        "nickname": "Blazenbots",
        "region": "New York",
        "team_number": 2895,
        "location": "Far Rockaway, New York 11691, USA",
        "key": "frc2895",
        "country_name": "USA",
        "motto": "Indigenous Engineering",
        "rookie_year": 2009
    },
    {
        "website": "http://team2896damien.wordpress.com",
        "name": "Friends of Hawaii Robotics / McDonald's / Pearl Harbor Naval Shipyard / NDEP / Matson & Damien Memorial School",
        "locality": "Honolulu",
        "nickname": "MechaMonarchs",
        "region": "Hawaii",
        "team_number": 2896,
        "location": "Honolulu, Hawaii 96817, USA",
        "key": "frc2896",
        "country_name": "USA",
        "motto": "Technology. Teamwork. Community.",
        "rookie_year": 2009
    },
    {
        "website": "http://www.firstinspires.org/",
        "name": "Society Of Women Engineers/Texas Workforce Commission /MarathonNorco Aerospace, Inc. & Paul and Jane Meyer Public H S",
        "locality": "Waco",
        "nickname": "Raven Robotics",
        "region": "Texas",
        "team_number": 2897,
        "location": "Waco, Texas 76704, USA",
        "key": "frc2897",
        "country_name": "USA",
        "motto": null,
        "rookie_year": 2009
    },
    {
        "website": "http://www.team2898.bpsrobotics.org",
        "name": "Intel/Portland Community College/ITT Tech/Beaverton Public Schools Robotics Teams & School of Science & Technology & Health & Science School",
        "locality": "Beaverton",
        "nickname": "Flying Hedgehogs",
        "region": "Oregon",
        "team_number": 2898,
        "location": "Beaverton, Oregon 97006, USA",
        "key": "frc2898",
        "country_name": "USA",
        "motto": null,
        "rookie_year": 2009
    },
    {
        "website": "http://www.firstinspires.org/",
        "name": "DCPS/Booz Allen Hamilton & School Without Walls Shs",
        "locality": "Washington",
        "nickname": "The Mighty Penguins",
        "region": "District of Columbia",
        "team_number": 2900,
        "location": "Washington, District of Columbia 20037, USA",
        "key": "frc2900",
        "country_name": "USA",
        "motto": null,
        "rookie_year": 2009
    },
    {
        "website": "http://www.team2901.com",
        "name": "Maplewood High School",
        "locality": "Cortland",
        "nickname": "Rocket Sock'em Robots",
        "region": "OH",
        "team_number": 2901,
        "location": "Cortland, OH, USA",
        "key": "frc2901",
        "country_name": "USA",
        "motto": null,
        "rookie_year": 2009
    },
    {
        "website": "http://normandyrobotics.weebly.com",
        "name": "The Boeing Company/Office of Precollegiate Programs  University of Missouri- St . Louis & Normandy High School",
        "locality": "Saint Louis",
        "nickname": "NYACK",
        "region": "MO",
        "team_number": 2902,
        "location": "Saint Louis, MO, USA",
        "key": "frc2902",
        "country_name": "USA",
        "motto": null,
        "rookie_year": 2009
    },
    {
        "website": "http://neobots2903.org/",
        "name": "The Boeing Company / Office of Superintendent for Public Instruction / SPEEA / Rotary International / C & D Zodiac & Arlington High School",
        "locality": "Arlington",
        "nickname": "NeoBots",
        "region": "Washington",
        "team_number": 2903,
        "location": "Arlington, Washington 98223, USA",
        "key": "frc2903",
        "country_name": "USA",
        "motto": "Robots of the world, unite!",
        "rookie_year": 2009
    },
    {
        "website": null,
        "name": "Boeing & Sky Valley Education Center High School",
        "locality": "Monroe",
        "nickname": "PlaZmachines",
        "region": "WA",
        "team_number": 2904,
        "location": "Monroe, WA, USA",
        "key": "frc2904",
        "country_name": "USA",
        "motto": null,
        "rookie_year": 2009
    },
    {
        "website": "http://www.team2905.com",
        "name": "Sultans of T\u00fcrkiye The Fikret Yuksel Foundation / Siemens / Koton / 3M / Kahve Dunyasi & Darussafaka Educational Institutions",
        "locality": "Istanbul",
        "nickname": "Sultans of Turkiye",
        "region": "Istanbul",
        "team_number": 2905,
        "location": "Istanbul, Istanbul 34457, Turkey",
        "key": "frc2905",
        "country_name": "Turkey",
        "motto": "To feel as one, to move as one!",
        "rookie_year": 2009
    },
    {
        "website": "http://www.firstinspires.org/",
        "name": "Bethel Public Schools/Weiman, Thompson and Ham Families & SPANAWAY LAKE HIGH SCHOOL",
        "locality": "Spanaway",
        "nickname": "Sentinel Prime Robotics",
        "region": "Washington",
        "team_number": 2906,
        "location": "Spanaway, Washington 98387, USA",
        "key": "frc2906",
        "country_name": "USA",
        "motto": null,
        "rookie_year": 2009
    },
    {
        "website": "http://www.lionrobotics.org",
        "name": "The Boeing Company/Boeing Professionals/Intellectual Ventures/SPEEA/PTC/OSPI/C.A.M.P.S./LCNW/CenturyLink&Auburn Mountainview High School",
        "locality": "Auburn",
        "nickname": "Lion Robotics",
        "region": "Washington",
        "team_number": 2907,
        "location": "Auburn, Washington 98092, USA",
        "key": "frc2907",
        "country_name": "USA",
        "motto": "Reliable, Simplistic, & Creative",
        "rookie_year": 2009
    },
    {
        "website": null,
        "name": "Boeing & Lake Washington High school",
        "locality": "Kirkland",
        "nickname": "DeceptiKangs",
        "region": "WA",
        "team_number": 2908,
        "location": "Kirkland, WA, USA",
        "key": "frc2908",
        "country_name": "USA",
        "motto": null,
        "rookie_year": 2009
    },
    {
        "website": "http://www.zebrabots.com",
        "name": "Fulton County Airport & Rochester Community High Sch",
        "locality": "Rochester",
        "nickname": "Zebra Bots",
        "region": "Indiana",
        "team_number": 2909,
        "location": "Rochester, Indiana 46975, USA",
        "key": "frc2909",
        "country_name": "USA",
        "motto": "Do your Best",
        "rookie_year": 2009
    },
    {
        "website": "http://frcteam2910.org",
        "name": "The Boeing Company/LMI Aerospace -D3Technologies/Terry's Machine/SolidWorks/Air Gas/Intellectual Ventures/Crane Aerospace/Washington FIRST Robotics/OSPI/Platt & Henry M. Jackson High School",
        "locality": "Bothell",
        "nickname": "Jack in the Bot",
        "region": "Washington",
        "team_number": 2910,
        "location": "Bothell, Washington 98012, USA",
        "key": "frc2910",
        "country_name": "USA",
        "motto": "Think outside the Bot",
        "rookie_year": 2009
    },
    {
        "website": "http://Team2911.org",
        "name": "District of Columbia Public Schools  Career and Technical Education/Systems Engineering Group, Inc/Google&Coolidge Shs",
        "locality": "Washington",
        "nickname": "CoolBots",
        "region": "District of Columbia",
        "team_number": 2911,
        "location": "Washington, District of Columbia 20011, USA",
        "key": "frc2911",
        "country_name": "USA",
        "motto": null,
        "rookie_year": 2009
    },
    {
        "website": "http://www.firstinspires.org/",
        "name": "Bezos Family Foundation/DC Public Schools CTE&Phelps Architecture Construction & Engineering Hs",
        "locality": "Washington",
        "nickname": "Panthers",
        "region": "District of Columbia",
        "team_number": 2912,
        "location": "Washington, District of Columbia 20002, USA",
        "key": "frc2912",
        "country_name": "USA",
        "motto": "Great Minds, Great Robot, Great Results",
        "rookie_year": 2009
    },
    {
        "website": null,
        "name": "Boeing/SRT/Booz Allen Hamilton/JEF Inc & Eastern High School",
        "locality": "Washington",
        "nickname": "ROBOT RAMBLER",
        "region": "DC",
        "team_number": 2913,
        "location": "Washington, DC, USA",
        "key": "frc2913",
        "country_name": "USA",
        "motto": null,
        "rookie_year": 2009
    },
    {
        "website": "http://2914.io/",
        "name": "Bechtel/Google/Starship Robotics/Lockheed Martin/DCPS Career Tech/Wilson HS Athletics/PTSO/SciMaTech Academy&Wilson Woodrow Hs",
        "locality": "Washington",
        "nickname": "TIGER PRIDE ",
        "region": "District of Columbia",
        "team_number": 2914,
        "location": "Washington, District of Columbia 20016, USA",
        "key": "frc2914",
        "country_name": "USA",
        "motto": "You can't hide that TIGER PRIDE",
        "rookie_year": 2009
    },
    {
        "website": "http://team2915.com",
        "name": "Autodesk/Henry Lea Hillman, Jr. Foundation/Riverdale PTC/Gigi's Cafe/Columbia Soft/First Tech Federal Credit Union & Riverdale High School",
        "locality": "Portland",
        "nickname": "Pandamonium",
        "region": "Oregon",
        "team_number": 2915,
        "location": "Portland, Oregon 97219, USA",
        "key": "frc2915",
        "country_name": "USA",
        "motto": null,
        "rookie_year": 2009
    },
    {
        "website": "http://2916.future-engineer.com",
        "name": "Harris Corp/Able Trust/Brevard Public Schools/Palm Bay Police Department/Bayside Engineering & Technology Academy & Bayside High School",
        "locality": "Palm Bay",
        "nickname": "Bionic Bears",
        "region": "Florida",
        "team_number": 2916,
        "location": "Palm Bay, Florida 32908, USA",
        "key": "frc2916",
        "country_name": "USA",
        "motto": "Engineering the Future...",
        "rookie_year": 2009
    },
    {
        "website": null,
        "name": "Woodward Career Technical High School",
        "locality": "Cincinnati",
        "nickname": "Woodward RoboDogs",
        "region": "OH",
        "team_number": 2917,
        "location": "Cincinnati, OH, USA",
        "key": "frc2917",
        "country_name": "USA",
        "motto": null,
        "rookie_year": 2009
    },
    {
        "website": "http://www.wcctgearheads.com",
        "name": "Alabama Power Great Western District / Alabama Power Service Organization Miller Steam Plant & Walker Co Ctr of Tech",
        "locality": "Jasper",
        "nickname": "Gearheads",
        "region": "Alabama",
        "team_number": 2918,
        "location": "Jasper, Alabama 35501, USA",
        "key": "frc2918",
        "country_name": "USA",
        "motto": "Creating our future through technology.",
        "rookie_year": 2009
    },
    {
        "website": "http://team2919.net",
        "name": "The Boeing Company & Fremont Senior High School",
        "locality": "L.A.",
        "nickname": "Night Wolves",
        "region": "CA",
        "team_number": 2919,
        "location": "L.A., CA, USA",
        "key": "frc2919",
        "country_name": "USA",
        "motto": null,
        "rookie_year": null
    },
    {
        "website": "http://robohawk.webs.com",
        "name": "NASA Stennis Space Center & Holly Springs High School",
        "locality": "Holly Springs",
        "nickname": "Robo-Hawks",
        "region": "MS",
        "team_number": 2920,
        "location": "Holly Springs, MS, USA",
        "key": "frc2920",
        "country_name": "USA",
        "motto": null,
        "rookie_year": 2009
    },
    {
        "website": null,
        "name": "Boeing & Henry Foss High School",
        "locality": "Tacoma",
        "nickname": "Falcon",
        "region": "WA",
        "team_number": 2921,
        "location": "Tacoma, WA, USA",
        "key": "frc2921",
        "country_name": "USA",
        "motto": null,
        "rookie_year": 2009
    },
    {
        "website": null,
        "name": "WA OSPI/Concrete School District/Bezos Family Foundation/Janicki Industries/BP Cherry Point Refinery/The Washington Cafe & Bakery/Integra/Ronk Bros Heating & AC/Seven Sisters, Inc./Van's Equipment/Storms Fabrication & Repair/5B's Bakery/Interconnect Systems & Concrete High School",
        "locality": "Concrete",
        "nickname": "RoboCon",
        "region": "WA",
        "team_number": 2922,
        "location": "Concrete, WA, USA",
        "key": "frc2922",
        "country_name": "USA",
        "motto": null,
        "rookie_year": 2009
    },
    {
        "website": "http://www.firstinspires.org/",
        "name": "TransCanada / Bezo Foundation / Rosalia Schools / Washington State Robotics Grant / Boeing / Microsoft & Rosalia Elem & High School",
        "locality": "Rosalia",
        "nickname": "Aggies",
        "region": "Washington",
        "team_number": 2923,
        "location": "Rosalia, Washington 99170, USA",
        "key": "frc2923",
        "country_name": "USA",
        "motto": "Represent Agriculture",
        "rookie_year": 2009
    },
    {
        "website": null,
        "name": "Boeing / OSPI Washington / Bezos Family Foundation / Port Ludlow Community Enrichment Alliance & Chimacum High School",
        "locality": "Chimacum",
        "nickname": "2924 Murphy's Lawyers",
        "region": "WA",
        "team_number": 2924,
        "location": "Chimacum, WA, USA",
        "key": "frc2924",
        "country_name": "USA",
        "motto": null,
        "rookie_year": 2009
    },
    {
        "website": null,
        "name": "Boeing / Bezo Family Foundation & WV Tech Center  High School",
        "locality": "Wenatchee",
        "nickname": "North Central Tech Center",
        "region": "WA",
        "team_number": 2925,
        "location": "Wenatchee, WA, USA",
        "key": "frc2925",
        "country_name": "USA",
        "motto": null,
        "rookie_year": 2009
    },
    {
        "website": "http://www.robosparks.com",
        "name": "Washington State Office of Superintendent of Public Instruction/Washington FIRST Robotics/Bezos Family Foundation/Boeing /Wapato School District (WSD) & Wapato High School",
        "locality": "Wapato",
        "nickname": "Robo Sparks",
        "region": "Washington",
        "team_number": 2926,
        "location": "Wapato, Washington 98951, USA",
        "key": "frc2926",
        "country_name": "USA",
        "motto": "Igniting imagination one Spark at a time.",
        "rookie_year": 2009
    },
    {
        "website": "http://bayessoftware.com/robotics/",
        "name": "Graham Kapowsin High School",
        "locality": "Graham",
        "nickname": "Pi Rho Techs",
        "region": "Washington",
        "team_number": 2927,
        "location": "Graham, Washington 98338, USA",
        "key": "frc2927",
        "country_name": "USA",
        "motto": null,
        "rookie_year": 2009
    },
    {
        "website": "http://team2928.org",
        "name": "The Boeing Company/GM Nameplate/OSPI/SPEEA/Online Metals/Symantec/Limback Lumber/Tableau/Ballard Industrial & Ballard High School",
        "locality": "Seattle",
        "nickname": "Viking Robotics",
        "region": "Washington",
        "team_number": 2928,
        "location": "Seattle, Washington 98117, USA",
        "key": "frc2928",
        "country_name": "USA",
        "motto": "Viking Robotics: Where we go for infinite possibilities",
        "rookie_year": 2009
    },
    {
        "website": "http://jagbots.com",
        "name": "Korum Nissan/Power Engineering, INC/The McNutt Family/Walmart&Emerald Ridge High School&Emerald Ridge High School",
        "locality": "Puyallup",
        "nickname": "JAGBOTS",
        "region": "Washington",
        "team_number": 2929,
        "location": "Puyallup, Washington 98374, USA",
        "key": "frc2929",
        "country_name": "USA",
        "motto": "Geared for Life",
        "rookie_year": 2009
    },
    {
        "website": "http://www.sonicsquirrels.com",
        "name": "Microsoft Philanthropies/OSPI/The Boeing Company/Leidos/FIRST Washington/Snohomish Education Foundation&Glacier Peak High School",
        "locality": "Snohomish",
        "nickname": "Sonic Squirrels",
        "region": "Washington",
        "team_number": 2930,
        "location": "Snohomish, Washington 98296, USA",
        "key": "frc2930",
        "country_name": "USA",
        "motto": "Nuts for FIRST",
        "rookie_year": 2009
    },
    {
        "website": "http://www.mpirobotics.zxq.net",
        "name": "NASA/Pearl Harbor Naval Shipyard/BAE Systems & Mid-Pacific Institute",
        "locality": "Honolulu",
        "nickname": "Pueo Power Engineering",
        "region": "HI",
        "team_number": 2932,
        "location": "Honolulu, HI, USA",
        "key": "frc2932",
        "country_name": "USA",
        "motto": null,
        "rookie_year": 2009
    },
    {
        "website": null,
        "name": "Bronx Academy Senior High",
        "locality": "Bronx",
        "nickname": "BASH",
        "region": "NY",
        "team_number": 2933,
        "location": "Bronx, NY, USA",
        "key": "frc2933",
        "country_name": "USA",
        "motto": null,
        "rookie_year": 2009
    },
    {
        "website": null,
        "name": "CSTEM & 9th Grade College Preparatory Academy and Sam Houston MSTC",
        "locality": "Houston",
        "nickname": "Tech Tigers",
        "region": "TX",
        "team_number": 2934,
        "location": "Houston, TX, USA",
        "key": "frc2934",
        "country_name": "USA",
        "motto": null,
        "rookie_year": 2009
    },
    {
        "website": "http://www.firstinspires.org/",
        "name": "Crystal Fountains/Humber College/TDSB/2017 FRC\u00ae Hardship Grant/GM Canada/Dynamic Innovations/Cougar Council/Zone Six Design Build Ltd&North Albion Collegiate Institute",
        "locality": "Toronto",
        "nickname": "NACI Robotics",
        "region": "Ontario",
        "team_number": 2935,
        "location": "Toronto, Ontario M9V 3B2, Canada",
        "key": "frc2935",
        "country_name": "Canada",
        "motto": null,
        "rookie_year": 2009
    },
    {
        "website": "http://www.gatorzillas.com",
        "name": "",
        "locality": "Dickinson",
        "nickname": "Gatorzillas",
        "region": "TX",
        "team_number": 2936,
        "location": "Dickinson, TX, USA",
        "key": "frc2936",
        "country_name": "USA",
        "motto": null,
        "rookie_year": 2009
    },
    {
        "website": "http://harmonytigers.webonsites.com",
        "name": "Texas High School Project & Harmony School of Excellence",
        "locality": "Houston",
        "nickname": "HSE Tigers",
        "region": "TX",
        "team_number": 2938,
        "location": "Houston, TX, USA",
        "key": "frc2938",
        "country_name": "USA",
        "motto": null,
        "rookie_year": 2009
    },
    {
        "website": null,
        "name": "ACCP & CHEST Foundation/NASA & Howard Area Leadership Academy",
        "locality": "Chicago",
        "nickname": "The Alternative Experience",
        "region": "IL",
        "team_number": 2940,
        "location": "Chicago, IL, USA",
        "key": "frc2940",
        "country_name": "USA",
        "motto": null,
        "rookie_year": 2009
    },
    {
        "website": null,
        "name": "NASA / NASA Glenn Research Center / Ohio Space Grant Consortium & Benjamin Logan High School",
        "locality": "Bellefontaine",
        "nickname": "BLURR-Ben Logan Ultra Raider Robotics",
        "region": "OH",
        "team_number": 2941,
        "location": "Bellefontaine, OH, USA",
        "key": "frc2941",
        "country_name": "USA",
        "motto": null,
        "rookie_year": 2009
    },
    {
        "website": "http://www.firstinspires.org/",
        "name": "The Boeing Company/OSPI/SPEEA/FIRST/Puget Sound Engineering Council & Technology Engineering & Communications",
        "locality": "Seattle",
        "nickname": "Panda ER",
        "region": "Washington",
        "team_number": 2942,
        "location": "Seattle, Washington 98146, USA",
        "key": "frc2942",
        "country_name": "USA",
        "motto": "\" We have the gear and we're not afraid to use it\"",
        "rookie_year": 2009
    },
    {
        "website": null,
        "name": "The Boeing Company/jcpenney & Gilliam Collegiate Academy",
        "locality": "Dallas",
        "nickname": "ROBO Dynamics",
        "region": "TX",
        "team_number": 2943,
        "location": "Dallas, TX, USA",
        "key": "frc2943",
        "country_name": "USA",
        "motto": null,
        "rookie_year": 2009
    },
    {
        "website": "http://www.team2944.com/",
        "name": "OSPI/Spokane Public Schools/Infinite Events/LC Boosters/Novation/Charles Hartman Engineering/Team 2944 Parents&Lewis & Clark High School",
        "locality": "Spokane",
        "nickname": "Titanium Tigers",
        "region": "Washington",
        "team_number": 2944,
        "location": "Spokane, Washington 99204, USA",
        "key": "frc2944",
        "country_name": "USA",
        "motto": "Living on the REG-gie",
        "rookie_year": 2009
    },
    {
        "website": "http://www.manitourobotics.com",
        "name": "The Boeing Company & Manitou Springs High School",
        "locality": "Manitou Springs",
        "nickname": "Steel Mustangs",
        "region": "Colorado",
        "team_number": 2945,
        "location": "Manitou Springs, Colorado 80829, USA",
        "key": "frc2945",
        "country_name": "USA",
        "motto": "Continuous Improvement!",
        "rookie_year": 2009
    },
    {
        "website": null,
        "name": "GE Volunteers of GE Healthcare/Medical College of Wisconsin & Milwaukee Academy of Science High School",
        "locality": "Milwaukee",
        "nickname": "Novas",
        "region": "WI",
        "team_number": 2946,
        "location": "Milwaukee, WI, USA",
        "key": "frc2946",
        "country_name": "USA",
        "motto": null,
        "rookie_year": 2009
    },
    {
        "website": "http://www.robotigers.org",
        "name": "SRT & HARMONY SCIENCE ACADEMY-EL PASO",
        "locality": "EL PASO",
        "nickname": "ROBO-TIGERS",
        "region": "TX",
        "team_number": 2947,
        "location": "EL PASO, TX, USA",
        "key": "frc2947",
        "country_name": "USA",
        "motto": null,
        "rookie_year": 2009
    },
    {
        "website": "https://sites.google.com/site/frcteam2948/home",
        "name": "Lockheed Martin/jcpenney & Harmony Science Academy Fort Worth",
        "locality": "Fort Worth",
        "nickname": "Prototype",
        "region": "TX",
        "team_number": 2948,
        "location": "Fort Worth, TX, USA",
        "key": "frc2948",
        "country_name": "USA",
        "motto": null,
        "rookie_year": null
    },
    {
        "website": "http://pwnage.foxvalleyrobotics.com",
        "name": "NASA/Genesis Automation/Milwaukee School of Engineering/jcpenney/4H & Batavia Robotics & Fox Valley Robotics",
        "locality": "Batavia",
        "nickname": "pwnage",
        "region": "IL",
        "team_number": 2949,
        "location": "Batavia, IL, USA",
        "key": "frc2949",
        "country_name": "USA",
        "motto": null,
        "rookie_year": 2009
    },
    {
        "website": "http://hsawacorobotics.weebly.com/",
        "name": "FIRST in Texas/Optimist Club of Waco/2016 FRC\u00ae Hardship Grant/Aggie STEM/The Allergan Foundation/HSA-Waco/Catepillar/Texas Workforce Commission & Harmony Science Acad (Waco)",
        "locality": "Waco",
        "nickname": "Devastators",
        "region": "Texas",
        "team_number": 2950,
        "location": "Waco, Texas 76710, USA",
        "key": "frc2950",
        "country_name": "USA",
        "motto": "Prepare to be Devestated",
        "rookie_year": 2009
    },
    {
        "website": null,
        "name": "NASA/Boeing & Benson Tech High School",
        "locality": "Portland",
        "nickname": "Benson High Robotics Club",
        "region": "OR",
        "team_number": 2951,
        "location": "Portland, OR, USA",
        "key": "frc2951",
        "country_name": "USA",
        "motto": null,
        "rookie_year": 2009
    },
    {
        "website": null,
        "name": "Southern Folger & Brackenridge High School",
        "locality": "San Antonio",
        "nickname": "Brackenbots",
        "region": "TX",
        "team_number": 2952,
        "location": "San Antonio, TX, USA",
        "key": "frc2952",
        "country_name": "USA",
        "motto": null,
        "rookie_year": 2009
    },
    {
        "website": null,
        "name": "Greater Texas Foundation & Cornerstone Crossroads Academy",
        "locality": "Dallas",
        "nickname": "South Dallas Bots",
        "region": "TX",
        "team_number": 2953,
        "location": "Dallas, TX, USA",
        "key": "frc2953",
        "country_name": "USA",
        "motto": null,
        "rookie_year": 2009
    },
    {
        "website": "http://www.estemacademy.org",
        "name": "Energized for STEM Academy High School",
        "locality": "Houston",
        "nickname": "E-STEM EAGLES",
        "region": "TX",
        "team_number": 2956,
        "location": "Houston, TX, USA",
        "key": "frc2956",
        "country_name": "USA",
        "motto": null,
        "rookie_year": 2009
    },
    {
        "website": "http://www.firstinspires.org/",
        "name": "Medtronic, Inc./Innovance Inc/Alden-Conger Robotic Team/Arnold's &Alden-Conger Secondary",
        "locality": "Alden",
        "nickname": "Knights",
        "region": "Minnesota",
        "team_number": 2957,
        "location": "Alden, Minnesota 56009, USA",
        "key": "frc2957",
        "country_name": "USA",
        "motto": null,
        "rookie_year": 2009
    },
    {
        "website": null,
        "name": "NASA/GE Volunteers & Creekview High School",
        "locality": "Canton",
        "nickname": "Grizzly's",
        "region": "GA",
        "team_number": 2958,
        "location": "Canton, GA, USA",
        "key": "frc2958",
        "country_name": "USA",
        "motto": null,
        "rookie_year": 2009
    },
    {
        "website": "http://cwtech-robotarians.org",
        "name": "Edgewater Automation/Whirlpool/Entergy/AEP/Hanson Mold/Menasha Corporation & Coloma High School & Watervliet Senior High School & Lake Michigan Catholic Schools & Michigan Lutheran High School & Grace Christian School",
        "locality": "Coloma",
        "nickname": "Robotarians",
        "region": "Michigan",
        "team_number": 2959,
        "location": "Coloma, Michigan 49038, USA",
        "key": "frc2959",
        "country_name": "USA",
        "motto": "\"The only sport where every student can go pro\"",
        "rookie_year": 2009
    },
    {
        "website": "http://team2960.org",
        "name": "MAC Valves/PTC/True Fabrication and Machine, Inc./Fiat Chrysler Automobiles  FCA/Birmingham Education Foundation/Ford Motor Company/Electrical Terminal Service&Ernest W. Seaholm High School&Wylie E. Groves High School",
        "locality": "Birmingham",
        "nickname": "automation nation",
        "region": "Michigan",
        "team_number": 2960,
        "location": "Birmingham, Michigan 48009, USA",
        "key": "frc2960",
        "country_name": "USA",
        "motto": null,
        "rookie_year": 2009
    },
    {
        "website": "http://www.firstinspires.org/",
        "name": "The Boeing Company/District of Columbia Public Schools & Dunbar Shs",
        "locality": "Washington",
        "nickname": "Crimson Tide Engineers",
        "region": "District of Columbia",
        "team_number": 2961,
        "location": "Washington, District of Columbia 20001, USA",
        "key": "frc2961",
        "country_name": "USA",
        "motto": "free your mind and success will follow",
        "rookie_year": 2009
    },
    {
        "website": "http://lukemoorerobotics.org",
        "name": "District of Columbia Public Schools/Engage Integrated Systems Technology & Luke C. Moore Academy SHS",
        "locality": "Washington",
        "nickname": "EagleBots",
        "region": "DC",
        "team_number": 2962,
        "location": "Washington, DC, USA",
        "key": "frc2962",
        "country_name": "USA",
        "motto": null,
        "rookie_year": null
    },
    {
        "website": "http://anadroids2963.moonfruit.com/",
        "name": "DCPS/Booz Allen Hamilton/WPI/Interface Media Group & Anacostia Shs",
        "locality": "Washington",
        "nickname": "AnaDroids",
        "region": "District of Columbia",
        "team_number": 2963,
        "location": "Washington, District of Columbia 20020, USA",
        "key": "frc2963",
        "country_name": "USA",
        "motto": null,
        "rookie_year": 2009
    },
    {
        "website": "http://www.firstinspires.org/",
        "name": "IEEE/Accenture/Bezos Family Foundation/Capital One&Kipp Dc College Prep Pcs",
        "locality": "Washington",
        "nickname": "Robopanthers",
        "region": "District of Columbia",
        "team_number": 2964,
        "location": "Washington, District of Columbia 20020, USA",
        "key": "frc2964",
        "country_name": "USA",
        "motto": "Transforming Young Minds into Tomorrows Engineers",
        "rookie_year": 2009
    },
    {
        "website": null,
        "name": "Harmony Science Academy Lubbock/THSP & Harmony Science Academy-Lubbock",
        "locality": "Lubbock",
        "nickname": "Iron Vikings",
        "region": "TX",
        "team_number": 2965,
        "location": "Lubbock, TX, USA",
        "key": "frc2965",
        "country_name": "USA",
        "motto": null,
        "rookie_year": 2009
    },
    {
        "website": "http://wmebrahim.wix.com/vviewisd#!r.c.",
        "name": "Valley View Early College Campus",
        "locality": "Pharr",
        "nickname": "Tiger Tech",
        "region": "Texas",
        "team_number": 2966,
        "location": "Pharr, Texas 78577, USA",
        "key": "frc2966",
        "country_name": "USA",
        "motto": "Technology is the key to a better future",
        "rookie_year": 2009
    },
    {
        "website": "http://p2s.coolpage.biz",
        "name": "Panasonic Energy Corporation/Women in Technology- Atlanta GA/Booz Allen Hamilton/Science Applications Int'l Corp. -- Ft. Benning & Columbus High School",
        "locality": "Columbus",
        "nickname": "Columbus IronWorks",
        "region": "GA",
        "team_number": 2967,
        "location": "Columbus, GA, USA",
        "key": "frc2967",
        "country_name": "USA",
        "motto": null,
        "rookie_year": 2009
    },
    {
        "website": "http://www.firstinspires.org/",
        "name": "ALCOA/SAISD Foundation&Houston H S",
        "locality": "San Antonio",
        "nickname": "Hurricane Robotics",
        "region": "Texas",
        "team_number": 2969,
        "location": "San Antonio, Texas 78220, USA",
        "key": "frc2969",
        "country_name": "USA",
        "motto": "Call me geek today... Call me boss tomorow.",
        "rookie_year": 2009
    },
    {
        "website": null,
        "name": "Kenosha Area Business Alliance/SRT-Nypro/Gateway Technical College & Kenosha eSchool High School",
        "locality": "Kenosha",
        "nickname": "eSchool eBots",
        "region": "WI",
        "team_number": 2970,
        "location": "Kenosha, WI, USA",
        "key": "frc2970",
        "country_name": "USA",
        "motto": null,
        "rookie_year": 2009
    },
    {
        "website": "http://rpta.net",
        "name": "NASA & Riverbend Professional Technical Academy",
        "locality": "Coeur d'Alene",
        "nickname": "ROBO-IDAHO",
        "region": "ID",
        "team_number": 2971,
        "location": "Coeur d'Alene, ID, USA",
        "key": "frc2971",
        "country_name": "USA",
        "motto": null,
        "rookie_year": 2009
    },
    {
        "website": "http://RCDawson.com",
        "name": "Medtronic / Spectra / Dawson Parents Association / Friends of RC Dawson & Dawson School",
        "locality": "Lafayette",
        "nickname": "RC Dawson",
        "region": "Colorado",
        "team_number": 2972,
        "location": "Lafayette, Colorado 80026, USA",
        "key": "frc2972",
        "country_name": "USA",
        "motto": "Boundless Creativity",
        "rookie_year": 2009
    },
    {
        "website": "http://www.rockers2973.com/",
        "name": "UTC Pratt & Whitney/Intergraph/ProtoMachineWorks&Bob Jones High Sch&JAMES CLEMENS HIGH SCHOOL",
        "locality": "Madison",
        "nickname": "Mad Rockers",
        "region": "Alabama",
        "team_number": 2973,
        "location": "Madison, Alabama 35758, USA",
        "key": "frc2973",
        "country_name": "USA",
        "motto": "Keep it cheap",
        "rookie_year": 2009
    },
    {
        "website": "http://www.waltonrobotics.org",
        "name": "GE Volunteers/Novelis/United Technologies-Automated Logic/Women in Technology/Cobb EMC/Lockheed Martin/Randstad & Walton High School",
        "locality": "Marietta",
        "nickname": "Walton Robotics",
        "region": "Georgia",
        "team_number": 2974,
        "location": "Marietta, Georgia 30062, USA",
        "key": "frc2974",
        "country_name": "USA",
        "motto": "Who will you inspire today?",
        "rookie_year": 2009
    },
    {
        "website": null,
        "name": "Trade Construction/ITT Technical Institute-Baton Rouge & Central High School & Central Community School System",
        "locality": "Central",
        "nickname": "Team Viral",
        "region": "LA",
        "team_number": 2975,
        "location": "Central, LA, USA",
        "key": "frc2975",
        "country_name": "USA",
        "motto": null,
        "rookie_year": 2009
    },
    {
        "website": "http://spartabots.org",
        "name": "The Boeing Company/Issaquah Schools Foundation & Skyline High School",
        "locality": "Sammamish",
        "nickname": "Spartabots",
        "region": "Washington",
        "team_number": 2976,
        "location": "Sammamish, Washington 98075, USA",
        "key": "frc2976",
        "country_name": "USA",
        "motto": "This. Is. SPARTA!!!",
        "rookie_year": 2009
    },
    {
        "website": "http://www.lacrescentrobotics.com/",
        "name": "Acentek / Mathy Construction / Ingersoll Rand / La Crescent Community Foundation / La Crescent Booster Club & Seven Rivers Robotics Coalition & Lacrescent Senior High",
        "locality": "La Crescent",
        "nickname": "Sir Lancer Bots",
        "region": "Minnesota",
        "team_number": 2977,
        "location": "La Crescent, Minnesota 55947, USA",
        "key": "frc2977",
        "country_name": "USA",
        "motto": "Arming the Seven Rivers Region",
        "rookie_year": 2009
    },
    {
        "website": "http://robotics.bishopdubourg.org",
        "name": "The Boeing Company/The Doerr Family/Joseph Deasy/HTE Technologies/SIGN-A-RAMA/Vinci LLC/The Kelley Group/Optimist Club of Clayton/Century Fire Sprinklers, Inc/Osburn, Hine & Yates LLC  Attorneys at Law/Dan Zoernig Illustrations/AECOM/Slyman Brothers/Dras Fabrication & Design  &Bishop Du Bourg High School",
        "locality": "Saint Louis",
        "nickname": "Cavaliers",
        "region": "Missouri",
        "team_number": 2978,
        "location": "Saint Louis, Missouri 63109, USA",
        "key": "frc2978",
        "country_name": "USA",
        "motto": "Faith in Christ....Service to Others",
        "rookie_year": 2009
    },
    {
        "website": null,
        "name": "Texas High School Project Fund of the Communities Foundation of Texas/jcpenney & Harmony Science Academy",
        "locality": "Beaumont",
        "nickname": "RO-BEAUMONT",
        "region": "TX",
        "team_number": 2979,
        "location": "Beaumont, TX, USA",
        "key": "frc2979",
        "country_name": "USA",
        "motto": null,
        "rookie_year": 2009
    },
    {
        "website": "http://www.team2980.wixsite.com/team2980",
        "name": "The Boeing Company/IDEX Foundation/IDEX Health and Science/Wildcat Robotics Booster Club/Tesoro/NASA/Island Thrift/Microsoft/Google/Office of the Superintendent of Public Instruction/North Whidbey Lions Club/Oak Harbor Educational Foundation/Ashley's Design/Oak Harbor Lions Club/Krieg Construction/Soroptimist International of Oak Harbor/Oak Harbor Rotary Club/Oak Harbor High School CTE Department/Trossen Robotics&Oak Harbor High School",
        "locality": "Oak Harbor",
        "nickname": "The Whidbey Island Wild Cats",
        "region": "Washington",
        "team_number": 2980,
        "location": "Oak Harbor, Washington 98277, USA",
        "key": "frc2980",
        "country_name": "USA",
        "motto": "We are ONE team, we have ONE mission our goal is to complete that mission as ONE",
        "rookie_year": 2009
    },
    {
        "website": "http://www.wacoisd.org",
        "name": "A. J. Moore Academy High School",
        "locality": "Waco",
        "nickname": "Bulldogs",
        "region": "TX",
        "team_number": 2981,
        "location": "Waco, TX, USA",
        "key": "frc2981",
        "country_name": "USA",
        "motto": null,
        "rookie_year": 2009
    },
    {
        "website": "http://www.laredoisd.org/ECHSRobotics/Homepage.html",
        "name": "Texas Workforce Comission & Laredo ISD Early College High School @ TAMIU",
        "locality": "Laredo",
        "nickname": "Phoenix Metal",
        "region": "TX",
        "team_number": 2982,
        "location": "Laredo, TX, USA",
        "key": "frc2982",
        "country_name": "USA",
        "motto": null,
        "rookie_year": 2009
    },
    {
        "website": null,
        "name": "NASA & Creekside HS:Georgia Institute of Technology",
        "locality": "Fairburn",
        "nickname": "Robo-Noles",
        "region": "GA",
        "team_number": 2983,
        "location": "Fairburn, GA, USA",
        "key": "frc2983",
        "country_name": "USA",
        "motto": null,
        "rookie_year": 2009
    },
    {
        "website": "http://ljhs.sandi.net/first/",
        "name": "Dini Group/Qualcomm & La Jolla High",
        "locality": "La Jolla",
        "nickname": "The Vikings",
        "region": "California",
        "team_number": 2984,
        "location": "La Jolla, California 92037, USA",
        "key": "frc2984",
        "country_name": "USA",
        "motto": "2984 Where Metal meets mettle",
        "rookie_year": 2009
    },
    {
        "website": null,
        "name": "Time Warner Cable / CPS Energy / School of Excellence in Education / San Antonio TAME & Milton B. Lee",
        "locality": "San Antonio",
        "nickname": "Tech Know Logic",
        "region": "TX",
        "team_number": 2985,
        "location": "San Antonio, TX, USA",
        "key": "frc2985",
        "country_name": "USA",
        "motto": null,
        "rookie_year": 2009
    },
    {
        "website": "http://www.astecrobotics.org",
        "name": "Oklahoma State Department of Education/NASA/Mr. and Mrs. Allen Pease/ITT Technical Institute/Advanced Science and Technology Education Center, Inc. & Astec Charter Hs & Astec Charter Hs",
        "locality": "Oklahoma City",
        "nickname": "ASTEC Explorers",
        "region": "Oklahoma",
        "team_number": 2986,
        "location": "Oklahoma City, Oklahoma 73107, USA",
        "key": "frc2986",
        "country_name": "USA",
        "motto": "A better future through knowledge ",
        "rookie_year": 2009
    },
    {
        "website": "http://roguerobotics.wixsite.com/frc2987",
        "name": "Twin Cities Business/UTC Aerospace Systems & Farmington High School",
        "locality": "Farmington",
        "nickname": "Rogue Robotics",
        "region": "Minnesota",
        "team_number": 2987,
        "location": "Farmington, Minnesota 55024, USA",
        "key": "frc2987",
        "country_name": "USA",
        "motto": null,
        "rookie_year": 2009
    },
    {
        "website": "http://www.edline.net/pages/Clarke_County_High_School/Design_Resources/Shortcuts/Programs/Robotics",
        "name": "Clarke County Public Schools/REC & Clarke County High",
        "locality": "Berryville",
        "nickname": "RoboGenesis",
        "region": "Virginia",
        "team_number": 2988,
        "location": "Berryville, Virginia 22611, USA",
        "key": "frc2988",
        "country_name": "USA",
        "motto": "The quest is greater than what is sought",
        "rookie_year": 2009
    },
    {
        "website": "http://team2989.weebly.com/",
        "name": "Best Buy/UTC/POWERS Engineering&Academy of Holy Angels",
        "locality": "Richfield",
        "nickname": "Star Tech",
        "region": "Minnesota",
        "team_number": 2989,
        "location": "Richfield, Minnesota 55423, USA",
        "key": "frc2989",
        "country_name": "USA",
        "motto": "Star Tech",
        "rookie_year": 2009
    },
    {
        "website": "http://hotwirerobotics.com",
        "name": "Daimler Trucks North America / The Boeing Company / Freres Lumber / Zephyr Engineering / Meggitt Polymere Solutions / Elkins Ironworks / SCTC & Hotwire Robotics",
        "locality": "Turner",
        "nickname": "Hotwire",
        "region": "Oregon",
        "team_number": 2990,
        "location": "Turner, Oregon 97392, USA",
        "key": "frc2990",
        "country_name": "USA",
        "motto": "Whatever It Takes",
        "rookie_year": 2009
    },
    {
        "website": null,
        "name": "Eastwood Academy High School",
        "locality": "Houston",
        "nickname": "Boxer Bots",
        "region": "TX",
        "team_number": 2991,
        "location": "Houston, TX, USA",
        "key": "frc2991",
        "country_name": "USA",
        "motto": null,
        "rookie_year": 2009
    },
    {
        "website": "http://mandevillerobotics.org",
        "name": "Cisco / St. Tammany Parish School Board / Fort Knox Climate Controlled Self Storage / Boeing / NASA / C-Innovation / City of Mandeville & Mandeville High School",
        "locality": "Mandeville",
        "nickname": "The S.S. Prometheus",
        "region": "Louisiana",
        "team_number": 2992,
        "location": "Mandeville, Louisiana 70471, USA",
        "key": "frc2992",
        "country_name": "USA",
        "motto": "Light the Fire, Set the Sail, Spread the Word",
        "rookie_year": 2009
    },
    {
        "website": "http://megabots.intechchs.org",
        "name": "Firehouse Pizzeria / Ramada / BATC & Intech Collegiate High School",
        "locality": "Logan",
        "nickname": "InTech MegaBots",
        "region": "Utah",
        "team_number": 2993,
        "location": "Logan, Utah 84341, USA",
        "key": "frc2993",
        "country_name": "USA",
        "motto": "Ask Erik.",
        "rookie_year": 2009
    },
    {
        "website": "http://team2994.ca",
        "name": "PROTOCASE / Lockheed Martin / Carleton University / Wesley Clover / Ottawa Catholic School Board & All Saints High School & Neighborhood Group",
        "locality": "Kanata",
        "nickname": "ASTECHZ",
        "region": "Ontario",
        "team_number": 2994,
        "location": "Kanata, Ontario K2K3K5, Canada",
        "key": "frc2994",
        "country_name": "Canada",
        "motto": "Dedication, Determination and Duct Tape",
        "rookie_year": 2009
    },
    {
        "website": null,
        "name": "Texas High School project (THSP) & T. Garza Early College High School at Mountain View College",
        "locality": "Dallas",
        "nickname": "\"Mountain Force Robotics\"",
        "region": "TX",
        "team_number": 2995,
        "location": "Dallas, TX, USA",
        "key": "frc2995",
        "country_name": "USA",
        "motto": null,
        "rookie_year": null
    },
    {
        "website": "http://www.team2996.com",
        "name": "Vertec Tool, Inc/MCAD/Cobham Semiconductor Solutions/Lockheed Martin/BPO Elks Lodge 309/Keysight Technologies/NDEP/Spectranetics/Northrop Grumman/Hardware Specialty Co, Inc/SmartMountain Technologies&Coronado High School",
        "locality": "Colorado Springs",
        "nickname": "Cougars Gone Wired",
        "region": "Colorado",
        "team_number": 2996,
        "location": "Colorado Springs, Colorado 80904, USA",
        "key": "frc2996",
        "country_name": "USA",
        "motto": "Through teamwork comes diligence, through diligence comes conquest.",
        "rookie_year": 2009
    },
    {
        "website": "http://www.firstinspires.org/",
        "name": "Capital One/Genworth Foundation & Thomas Jefferson High",
        "locality": "Richmond",
        "nickname": "VikingBots",
        "region": "Virginia",
        "team_number": 2998,
        "location": "Richmond, Virginia 23230, USA",
        "key": "frc2998",
        "country_name": "USA",
        "motto": null,
        "rookie_year": 2009
    },
    {
        "website": "http://tjeff.org",
        "name": "SRT & Thomas Jefferson High School",
        "locality": "Rochester",
        "nickname": "TJHS",
        "region": "NY",
        "team_number": 2999,
        "location": "Rochester, NY, USA",
        "key": "frc2999",
        "country_name": "USA",
        "motto": null,
        "rookie_year": 2009
    }
]