[
    {
        "website": "http://teamrockrobotics.com",
        "name": "Williams Tooling & Manufacturing/Electrocal/U.S. Engineering/Van Den Berge Pest Control/STM Manufacturing/A-1 Used Mowers/Stefftech V5/New Salem Corn Maze/Ed Koehn Ford Wayland/Spartan Graphics/Custom Engraving/Acclaimed Catering/Dershem Wholesale/Bumper to Bumper Allegan/BC Pizza Dorr & 4-H Allegan Co MSU Extension",
        "locality": "Dorr",
        "nickname": "TEAM ROCK",
        "region": "MI",
        "team_number": 2000,
        "location": "Dorr, MI, USA",
        "key": "frc2000",
        "country_name": "USA",
        "motto": null,
        "rookie_year": 2007
    },
    {
        "website": "http://www.eaglesrobotics.com",
        "name": "Hickman Mills School District / Best Buy / KC STEM Alliance & Ruskin High School",
        "locality": "Kansas City",
        "nickname": "HERMES",
        "region": "Missouri",
        "team_number": 2001,
        "location": "Kansas City, Missouri 64134, USA",
        "key": "frc2001",
        "country_name": "USA",
        "motto": "We can rebuild it ... We have the technology",
        "rookie_year": 2007
    },
    {
        "website": "http://tualatinrobotics.com/",
        "name": "Bentley Systems, Incorporated/The Boeing Company/Rockwell Collins/Mentor Graphics/Oregon Department of Education/Flir/Tigard Tualatin  School District/Innovation Academy & Tualatin High School",
        "locality": "Tualatin",
        "nickname": "Tualatin Robotics",
        "region": "Oregon",
        "team_number": 2002,
        "location": "Tualatin, Oregon 97062, USA",
        "key": "frc2002",
        "country_name": "USA",
        "motto": "Design, Build, Compete, Win!",
        "rookie_year": 2007
    },
    {
        "website": "http://www.firstinspires.org/",
        "name": "Tulsa Technology Center",
        "locality": "Tulsa",
        "nickname": "Thunderducks",
        "region": "Oklahoma",
        "team_number": 2004,
        "location": "Tulsa, Oklahoma 74147, USA",
        "key": "frc2004",
        "country_name": "USA",
        "motto": "No killing",
        "rookie_year": 2007
    },
    {
        "website": null,
        "name": "Ewing Marion Kauffman Foundation & Anderson High School",
        "locality": "Kansas City",
        "nickname": "Aerobotechs",
        "region": "MO",
        "team_number": 2005,
        "location": "Kansas City, MO, USA",
        "key": "frc2005",
        "country_name": "USA",
        "motto": null,
        "rookie_year": 2007
    },
    {
        "website": "http://duluthrobotics.org",
        "name": "Nordson Corp./Automation Direct & Duluth High School & Gwinnett County Public Schools",
        "locality": "Duluth",
        "nickname": "Robots of the Round Table",
        "region": "GA",
        "team_number": 2007,
        "location": "Duluth, GA, USA",
        "key": "frc2007",
        "country_name": "USA",
        "motto": null,
        "rookie_year": 2007
    },
    {
        "website": null,
        "name": "Ewing Marion Kauffman Foundation / KCPL / Honeywell KCP / KC BANCS & Northeast High School",
        "locality": "Kansas City",
        "nickname": "VTEC",
        "region": "MO",
        "team_number": 2008,
        "location": "Kansas City, MO, USA",
        "key": "frc2008",
        "country_name": "USA",
        "motto": null,
        "rookie_year": 2007
    },
    {
        "website": "http://newmissionrobotics.blogspot.com",
        "name": "Smith Family Foundation and New Mission High School",
        "locality": "Roxbury",
        "nickname": "Robo-Titans",
        "region": "MA",
        "team_number": 2009,
        "location": "Roxbury, MA, USA",
        "key": "frc2009",
        "country_name": "USA",
        "motto": null,
        "rookie_year": 2007
    },
    {
        "website": "http://www.chs-robotics.org",
        "name": "Delphi Corporation/Cleveland Communications/Vallourec&Champion High School",
        "locality": "Warren",
        "nickname": "The Lightning Bots",
        "region": "Ohio",
        "team_number": 2010,
        "location": "Warren, Ohio 44483, USA",
        "key": "frc2010",
        "country_name": "USA",
        "motto": null,
        "rookie_year": 2007
    },
    {
        "website": "http://www.smhrobotics.com",
        "name": "Ewing Marion Kauffman Foundation & St. Mary's High School Bundschu Memorial",
        "locality": "Independence",
        "nickname": "SMH Robotics",
        "region": "MO",
        "team_number": 2011,
        "location": "Independence, MO, USA",
        "key": "frc2011",
        "country_name": "USA",
        "motto": null,
        "rookie_year": 2007
    },
    {
        "website": null,
        "name": "North Kansas City Iron & Metal / Tech Gurus / Cummins Tools / Ewing Marion Kauffman Foundation & North Kansas City High School",
        "locality": "North Kansas City",
        "nickname": "@ Zenith",
        "region": "MO",
        "team_number": 2012,
        "location": "North Kansas City, MO, USA",
        "key": "frc2012",
        "country_name": "USA",
        "motto": null,
        "rookie_year": 2007
    },
    {
        "website": "http://www.Cybergnomes.ca",
        "name": "Molded Plastic Consultants/Inventure Engineering & Machinery Inc/JT Snowmobile/Page Graphics/Clearview Township/Honda of Canada Manufacturing/Stayner Lions Club/MS Parts/Stayner Kinsmen/Prodomax Automation/Advanced Automation/Weld Experts & Cybergnomes Robotics",
        "locality": "Stayner",
        "nickname": "Cybergnomes",
        "region": "Ontario",
        "team_number": 2013,
        "location": "Stayner, Ontario L0M 1S0, Canada",
        "key": "frc2013",
        "country_name": "Canada",
        "motto": "You'll never see us coming!",
        "rookie_year": 2007
    },
    {
        "website": "http://www.spartanrobotics.net",
        "name": "Boeing/General Motors Foundation & Hazelwood East High School",
        "locality": "St. Louis",
        "nickname": "Spartans",
        "region": "MO",
        "team_number": 2014,
        "location": "St. Louis, MO, USA",
        "key": "frc2014",
        "country_name": "USA",
        "motto": null,
        "rookie_year": 2007
    },
    {
        "website": "http://team2015robotics.com",
        "name": "Aalderink Electric Co./Holland area Poker players/BAE Systems & Wavecrest Career Academy",
        "locality": "Holland",
        "nickname": "Static shock",
        "region": "MI",
        "team_number": 2015,
        "location": "Holland, MI, USA",
        "key": "frc2015",
        "country_name": "USA",
        "motto": null,
        "rookie_year": 2007
    },
    {
        "website": "http://www.goteam2016.com",
        "name": "Johnson & Johnson Consumer and Personal Products Worldwide/nrg/DOTC STEM Picatinny/National Defense Education Program/Ewing Township Education Association/Morris Millwork & New Jersey School for the Deaf & Ewing High",
        "locality": "Trenton",
        "nickname": "Mighty Monkey Wrenches",
        "region": "New Jersey",
        "team_number": 2016,
        "location": "Trenton, New Jersey 08618, USA",
        "key": "frc2016",
        "country_name": "USA",
        "motto": "Heavy Metal Monkey Business",
        "rookie_year": 2007
    },
    {
        "website": "http://www.mpsj.ca/robotics",
        "name": "Michael Power-St. Joseph High School",
        "locality": "Etobicoke",
        "nickname": "Trojans",
        "region": "ON",
        "team_number": 2017,
        "location": "Etobicoke, ON, Canada",
        "key": "frc2017",
        "country_name": "Canada",
        "motto": null,
        "rookie_year": 2007
    },
    {
        "website": null,
        "name": null,
        "locality": null,
        "nickname": null,
        "region": null,
        "team_number": 2018,
        "location": "",
        "key": "frc2018",
        "country_name": null,
        "motto": null,
        "rookie_year": null
    },
    {
        "website": null,
        "name": "NASA/Qualcomm Incorporated & Chaparral High School",
        "locality": "El Cajon",
        "nickname": "Robo Runners",
        "region": "CA",
        "team_number": 2019,
        "location": "El Cajon, CA, USA",
        "key": "frc2019",
        "country_name": "USA",
        "motto": null,
        "rookie_year": 2007
    },
    {
        "website": "http://fredericksburgacademy.org",
        "name": "Fredericksburg Academy",
        "locality": "Fredericksburg",
        "nickname": "F.A.R.",
        "region": "VA",
        "team_number": 2021,
        "location": "Fredericksburg, VA, USA",
        "key": "frc2021",
        "country_name": "USA",
        "motto": null,
        "rookie_year": 2007
    },
    {
        "website": "http://www.firstinspires.org/",
        "name": "Caterpillar Inc/Mad Lab Industries & Il Mathematics & Science Academy",
        "locality": "Aurora",
        "nickname": "Titan Robotics",
        "region": "Illinois",
        "team_number": 2022,
        "location": "Aurora, Illinois 60506, USA",
        "key": "frc2022",
        "country_name": "USA",
        "motto": "Measure twice, cut once",
        "rookie_year": 2007
    },
    {
        "website": "http://www.piratechrobotics.com",
        "name": "Harris Corporation/Government Connections/The ABLE Trust & Brevard County Schools & Palm Bay High School PiraTech Robotics",
        "locality": "Melbourne",
        "nickname": "PiraTech",
        "region": "FL",
        "team_number": 2023,
        "location": "Melbourne, FL, USA",
        "key": "frc2023",
        "country_name": "USA",
        "motto": null,
        "rookie_year": 2007
    },
    {
        "website": null,
        "name": "Caltech submillimeter Telescope/HELCO & Waiakea High School",
        "locality": "Hilo",
        "nickname": "Warrior Pride",
        "region": "Hawaii",
        "team_number": 2024,
        "location": "Hilo, Hawaii 96720, USA",
        "key": "frc2024",
        "country_name": "USA",
        "motto": "Don't finish last",
        "rookie_year": 2007
    },
    {
        "website": null,
        "name": "Bud Campbell Associates, Inc. / NASA / Inovative Mechanical Services & Barstow High School",
        "locality": "Barstow",
        "nickname": "Aztecs",
        "region": "CA",
        "team_number": 2025,
        "location": "Barstow, CA, USA",
        "key": "frc2025",
        "country_name": "USA",
        "motto": null,
        "rookie_year": 2007
    },
    {
        "website": null,
        "name": "SENAI-RS & SENAI-RS Educacao Profissional High School",
        "locality": "Porto Alegre",
        "nickname": "Senai",
        "region": "RS",
        "team_number": 2026,
        "location": "Porto Alegre, RS, Brazil",
        "key": "frc2026",
        "country_name": "Brazil",
        "motto": null,
        "rookie_year": 2007
    },
    {
        "website": "http://www.firstinspires.org/",
        "name": "Westbury High School & Westbury High School",
        "locality": "Old Westbury",
        "nickname": "Robotic Dragons",
        "region": "New York",
        "team_number": 2027,
        "location": "Old Westbury, New York 11568, USA",
        "key": "frc2027",
        "country_name": "USA",
        "motto": null,
        "rookie_year": 2007
    },
    {
        "website": "http://www.phantommentalists.com/",
        "name": "Community Knights / Best Buy / National Defense Education Program / SPAWAR Systems Center Atlantic / Lockheed Martin / Science Systems and Applications, Inc. (SSAI) / McSmith Engineering / Swisslog Logistics / Huntington Ingalls Industries / Newport News Shipbuilding Apprentice School / Hampton City Schools & Phoebus High",
        "locality": "Hampton",
        "nickname": "Phantom Mentalist",
        "region": "Virginia",
        "team_number": 2028,
        "location": "Hampton, Virginia 23663, USA",
        "key": "frc2028",
        "country_name": "USA",
        "motto": "We know what you're thinking",
        "rookie_year": 2007
    },
    {
        "website": "http://www.neotechrobotics.org",
        "name": "Pratt & Whitney - United Technologies / Qualcomm / Bulldog CONNECT / NASA / US Army / American Society of Mechanical Engineers / Kiwanis Club of Ramona / VFW - Post 3783 Ramona  & RAMONA HIGH",
        "locality": "Ramona",
        "nickname": "Neo-Tech Robotics",
        "region": "California",
        "team_number": 2029,
        "location": "Ramona, California, USA",
        "key": "frc2029",
        "country_name": "USA",
        "motto": null,
        "rookie_year": 2007
    },
    {
        "website": null,
        "name": "Ewing Marion Kauffman Foundation & Westport High School",
        "locality": "Kansas City",
        "nickname": "RoboTigers",
        "region": "MO",
        "team_number": 2030,
        "location": "Kansas City, MO, USA",
        "key": "frc2030",
        "country_name": "USA",
        "motto": null,
        "rookie_year": 2007
    },
    {
        "website": "http://www.geocities.com/brainyactz2031/home.html",
        "name": "NASA/American Electric Power/Battelle/Columbus State Community College/Columbus Public Schools/The Ohio State University & Southeast Career Center High School & Walnut Ridge High School",
        "locality": "Columbus",
        "nickname": "Brainy-Actz",
        "region": "OH",
        "team_number": 2031,
        "location": "Columbus, OH, USA",
        "key": "frc2031",
        "country_name": "USA",
        "motto": null,
        "rookie_year": 2007
    },
    {
        "website": "http://robotics.sdhs.sandi.net",
        "name": "HP/NASA/Qualcomm/Industrial Metal Supply/Hawthorne Machinery/Quicksilver clothing/San Diego High Foundation/San Diego Downtown Rotary Club/Miramar College & SAN DIEGO HIGH EDUCATION COMPLEXFUNKY MONKEYS",
        "locality": "San Diego",
        "nickname": "Funky Monkeys",
        "region": "CA",
        "team_number": 2032,
        "location": "San Diego, CA, USA",
        "key": "frc2032",
        "country_name": "USA",
        "motto": null,
        "rookie_year": 2007
    },
    {
        "website": "http://www.englewood.cps.k12.il.us",
        "name": "After School Matters City of Chicago/Motorola/National Society of Black Engineers (NSBE) & Englewood Academy High School",
        "locality": "Chicago",
        "nickname": "Eagles",
        "region": "IL",
        "team_number": 2033,
        "location": "Chicago, IL, USA",
        "key": "frc2033",
        "country_name": "USA",
        "motto": null,
        "rookie_year": 2007
    },
    {
        "website": "http://www.legacyhigh.net/apps/pages/index.jsp?uREC_ID=236200&type=d",
        "name": "JR Development / Lockheed Martin / WSI Nevada Team / University Nevada, Las Vegas & Legacy High School",
        "locality": "North Las Vegas",
        "nickname": "IncrediBULLS",
        "region": "Nevada",
        "team_number": 2034,
        "location": "North Las Vegas, Nevada, USA",
        "key": "frc2034",
        "country_name": "USA",
        "motto": null,
        "rookie_year": 2007
    },
    {
        "website": "http://team2035.rocks",
        "name": "Carmel Unified School District/Naval Post Graduate School/National Defense Education Program/Monterey Bay Aquarium Research Institute/Brin Wojciciki Foundation/Padre Parents/El Camino Machine and Welding/Solidworks&Carmel High",
        "locality": "Carmel",
        "nickname": "Robo Rockin' Bots",
        "region": "California",
        "team_number": 2035,
        "location": "Carmel, California 93922, USA",
        "key": "frc2035",
        "country_name": "USA",
        "motto": "Taking it to eleven since 2007",
        "rookie_year": 2007
    },
    {
        "website": "http://fairviewrobotics.com/",
        "name": "Medtronic/minuteKEY/Ball Aerospace & Technologies Corp/Quick Left & Fairview High School",
        "locality": "Boulder",
        "nickname": "The Black Knights",
        "region": "Colorado",
        "team_number": 2036,
        "location": "Boulder, Colorado 80305, USA",
        "key": "frc2036",
        "country_name": "USA",
        "motto": "\"At least it didn't catch on fire\"",
        "rookie_year": 2007
    },
    {
        "website": "http://www.team2037.com",
        "name": "Creative Automation Inc. / Effective / Bryan E. Blankenship Education Foundation / American Spouses Club / Electrical Dynamics / American Women of Geilenkirchen & DODEA : AFNORTH International School",
        "locality": "Brunssum",
        "nickname": "Oranje Lions",
        "region": "LI",
        "team_number": 2037,
        "location": "Brunssum, LI, Netherlands",
        "key": "frc2037",
        "country_name": "Netherlands",
        "motto": null,
        "rookie_year": 2007
    },
    {
        "website": null,
        "name": "Caterpillar Inc & Spalding High School",
        "locality": "Griffin",
        "nickname": "Sky Bandits",
        "region": "GA",
        "team_number": 2038,
        "location": "Griffin, GA, USA",
        "key": "frc2038",
        "country_name": "USA",
        "motto": null,
        "rookie_year": 2007
    },
    {
        "website": "http://www.rockfordrobotics.com",
        "name": "Superior Joining Technologies, Inc  / UTC AEROSPACE SYSTEMS / WOODWARD, INC. / Rockford Robotics Association & Neighborhood Group",
        "locality": "Machesney Park",
        "nickname": "Rockford Robotics Incorp",
        "region": "Illinois",
        "team_number": 2039,
        "location": "Machesney Park, Illinois 61115, USA",
        "key": "frc2039",
        "country_name": "USA",
        "motto": "Think outside the 'bots.",
        "rookie_year": 2007
    },
    {
        "website": "http://www.dert2040.com/",
        "name": "Caterpillar / TE Connectivity / ABB / Stellar Systems & Dunlap High School",
        "locality": "Dunlap",
        "nickname": "DERT - Dunlap Eagles Robotics Team",
        "region": "Illinois",
        "team_number": 2040,
        "location": "Dunlap, Illinois 61525, USA",
        "key": "frc2040",
        "country_name": "USA",
        "motto": "To grow leaders, FIRST you need a little DERT",
        "rookie_year": 2007
    },
    {
        "website": null,
        "name": "Motorola Foundation & Roberto Clemente High School Robotics",
        "locality": "Chicago",
        "nickname": "(RC)2",
        "region": "IL",
        "team_number": 2041,
        "location": "Chicago, IL, USA",
        "key": "frc2041",
        "country_name": "USA",
        "motto": null,
        "rookie_year": 2007
    },
    {
        "website": null,
        "name": "NASA/Canyon Engineering/Electrorack Enclosure Products/Numatics Engineering & Academy of the Canyons Middle College High School",
        "locality": "Santa Clarita",
        "nickname": "Robo-trees",
        "region": "CA",
        "team_number": 2042,
        "location": "Santa Clarita, CA, USA",
        "key": "frc2042",
        "country_name": "USA",
        "motto": null,
        "rookie_year": 2007
    },
    {
        "website": null,
        "name": "Wentworth Institute of Technology & J D. O'Bryant School of Math and Science High School",
        "locality": "Roxbury",
        "nickname": "Frequency 2043",
        "region": "MA",
        "team_number": 2043,
        "location": "Roxbury, MA, USA",
        "key": "frc2043",
        "country_name": "USA",
        "motto": null,
        "rookie_year": 2007
    },
    {
        "website": null,
        "name": "BAE Systems / Applied Information Management (AIM) Institute / Nebraska Advanced Manufacturing Coalition / Booz Allen Hamilton & Papillion LaVista High Schools",
        "locality": "Papillion",
        "nickname": "Big Red Robotics",
        "region": "NE",
        "team_number": 2044,
        "location": "Papillion, NE, USA",
        "key": "frc2044",
        "country_name": "USA",
        "motto": null,
        "rookie_year": 2007
    },
    {
        "website": "http://geocities.com/susanarn2000/homepage.html",
        "name": "Wynne Engineering & Metro Technology Centers",
        "locality": "Oklahoma City",
        "nickname": "Robo-Techs",
        "region": "OK",
        "team_number": 2045,
        "location": "Oklahoma City, OK, USA",
        "key": "frc2045",
        "country_name": "USA",
        "motto": null,
        "rookie_year": 2007
    },
    {
        "website": "http://tahomarobotics.org/",
        "name": "The Boeing Company/Washington State OSPI/Flow International Corporation/Pinnacle Medical Wellness/Google&Tahoma Senior High School",
        "locality": "Maple Valley",
        "nickname": "Bear Metal",
        "region": "Washington",
        "team_number": 2046,
        "location": "Maple Valley, Washington 98038, USA",
        "key": "frc2046",
        "country_name": "USA",
        "motto": "It goes to 11",
        "rookie_year": 2007
    },
    {
        "website": null,
        "name": "Motorola Inc. / Motorola Foundation / After School Matters City of Chicago / NASA / Neighborhood Boys & Girls clubs / Acme Networking & Whitney Young Magnet High School & Lane Tech High School",
        "locality": "Chicago",
        "nickname": "Team Challenger",
        "region": "IL",
        "team_number": 2047,
        "location": "Chicago, IL, USA",
        "key": "frc2047",
        "country_name": "USA",
        "motto": null,
        "rookie_year": 2007
    },
    {
        "website": "http://www.firstinspires.org/",
        "name": "Detroit Public Schools/Comcast/DADARA/Gentherm/DTE Energy/2014 FRC Hardship Grant, MEZ/FORD/VDV Concessions,LLC/MEZ&Detroit International Academy for Young Women",
        "locality": "Detroit",
        "nickname": "The Pink Panthers",
        "region": "Michigan",
        "team_number": 2048,
        "location": "Detroit, Michigan 48202, USA",
        "key": "frc2048",
        "country_name": "USA",
        "motto": "Made with a woman's touch",
        "rookie_year": 2007
    },
    {
        "website": null,
        "name": "High School EMEF Santa Rita de C\u00e1ssia",
        "locality": "Gravata\u00ed",
        "nickname": "G\u00eanesis Technology",
        "region": "RS",
        "team_number": 2049,
        "location": "Gravata\u00ed, RS, Brazil",
        "key": "frc2049",
        "country_name": "Brazil",
        "motto": null,
        "rookie_year": 2007
    },
    {
        "website": null,
        "name": "Chrysler Foundation Mack Ave Engine plant & South eastern high school of technology",
        "locality": "Detroit",
        "nickname": "SEB",
        "region": "MI",
        "team_number": 2050,
        "location": "Detroit, MI, USA",
        "key": "frc2050",
        "country_name": "USA",
        "motto": null,
        "rookie_year": 2007
    },
    {
        "website": "http://tinyurl.com/beattiebulldogs",
        "name": "Caterpillar Inc./Aerotech Inc./PTI & a W Beattie Career Center",
        "locality": "Allison Park",
        "nickname": "The Beattie Bulldogs",
        "region": "Pennsylvania",
        "team_number": 2051,
        "location": "Allison Park, Pennsylvania 15101, USA",
        "key": "frc2051",
        "country_name": "USA",
        "motto": "Run With the Pack",
        "rookie_year": 2007
    },
    {
        "website": "http://www.team2052.com",
        "name": "Groves Foundation/Medtronic/Best Buy/Secure Digital Solutions/Buttermilk Basin&Irondale Senior High",
        "locality": "Saint Paul",
        "nickname": "KnightKrawler",
        "region": "Minnesota",
        "team_number": 2052,
        "location": "Saint Paul, Minnesota 55112, USA",
        "key": "frc2052",
        "country_name": "USA",
        "motto": null,
        "rookie_year": 2007
    },
    {
        "website": "http://www.team2053.org",
        "name": "Microsoft/BAE Systems/Lockheed Martin/Empire Plastics/North Point Technology & Union Endicott High School & Vestal Senior High School",
        "locality": "Endicott",
        "nickname": "TigerTronics",
        "region": "New York",
        "team_number": 2053,
        "location": "Endicott, New York 13760, USA",
        "key": "frc2053",
        "country_name": "USA",
        "motto": "Extinction is not an option",
        "rookie_year": 2007
    },
    {
        "website": "http://frc.techvikes.com",
        "name": "General Motors Grand Rapids/Sebright Products/Midway Chevrolet of Plainwell/Hopkins Propane&Hopkins High School",
        "locality": "Hopkins",
        "nickname": "Tech Vikes",
        "region": "Michigan",
        "team_number": 2054,
        "location": "Hopkins, Michigan 49328, USA",
        "key": "frc2054",
        "country_name": "USA",
        "motto": "Together Everyone Achieves More",
        "rookie_year": 2007
    },
    {
        "website": "http://roboforce.org",
        "name": "NASA / Caterpillar / DZone / Symtech / Dashiell / Microsoft & RoboForce Students League",
        "locality": "Cary",
        "nickname": "RoboForce",
        "region": "NC",
        "team_number": 2055,
        "location": "Cary, NC, USA",
        "key": "frc2055",
        "country_name": "USA",
        "motto": null,
        "rookie_year": 2007
    },
    {
        "website": "http://www.2056.ca",
        "name": "CNC Woodcraft/Gridpath Solutions/Innovation First International/HWDSB&Orchard Park Secondary School",
        "locality": "Stoney Creek",
        "nickname": "OP Robotics",
        "region": "Ontario",
        "team_number": 2056,
        "location": "Stoney Creek, Ontario L8E 4M5, Canada",
        "key": "frc2056",
        "country_name": "Canada",
        "motto": "Perseverance Develops Character",
        "rookie_year": 2007
    },
    {
        "website": "http://www.arborviewhs.net/robotics",
        "name": "NASA / PTC / Ryerson Steel / University of Nevada, Las Vegas & Arbor View High School",
        "locality": "Las Vegas",
        "nickname": "AV CyberBulls",
        "region": "NV",
        "team_number": 2057,
        "location": "Las Vegas, NV, USA",
        "key": "frc2057",
        "country_name": "USA",
        "motto": null,
        "rookie_year": 2007
    },
    {
        "website": "http://www.team2059.org/",
        "name": "Optimist International/IBM/Duke Energy/ASME&Athens Drive High",
        "locality": "Apex",
        "nickname": "The Hitchhikers",
        "region": "North Carolina",
        "team_number": 2059,
        "location": "Apex, North Carolina 27502, USA",
        "key": "frc2059",
        "country_name": "USA",
        "motto": "BE THE NEXT LEADERS!",
        "rookie_year": 2007
    },
    {
        "website": "http://www.ecrobo.co.nr",
        "name": "NASA/Baker Hughes-Centrilift/Crosby Group, Inc. & East Central High School",
        "locality": "Tulsa",
        "nickname": "ECHS Robotics",
        "region": "OK",
        "team_number": 2060,
        "location": "Tulsa, OK, USA",
        "key": "frc2060",
        "country_name": "USA",
        "motto": null,
        "rookie_year": 2007
    },
    {
        "website": "http://ccsd.net/schools/canyonsprings/Robotics/Robotics-index.html",
        "name": "Hammond Sheet Metal & Canyon Springs High School",
        "locality": "N Las Vegas",
        "nickname": "Pioneers",
        "region": "NV",
        "team_number": 2061,
        "location": "N Las Vegas, NV, USA",
        "key": "frc2061",
        "country_name": "USA",
        "motto": null,
        "rookie_year": 2007
    },
    {
        "website": "http://www.core2062.com",
        "name": "Rockwell Automation/GE Volunteers/Toshiba/SMC/InSinkErator/Punch Manufacturing/TLX/School District of Waukesha/SCORE & Waukesha Engineering Preparatory Academy & West High & South High & North High",
        "locality": "Waukesha",
        "nickname": "C.O.R.E  2062",
        "region": "Wisconsin",
        "team_number": 2062,
        "location": "Waukesha, Wisconsin 53186, USA",
        "key": "frc2062",
        "country_name": "USA",
        "motto": "Core Values",
        "rookie_year": 2007
    },
    {
        "website": "http://www.pitmanrobotics.com",
        "name": "Beall Trailers of California, Inc./Billington Manufacturing Inc/Anything Vinyl/Fastenal & Pitman High School",
        "locality": "Turlock",
        "nickname": "Green Machine",
        "region": "CA",
        "team_number": 2063,
        "location": "Turlock, CA, USA",
        "key": "frc2063",
        "country_name": "USA",
        "motto": null,
        "rookie_year": 2007
    },
    {
        "website": "http://www.frc2064.com/",
        "name": "United Technologies/Lockheed Martin/PTC/Nexus Design/Ace Hardware&Pomperaug Regional High School",
        "locality": "Southbury / Middlebury",
        "nickname": "The Panther Project",
        "region": "Connecticut",
        "team_number": 2064,
        "location": "Southbury / Middlebury, Connecticut 06488, USA",
        "key": "frc2064",
        "country_name": "USA",
        "motto": null,
        "rookie_year": 2007
    },
    {
        "website": "http://www.byerslions.net",
        "name": "NASA / Mississippi Space Grant consortium & H W. Byers High School",
        "locality": "Holly Springs",
        "nickname": "The Lions",
        "region": "MS",
        "team_number": 2065,
        "location": "Holly Springs, MS, USA",
        "key": "frc2065",
        "country_name": "USA",
        "motto": null,
        "rookie_year": 2007
    },
    {
        "website": "http://Pftbrobotics.com",
        "name": "QUALCOMM  Incorporated/Imperial Valley MESA & Southwest High School",
        "locality": "El Centro",
        "nickname": "PFTB of Doom",
        "region": "CA",
        "team_number": 2066,
        "location": "El Centro, CA, USA",
        "key": "frc2066",
        "country_name": "USA",
        "motto": null,
        "rookie_year": 2007
    },
    {
        "website": "http://www.applepirobotics.org",
        "name": "Bishop's Orchards/United Technologies/Rockwell Automation/Moroso Performance Products/Pa's Place/Andersen Windows and Doors/Intuitive Surgical/Medtronic&4-H Youth Development Organization",
        "locality": "Guilford",
        "nickname": "Apple Pi",
        "region": "Connecticut",
        "team_number": 2067,
        "location": "Guilford, Connecticut 06437, USA",
        "key": "frc2067",
        "country_name": "USA",
        "motto": "How 'bout them apples?",
        "rookie_year": 2007
    },
    {
        "website": "http://www.team2068.org",
        "name": "FIRST Robotics /Progeny Systems Corporation/Lockheed Martin/Overlook Systems Technologies, Inc./BAE Systems/SPARK - Prince William County Public School's Education Foundation/Prince William County Public Schools/Micron Technology/Osbourn Park High School/Stellar Solutions Foundation/Marine Corps Systems Command &Osbourn Park High",
        "locality": "Manassas",
        "nickname": "Metal Jackets",
        "region": "Virginia",
        "team_number": 2068,
        "location": "Manassas, Virginia 20111, USA",
        "key": "frc2068",
        "country_name": "USA",
        "motto": "Defend the Hive",
        "rookie_year": 2007
    },
    {
        "website": "http://myspace%20ehs%20Robotics",
        "name": "Eldorado High School",
        "locality": "Las Vegas",
        "nickname": "Black Widow",
        "region": "NV",
        "team_number": 2069,
        "location": "Las Vegas, NV, USA",
        "key": "frc2069",
        "country_name": "USA",
        "motto": null,
        "rookie_year": 2007
    },
    {
        "website": "http://www.ridgefieldrobotics.com",
        "name": "Ridgefield Board of Education/Ridgefield PTA/Picatinny STEM/General Devices/DoDSTEM & Ridgefield Memorial High",
        "locality": "Ridgefield",
        "nickname": "Royals",
        "region": "New Jersey",
        "team_number": 2070,
        "location": "Ridgefield, New Jersey 07657, USA",
        "key": "frc2070",
        "country_name": "USA",
        "motto": null,
        "rookie_year": 2007
    },
    {
        "website": null,
        "name": "Idaho National Laboratory / Idaho State University-GK-12 / Glock INc & Marsh Valley High School",
        "locality": "Arimo",
        "nickname": "Autonomous Eagles",
        "region": "ID",
        "team_number": 2071,
        "location": "Arimo, ID, USA",
        "key": "frc2071",
        "country_name": "USA",
        "motto": null,
        "rookie_year": 2007
    },
    {
        "website": null,
        "name": "Texas High School Project Fund of the Communities Foundation of Texas & G.W. Carver H.S. for Engineering",
        "locality": "Houston",
        "nickname": "Carver RoboTechs",
        "region": "TX",
        "team_number": 2072,
        "location": "Houston, TX, USA",
        "key": "frc2072",
        "country_name": "USA",
        "motto": null,
        "rookie_year": 2007
    },
    {
        "website": "http://Team2073.com",
        "name": "Siemens Mobility & Pleasant Grove High",
        "locality": "Elk Grove",
        "nickname": "EagleForce",
        "region": "California",
        "team_number": 2073,
        "location": "Elk Grove, California 95624, USA",
        "key": "frc2073",
        "country_name": "USA",
        "motto": null,
        "rookie_year": 2007
    },
    {
        "website": "http://icnorcomrobotics.co.nr",
        "name": "Norfolk Navy Shipyard & I.C. Norcom High School",
        "locality": "Portsmouth",
        "nickname": "Robohoundz",
        "region": "VA",
        "team_number": 2074,
        "location": "Portsmouth, VA, USA",
        "key": "frc2074",
        "country_name": "USA",
        "motto": null,
        "rookie_year": 2007
    },
    {
        "website": "http://www.enigmafirstrobotics.com",
        "name": "Wege Foundation/Barebulb Company/Dick & Betsy DeVos Foundation/Herman Miller/HB Fuller/Rescom Electric Inc/W Soule/Repair Technologies LLC/Lakelind Electric/GE Aviation Volunteers&West Catholic High School",
        "locality": "Grand Rapids",
        "nickname": "Enigma Robotics",
        "region": "Michigan",
        "team_number": 2075,
        "location": "Grand Rapids, Michigan 49504, USA",
        "key": "frc2075",
        "country_name": "USA",
        "motto": null,
        "rookie_year": 2007
    },
    {
        "website": "http://tcirobotics.com",
        "name": "Thistletown Collegiate Institute & Toronto District School Board",
        "locality": "Toronto",
        "nickname": "Scots",
        "region": "ON",
        "team_number": 2076,
        "location": "Toronto, ON, Canada",
        "key": "frc2076",
        "country_name": "Canada",
        "motto": null,
        "rookie_year": 2007
    },
    {
        "website": "http://laserrobotics.org",
        "name": "Rockwell Automation/GE Volunteers of GE Healthcare/Waukesha County Technical College/FAS/CBRE-Environmental Systems Inc./Sharp Packaging Systems Inc./Carbide Grinding/Buchanan Family/Findorff/Milwaukee Tool/Meyers Electric/Delzer&Kettle Moraine High",
        "locality": "Wales",
        "nickname": "Laser Robotics",
        "region": "Wisconsin",
        "team_number": 2077,
        "location": "Wales, Wisconsin 53183, USA",
        "key": "frc2077",
        "country_name": "USA",
        "motto": "Danger! Danger!",
        "rookie_year": 2007
    },
    {
        "website": "http://spsrobotics.org",
        "name": "Lacoste Drywall, Inc./Vessel Statistics/Bentley Inc. & St Pauls School",
        "locality": "Covington",
        "nickname": "Robotic Wolves",
        "region": "Louisiana",
        "team_number": 2078,
        "location": "Covington, Louisiana 70433, USA",
        "key": "frc2078",
        "country_name": "USA",
        "motto": "The strength of the wolf is the pack",
        "rookie_year": 2007
    },
    {
        "website": "http://Alarmrobotics.com",
        "name": "United Technologies, Pratt & Whitney/Acorn Animal Hospital/Electric Time/4-H of Massachusetts &4-H ALARM Robotics 2079",
        "locality": "Franklin",
        "nickname": "4H ALARM Robotics",
        "region": "Massachusetts",
        "team_number": 2079,
        "location": "Franklin, Massachusetts 02054, USA",
        "key": "frc2079",
        "country_name": "USA",
        "motto": "faciendo discimus",
        "rookie_year": 2007
    },
    {
        "website": "http://www.torbotics2080.org",
        "name": "H Rocker Electric/Lockheed Martin/DS Solidworks/Intralox/Pierce Aero/Walmart&Hammond High School",
        "locality": "Hammond",
        "nickname": "Torbotics",
        "region": "Louisiana",
        "team_number": 2080,
        "location": "Hammond, Louisiana 70401, USA",
        "key": "frc2080",
        "country_name": "USA",
        "motto": "Together Opening Realms Beyond Our Team Into our Community and Schools",
        "rookie_year": 2007
    },
    {
        "website": "http://Icarus2081.org",
        "name": "Advanced Technology Services/Caterpillar Inc/Martin Engineering/Wentzel Engraving/Uftring Chevrolet&Peoria Notre Dame High School&Brimfield High School",
        "locality": "Peoria",
        "nickname": "Icarus",
        "region": "Illinois",
        "team_number": 2081,
        "location": "Peoria, Illinois 61614, USA",
        "key": "frc2081",
        "country_name": "USA",
        "motto": "If it doesn't work, try something else.",
        "rookie_year": 2007
    },
    {
        "website": "http://www.TeamBlitz.net",
        "name": "Lockheed Martin & Conifer Senior High School",
        "locality": "Conifer",
        "nickname": "Team BLITZ",
        "region": "Colorado",
        "team_number": 2083,
        "location": "Conifer, Colorado 80433, USA",
        "key": "frc2083",
        "country_name": "USA",
        "motto": "Brainstorm, Build , Believe, Be the Future",
        "rookie_year": 2007
    },
    {
        "website": "http://www.robotsbythec.com",
        "name": "Spaulding Education Fund/The Hooper Fund/Manchester Masons/MIT Lincoln Lab/Pinpoint Laser Systems/Cape Ann Savings Bank/Lee Spence/Polaris &Manchester Essex Regional High School",
        "locality": "Manchester",
        "nickname": "Robots by the C",
        "region": "Massachusetts",
        "team_number": 2084,
        "location": "Manchester, Massachusetts 01944, USA",
        "key": "frc2084",
        "country_name": "USA",
        "motto": "GO TEAM!",
        "rookie_year": 2007
    },
    {
        "website": "http://www.vhsrobotics.com",
        "name": "Solano County Office of Education / Genentech in cooperation with VPEF / Vacaville Sunrise Rotary Club / Vacaville Public Education Foundation / Recology / Pacific Gas and Electric / Tencate / Robinson Family / Peterson Family / Haddox Consulting Engineers / Alexander Family & Vacaville High",
        "locality": "Vacaville",
        "nickname": "RoboDogs",
        "region": "California",
        "team_number": 2085,
        "location": "Vacaville, California 95688, USA",
        "key": "frc2085",
        "country_name": "USA",
        "motto": null,
        "rookie_year": 2007
    },
    {
        "website": null,
        "name": "Boeing & COACH Robotics",
        "locality": "Canby",
        "nickname": "BFG (Building Future Generations)",
        "region": "OR",
        "team_number": 2087,
        "location": "Canby, OR, USA",
        "key": "frc2087",
        "country_name": "USA",
        "motto": null,
        "rookie_year": 2007
    },
    {
        "website": null,
        "name": "Col\u00e9gio Evang\u00e9lico Alberto Torres High School",
        "locality": "Lajeado",
        "nickname": "IO",
        "region": "RS",
        "team_number": 2089,
        "location": "Lajeado, RS, Brazil",
        "key": "frc2089",
        "country_name": "Brazil",
        "motto": null,
        "rookie_year": 2007
    },
    {
        "website": "http://www.firstinspires.org/",
        "name": "Sam O. Hirota Engineering/Leidos/Friends of Hawaii Robotics/Min Plastics & Punahou School",
        "locality": "Honolulu",
        "nickname": "Buff 'n Blue",
        "region": "Hawaii",
        "team_number": 2090,
        "location": "Honolulu, Hawaii 96822, USA",
        "key": "frc2090",
        "country_name": "USA",
        "motto": "Work hard, play hard.",
        "rookie_year": 2007
    },
    {
        "website": null,
        "name": "Jordan Fundamentals/Chevron/Lockheed Martin & Sarah T. Reed Senior High School",
        "locality": "New Orleans",
        "nickname": "Olympians",
        "region": "LA",
        "team_number": 2091,
        "location": "New Orleans, LA, USA",
        "key": "frc2091",
        "country_name": "USA",
        "motto": null,
        "rookie_year": 2007
    },
    {
        "website": "http://web.beaufort.k12.sc.us/education/components/scrapbook/default.php?sectiondetailid=39076&sc_id=1191333003",
        "name": "Parker Hanifin/Minster Machine/Pender Brothers/Port Royal Landing Marina & Arts Communication and Technology High School & Beaufort High School & Beaufort County School District",
        "locality": "Beaufort",
        "nickname": "Beaufort Robotics",
        "region": "SC",
        "team_number": 2092,
        "location": "Beaufort, SC, USA",
        "key": "frc2092",
        "country_name": "USA",
        "motto": null,
        "rookie_year": 2007
    },
    {
        "website": "http://www.thebowtiebrigade.org",
        "name": "The Boeing Company/Mentor Graphics/Neighborhood Group & Tool Shed PDX",
        "locality": "Portland",
        "nickname": "Bowtie Brigade",
        "region": "OR",
        "team_number": 2093,
        "location": "Portland, OR, USA",
        "key": "frc2093",
        "country_name": "USA",
        "motto": null,
        "rookie_year": 2007
    },
    {
        "website": "http://www.firstinspires.org/",
        "name": "the Episcopal Academy",
        "locality": "Newtown Square",
        "nickname": "Direct Current",
        "region": "Pennsylvania",
        "team_number": 2095,
        "location": "Newtown Square, Pennsylvania 19073, USA",
        "key": "frc2095",
        "country_name": "USA",
        "motto": null,
        "rookie_year": 2007
    },
    {
        "website": "http://roboactive.net/",
        "name": "Bank Hapoalim/Home Skinovations/Hoodies/Israel Ministry of Education/World Ort Education for Life/Negev nucler reserch center /medisim/Amal/3D systems/RASHI foundation/Atza sushi bar&Zinman high school",
        "locality": "dimona",
        "nickname": "RoboActive",
        "region": "HaDarom (Southern)",
        "team_number": 2096,
        "location": "dimona, HaDarom (Southern) 86000, Israel",
        "key": "frc2096",
        "country_name": "Israel",
        "motto": "Robotics is more than just robots",
        "rookie_year": 2007
    },
    {
        "website": null,
        "name": "Arthur M. Blank Family Foundation / The Coca Cola Company & Booker T Washington High School",
        "locality": "Atlanta",
        "nickname": "Bulldogs",
        "region": "GA",
        "team_number": 2098,
        "location": "Atlanta, GA, USA",
        "key": "frc2098",
        "country_name": "USA",
        "motto": null,
        "rookie_year": 2007
    },
    {
        "website": null,
        "name": "Smith Family Foundation & English High School",
        "locality": "Jamaica Plain",
        "nickname": "Blue on Blue",
        "region": "MA",
        "team_number": 2099,
        "location": "Jamaica Plain, MA, USA",
        "key": "frc2099",
        "country_name": "USA",
        "motto": null,
        "rookie_year": 2007
    },
    {
        "website": "http://www.stlucie.k12.fl.us/slwch/Robotics%20site/index.htm",
        "name": "Tropicana Products Inc. / Citibank, N.A. / C&L Technologies / Ross Mixing, Inc. / Ed's Painting and Paperhanging & St. Lucie West Centennial High School",
        "locality": "Port St. Lucie",
        "nickname": "M Squared",
        "region": "FL",
        "team_number": 2100,
        "location": "Port St. Lucie, FL, USA",
        "key": "frc2100",
        "country_name": "USA",
        "motto": null,
        "rookie_year": 2007
    },
    {
        "website": "http://sdarobotics.org",
        "name": "McCarthy Family Foundation/ViaSat/Nordson/Chief Digial Advisors/Qualcomm/Thomas C. Ackerman Foundation/Premier Stainless/Zodiac Pool Systems/Professional Insurance/Academy Skin Physicians/AFCEA San Diego/NML/Families of Team 2102/San Dieguito High School Academy  Associated Student Body&San Dieguito High Academy&San Dieguito High Academy",
        "locality": "Encinitas",
        "nickname": "Team Paradox",
        "region": "California",
        "team_number": 2102,
        "location": "Encinitas, California 92024, USA",
        "key": "frc2102",
        "country_name": "USA",
        "motto": "Passion FIRST",
        "rookie_year": 2007
    },
    {
        "website": "http://www.gloucesterschools.com",
        "name": "NASA/Comcast Cable/Gloucester Education Foundation (GEF) & Gloucester High School",
        "locality": "Gloucester",
        "nickname": "Fisherman",
        "region": "MA",
        "team_number": 2103,
        "location": "Gloucester, MA, USA",
        "key": "frc2103",
        "country_name": "USA",
        "motto": null,
        "rookie_year": 2007
    },
    {
        "website": "http://www.colonelrobotics.com",
        "name": "Boston Scientific & Worcester South High School",
        "locality": "Worcester",
        "nickname": "The Colonels",
        "region": "MA",
        "team_number": 2104,
        "location": "Worcester, MA, USA",
        "key": "frc2104",
        "country_name": "USA",
        "motto": null,
        "rookie_year": 2007
    },
    {
        "website": null,
        "name": "Nypro & University Park High School",
        "locality": "Worcester",
        "nickname": "University Park",
        "region": "MA",
        "team_number": 2105,
        "location": "Worcester, MA, USA",
        "key": "frc2105",
        "country_name": "USA",
        "motto": null,
        "rookie_year": 2007
    },
    {
        "website": "http://www.goochlandrobotics.com/",
        "name": "Luck Stone Corporation / Rockwell Automation & Goochland High & Goochland Middle",
        "locality": "Goochland",
        "nickname": "The Junkyard Dogs",
        "region": "Virginia",
        "team_number": 2106,
        "location": "Goochland, Virginia 23063, USA",
        "key": "frc2106",
        "country_name": "USA",
        "motto": null,
        "rookie_year": 2007
    },
    {
        "website": "http://www.firstinspires.org/",
        "name": "GE Volunteers/Raytheon/BAE Systems & Lake Taylor High & Home School",
        "locality": "Norfolk",
        "nickname": "Angry Bots",
        "region": "Virginia",
        "team_number": 2107,
        "location": "Norfolk, Virginia 23502, USA",
        "key": "frc2107",
        "country_name": "USA",
        "motto": "Just Do It",
        "rookie_year": 2007
    },
    {
        "website": "http://www.teamawkwardturtle.org",
        "name": "Microsoft Corporation / Teradata / Dashiell / US Case / Eclectech, Inc / Black And Veatch / ASME / Smith-Debnam / North State Storage / NASA / Daniel's & Southwest Wake Robotics Booster Club",
        "locality": "Cary",
        "nickname": "Team Awkward Turtle",
        "region": "NC",
        "team_number": 2108,
        "location": "Cary, NC, USA",
        "key": "frc2108",
        "country_name": "USA",
        "motto": null,
        "rookie_year": 2007
    },
    {
        "website": null,
        "name": "Ewing Marion Kauffman Foundation & Southeast High School",
        "locality": "Kansas City",
        "nickname": "Knight Vision",
        "region": "MO",
        "team_number": 2109,
        "location": "Kansas City, MO, USA",
        "key": "frc2109",
        "country_name": "USA",
        "motto": null,
        "rookie_year": 2007
    },
    {
        "website": null,
        "name": "Smith Family Foundation/Karl Marks, Individual Contributor/ThingMagic Inc. & Charlestown High School",
        "locality": "Charlestown",
        "nickname": "CHS",
        "region": "MA",
        "team_number": 2110,
        "location": "Charlestown, MA, USA",
        "key": "frc2110",
        "country_name": "USA",
        "motto": null,
        "rookie_year": 2007
    },
    {
        "website": null,
        "name": "Eagle's Aerie Schools/Employees of Microchip Technology Inc.",
        "locality": "Gilbert",
        "nickname": "Eagles",
        "region": "AZ",
        "team_number": 2111,
        "location": "Gilbert, AZ, USA",
        "key": "frc2111",
        "country_name": "USA",
        "motto": null,
        "rookie_year": 2007
    },
    {
        "website": "http://www.myspace.com/roboteam2112",
        "name": "Boeing & Multi-Talent Resource Center (MTRC)",
        "locality": "Pembroke Twnshp",
        "nickname": "PHP Robo Warriors",
        "region": "IL",
        "team_number": 2112,
        "location": "Pembroke Twnshp, IL, USA",
        "key": "frc2112",
        "country_name": "USA",
        "motto": null,
        "rookie_year": 2007
    },
    {
        "website": "http://www.firstinspires.org/",
        "name": "Baxter/Navistar/Motorola Foundation & Mundelein Cons High School",
        "locality": "Mundelein",
        "nickname": "Nightmares",
        "region": "Illinois",
        "team_number": 2115,
        "location": "Mundelein, Illinois, USA",
        "key": "frc2115",
        "country_name": "USA",
        "motto": "Virtuti et scientia",
        "rookie_year": 2007
    },
    {
        "website": "http://www.danecountyrobotics.org",
        "name": "NASA/GlobalQuota/Dane County Robotics & Stoughton High School",
        "locality": "Stoughton",
        "nickname": "Dane County Robotics",
        "region": "WI",
        "team_number": 2116,
        "location": "Stoughton, WI, USA",
        "key": "frc2116",
        "country_name": "USA",
        "motto": null,
        "rookie_year": 2007
    },
    {
        "website": null,
        "name": "NASA/The Advanced Academy of Georgia",
        "locality": "Carrollton",
        "nickname": "The West Georgia Wolvotics",
        "region": "GA",
        "team_number": 2117,
        "location": "Carrollton, GA, USA",
        "key": "frc2117",
        "country_name": "USA",
        "motto": null,
        "rookie_year": 2007
    },
    {
        "website": "http://2119robotics.weebly.com/index.html",
        "name": "Southern Engineering Services / GE Volunteers / SRT-Nypro / ITT & Sequoyah High School",
        "locality": "Canton",
        "nickname": "SCAR (Sequoyah Computer Animation and Robotics)",
        "region": "GA",
        "team_number": 2119,
        "location": "Canton, GA, USA",
        "key": "frc2119",
        "country_name": "USA",
        "motto": null,
        "rookie_year": 2007
    },
    {
        "website": null,
        "name": "Doncaster Aimhigher high school",
        "locality": "doncaster",
        "nickname": "doncaster",
        "region": "ENG",
        "team_number": 2120,
        "location": "doncaster, ENG, Kingdom",
        "key": "frc2120",
        "country_name": "Kingdom",
        "motto": null,
        "rookie_year": 2007
    },
    {
        "website": null,
        "name": "HAC DC / DEPARTMENT OF THE NAVY / The Boeing Company / BAE SYSTEMS / DC Public Schools System & CARDOZO SHS",
        "locality": "Washington",
        "nickname": "Mecha Clerks",
        "region": "DC",
        "team_number": 2121,
        "location": "Washington, DC, USA",
        "key": "frc2121",
        "country_name": "USA",
        "motto": null,
        "rookie_year": 2007
    },
    {
        "website": "http://www.teamtators.org",
        "name": "Micron Technology, Inc./Hewlett Packard/Boise Schools Educational Foundation/Laura Moore Cunningham Foundation/J.C. Jeker Foundation & Treasure Valley Math/Science",
        "locality": "Boise",
        "nickname": "Team Tators",
        "region": "Idaho",
        "team_number": 2122,
        "location": "Boise, Idaho 83709, USA",
        "key": "frc2122",
        "country_name": "USA",
        "motto": "\"Chance favors the prepared mind\" - Pasteur",
        "rookie_year": 2007
    },
    {
        "website": null,
        "name": "BAE Systems/Aurora Flight Sciences/Bluefin Robotics/Olin College of Engineering/Textron & The Engineering School, Community Academy of Science and Health",
        "locality": "Hyde Park",
        "nickname": "X-Factor",
        "region": "MA",
        "team_number": 2124,
        "location": "Hyde Park, MA, USA",
        "key": "frc2124",
        "country_name": "USA",
        "motto": null,
        "rookie_year": 2007
    },
    {
        "website": null,
        "name": "Smith Family Foundation & Urban Science Academy High School",
        "locality": "West Roxbury",
        "nickname": "Urban Science",
        "region": "MA",
        "team_number": 2125,
        "location": "West Roxbury, MA, USA",
        "key": "frc2125",
        "country_name": "USA",
        "motto": null,
        "rookie_year": 2007
    },
    {
        "website": null,
        "name": "Smith Family Foundation of Boston & Boston Community Leadership Academy",
        "locality": "Brighton",
        "nickname": "BCLA",
        "region": "MA",
        "team_number": 2126,
        "location": "Brighton, MA, USA",
        "key": "frc2126",
        "country_name": "USA",
        "motto": null,
        "rookie_year": 2007
    },
    {
        "website": null,
        "name": "BAE Systems/Smith Family Foundation & Josiah Quincy Upper High School",
        "locality": "Boston",
        "nickname": "JQUS",
        "region": "MA",
        "team_number": 2127,
        "location": "Boston, MA, USA",
        "key": "frc2127",
        "country_name": "USA",
        "motto": null,
        "rookie_year": 2007
    },
    {
        "website": "http://members.cox.net/chavezrobotics",
        "name": "BAE Systems/Salt River Project/Industrial Metal Supply/ACE Auto & Cesar Chavez High School",
        "locality": "Laveen",
        "nickname": "SciTech",
        "region": "AZ",
        "team_number": 2128,
        "location": "Laveen, AZ, USA",
        "key": "frc2128",
        "country_name": "USA",
        "motto": null,
        "rookie_year": 2007
    },
    {
        "website": "http://www.swrobotics.com",
        "name": "United Health & Southwest Senior High",
        "locality": "Minneapolis",
        "nickname": "Ultraviolet",
        "region": "Minnesota",
        "team_number": 2129,
        "location": "Minneapolis, Minnesota 55410, USA",
        "key": "frc2129",
        "country_name": "USA",
        "motto": "We love Paul Blart",
        "rookie_year": 2007
    },
    {
        "website": "http://www.bfhsrobotics.com",
        "name": "Autodesk/Ripley Comegys/The Boeing Company/The Fox Trust/Mountain Ledgers/General Feed & Grain/Maxfield Family Fund/Boundary County School District 101/Badger Boosters & Bonners Ferry High School",
        "locality": "Bonners Ferry",
        "nickname": "Alpha+",
        "region": "Idaho",
        "team_number": 2130,
        "location": "Bonners Ferry, Idaho 83805, USA",
        "key": "frc2130",
        "country_name": "USA",
        "motto": "Who has the 7/16?",
        "rookie_year": 2007
    },
    {
        "website": "http://www.geocities.com/mervoteam",
        "name": "NASA/Maryland Space Grant Consortium/Morgan State University/NASA & Mergenthaler Vocational Technical High School",
        "locality": "Baltimore",
        "nickname": "Mustangs",
        "region": "MD",
        "team_number": 2132,
        "location": "Baltimore, MD, USA",
        "key": "frc2132",
        "country_name": "USA",
        "motto": null,
        "rookie_year": 2007
    },
    {
        "website": "http://heatrobotics.tripod.com",
        "name": "NASA & Lewis County High School",
        "locality": "Hohenwald",
        "nickname": "H.E.A.T.",
        "region": "TN",
        "team_number": 2133,
        "location": "Hohenwald, TN, USA",
        "key": "frc2133",
        "country_name": "USA",
        "motto": null,
        "rookie_year": 2007
    },
    {
        "website": null,
        "name": "NASA & Corona del Sol High School and McClintock High School",
        "locality": "Tempe",
        "nickname": "Aztecs",
        "region": "AZ",
        "team_number": 2134,
        "location": "Tempe, AZ, USA",
        "key": "frc2134",
        "country_name": "USA",
        "motto": null,
        "rookie_year": 2007
    },
    {
        "website": "http://frc2135.org",
        "name": "Apple / Enseo, Inc. / Qualcomm / nVIDIA / Spray Technology / Xilinx, Inc / Dassault  Systemes / Exatron / Barker Family / Bruno Family / Nguyen Family / Mullins Family & Presentation High School",
        "locality": "San Jose",
        "nickname": "Presentation Invasion",
        "region": "California",
        "team_number": 2135,
        "location": "San Jose, California 95125, USA",
        "key": "frc2135",
        "country_name": "USA",
        "motto": "",
        "rookie_year": 2007
    },
    {
        "website": "http://www.2136.darkcloludhosting.com",
        "name": "Neighborhood Group/Illinois Manufacturing Foundation & Farragut Career Academy Hs",
        "locality": "Chicago",
        "nickname": "Impossible Mission Force",
        "region": "Illinois",
        "team_number": 2136,
        "location": "Chicago, Illinois 60623, USA",
        "key": "frc2136",
        "country_name": "USA",
        "motto": "Scraping the sky to serve you better",
        "rookie_year": 2007
    },
    {
        "website": "http://www.torc2137.com",
        "name": "FCA Foundation/Dessault Systems (Solidworks)/CAMS CNC Software/ARC Investment of Auburn Hills/Oakland Orthropaedic Surgeons/Michigan Department of Education/CEC Controls Company/SMC Corporation /Village Tees/Stage 3 Productions/Quality Fastener and Supply/Pillar Design/Kettering University/Barron Industries&Oxford High School",
        "locality": "Oxford",
        "nickname": "TORC",
        "region": "Michigan",
        "team_number": 2137,
        "location": "Oxford, Michigan 48371, USA",
        "key": "frc2137",
        "country_name": "USA",
        "motto": "\"We Build\"...more than robots!",
        "rookie_year": 2007
    },
    {
        "website": "http://www.WeBuildFutures.net/robotics",
        "name": "The Best - & SECTA High School",
        "locality": "Las Vegas",
        "nickname": "Road Runners",
        "region": "NV",
        "team_number": 2139,
        "location": "Las Vegas, NV, USA",
        "key": "frc2139",
        "country_name": "USA",
        "motto": null,
        "rookie_year": 2007
    },
    {
        "website": null,
        "name": "Novartis Pharmaceuticals / ADP Foundation / The Hilliard House & Pemberton Township High School",
        "locality": "Pemberton",
        "nickname": "Team Synergy",
        "region": "NJ",
        "team_number": 2140,
        "location": "Pemberton, NJ, USA",
        "key": "frc2140",
        "country_name": "USA",
        "motto": null,
        "rookie_year": 2007
    },
    {
        "website": "http://www.firstinspires.org/",
        "name": "Nvidia & De La Salle High School",
        "locality": "Concord",
        "nickname": "Spartonics",
        "region": "California",
        "team_number": 2141,
        "location": "Concord, California 94518, USA",
        "key": "frc2141",
        "country_name": "USA",
        "motto": "Science without religion is lame, religion without science is blind. ~Albert E",
        "rookie_year": 2007
    },
    {
        "website": null,
        "name": "NASA / M. J. Murdock Charitable Trust / Lumberman's / Outback Manufacturing / Trossen Robotics & Lakeview High School",
        "locality": "Laleview",
        "nickname": "Lakeview",
        "region": "OR",
        "team_number": 2142,
        "location": "Laleview, OR, USA",
        "key": "frc2142",
        "country_name": "USA",
        "motto": null,
        "rookie_year": 2007
    },
    {
        "website": "http://www.teamtobor.org/",
        "name": "Boeing/JSO Technology/ILC Alumni Association & Immanuel Lutheran High School",
        "locality": "Eau Claire",
        "nickname": "Team Tobor",
        "region": "Wisconsin",
        "team_number": 2143,
        "location": "Eau Claire, Wisconsin 54701, USA",
        "key": "frc2143",
        "country_name": "USA",
        "motto": "\"You Push a Button . . . \"",
        "rookie_year": 2007
    },
    {
        "website": "http://www.shschools.org/Page/Campus-Life/Student-Activities/Robotics",
        "name": "SHS/Google/Apple/Abbott Medical/WeDriveU/Humphreys Family/Dylan Hruska/SolidWorks&Sacred Heart Preparatory",
        "locality": "Atherton",
        "nickname": "Gators",
        "region": "California",
        "team_number": 2144,
        "location": "Atherton, California 94027, USA",
        "key": "frc2144",
        "country_name": "USA",
        "motto": "For the sake of one robot, we will build it.",
        "rookie_year": 2007
    },
    {
        "website": "https://sites.google.com/site/lf2145/",
        "name": "GM Foundation/Trescal Dynamic Technology, Inc./Mega Coney Island/High Octane Printing/cfi Medical/Vic Canever Chevrolet/Lake Fenton Community Schools/State of Michigan/mid-state bolt & screw/Mancino's of Fenton/Curtis-Wolverton VFW Post 3243 & Lake Fenton High School",
        "locality": "Fenton",
        "nickname": "HAZMATs",
        "region": "Michigan",
        "team_number": 2145,
        "location": "Fenton, Michigan 48430, USA",
        "key": "frc2145",
        "country_name": "USA",
        "motto": "Our Energy Is Corrosive",
        "rookie_year": 2007
    },
    {
        "website": "http://www.firstinspires.org/",
        "name": "Wagstaff/Itron/Haskins Steel/F5&West Valley High School",
        "locality": "Spokane",
        "nickname": "CHUCK",
        "region": "Washington",
        "team_number": 2147,
        "location": "Spokane, Washington 99212, USA",
        "key": "frc2147",
        "country_name": "USA",
        "motto": null,
        "rookie_year": 2007
    },
    {
        "website": "http://www.Team2148.com",
        "name": "Altek/Wagstaff  Inc./f5 Corporation & East Valley High School&Extension & East Valley High School&Extension",
        "locality": "Spokane",
        "nickname": "Mechaknights",
        "region": "Washington",
        "team_number": 2148,
        "location": "Spokane, Washington 99216, USA",
        "key": "frc2148",
        "country_name": "USA",
        "motto": null,
        "rookie_year": 2007
    },
    {
        "website": "http://cvhsrobots.com",
        "name": "Central Valley School District / OSPI-WA State / F5 / JNW Baldwin Sign / Hotstart / Wagstaff / Battery Systems of Spokane / Office Depot / TEK / Phoenix Company / American Alloy / Les Schwab Tire Center / Savemore Building Supply Inc. & Central Valley High School",
        "locality": "Veradale",
        "nickname": "CV Bearbots",
        "region": "Washington",
        "team_number": 2149,
        "location": "Veradale, Washington 99037, USA",
        "key": "frc2149",
        "country_name": "USA",
        "motto": "Linked together!",
        "rookie_year": 2007
    },
    {
        "website": "http://www.wickedwobotics.org",
        "name": "Boeing / Northrop Grumman / El Camino College & Chadwick School",
        "locality": "Palos Verdes Peninsula",
        "nickname": "W-Squared",
        "region": "CA",
        "team_number": 2150,
        "location": "Palos Verdes Peninsula, CA, USA",
        "key": "frc2150",
        "country_name": "USA",
        "motto": null,
        "rookie_year": 2007
    },
    {
        "website": "http://www.firstinspires.org/",
        "name": "Triton College & Proviso Math and Science Academy",
        "locality": "Forest Park",
        "nickname": "Monty Pythons",
        "region": "Illinois",
        "team_number": 2151,
        "location": "Forest Park, Illinois 60130, USA",
        "key": "frc2151",
        "country_name": "USA",
        "motto": "It's just a short circuit!",
        "rookie_year": 2007
    },
    {
        "website": "http://www.team2152.org",
        "name": "VMA/Rotomation/FPL/Thomas & Betts/Germfree/Boeing/Ford Motor Co./Raydon Corporation/Embry-Riddle Aeronautical University & Spruce Creek High School & University High School",
        "locality": "Port Orange",
        "nickname": "S*M*A*S*H",
        "region": "Florida",
        "team_number": 2152,
        "location": "Port Orange, Florida 32127, USA",
        "key": "frc2152",
        "country_name": "USA",
        "motto": "Insanity is just a state of mind!",
        "rookie_year": 2007
    },
    {
        "website": "http://team2153.org",
        "name": "Chassell Township High School",
        "locality": "Chassell",
        "nickname": "Chassell Robotics",
        "region": "MI",
        "team_number": 2153,
        "location": "Chassell, MI, USA",
        "key": "frc2153",
        "country_name": "USA",
        "motto": null,
        "rookie_year": 2007
    },
    {
        "website": null,
        "name": "William Moreno Jr High School",
        "locality": "Calexico",
        "nickname": "AzTechs",
        "region": "CA",
        "team_number": 2154,
        "location": "Calexico, CA, USA",
        "key": "frc2154",
        "country_name": "USA",
        "motto": null,
        "rookie_year": 2007
    },
    {
        "website": "http://www.wirefreaks.com",
        "name": "Sergey Brin-Ann Wojcicki Foundation / Google & HJHS Technology & Engineering Design Academy & Hiram W. Johnson High School",
        "locality": "Sacramento",
        "nickname": "Wire Freaks",
        "region": "CA",
        "team_number": 2156,
        "location": "Sacramento, CA, USA",
        "key": "frc2156",
        "country_name": "USA",
        "motto": null,
        "rookie_year": 2007
    },
    {
        "website": null,
        "name": "Boeing/Bezos Foundation/CSTEM/Houston Robotics & Sharpstown High School",
        "locality": "Houston",
        "nickname": "Apollo",
        "region": "TX",
        "team_number": 2157,
        "location": "Houston, TX, USA",
        "key": "frc2157",
        "country_name": "USA",
        "motto": null,
        "rookie_year": 2007
    },
    {
        "website": "http://www.andersonrobotics.org/",
        "name": "National Instruments / Apple / Texas Workforce Commission / FIRST in Texas / REV Robotics / University of Texas at Austin / ausTIN CANs Supporters Group & Anderson H S",
        "locality": "Austin",
        "nickname": "ausTIN CANs",
        "region": "Texas",
        "team_number": 2158,
        "location": "Austin, Texas 78757, USA",
        "key": "frc2158",
        "country_name": "USA",
        "motto": "Austin CAN!",
        "rookie_year": 2007
    },
    {
        "website": null,
        "name": "Abbott Diabetes Care, A Div. of Abbot Laboratories/BAE Systems/ACE Hardware of San Leandro/Coast Aluminum and Architectural, INC./Wal*Mart/OSI & San Leandro High School",
        "locality": "San Leandro",
        "nickname": "RoboPirates",
        "region": "CA",
        "team_number": 2159,
        "location": "San Leandro, CA, USA",
        "key": "frc2159",
        "country_name": "USA",
        "motto": null,
        "rookie_year": 2007
    },
    {
        "website": "http://www.whitmanrobocats.com/",
        "name": "Underwriter's Laboratories/County Line Hardware/Sign A Rama/BERKSHIRE HATHAWAY&Walt Whitman High School",
        "locality": "Huntington Station",
        "nickname": "Robocats",
        "region": "New York",
        "team_number": 2161,
        "location": "Huntington Station, New York 11746, USA",
        "key": "frc2161",
        "country_name": "USA",
        "motto": "Relationships forged through Aluminum but  built for life",
        "rookie_year": 2007
    },
    {
        "website": null,
        "name": "Smith Family Foundation & McKinley Prep High School",
        "locality": "Boston",
        "nickname": "MacAttacks",
        "region": "MA",
        "team_number": 2162,
        "location": "Boston, MA, USA",
        "key": "frc2162",
        "country_name": "USA",
        "motto": null,
        "rookie_year": 2007
    },
    {
        "website": "http://www.chromepanthers.com",
        "name": "Affiliated Construction Specialists Inc. / ASI Improvement Co. / Airgas & Lapeer West High School",
        "locality": "Lapeer",
        "nickname": "ChromePanthers",
        "region": "MI",
        "team_number": 2163,
        "location": "Lapeer, MI, USA",
        "key": "frc2163",
        "country_name": "USA",
        "motto": null,
        "rookie_year": 2007
    },
    {
        "website": "http://www.hhsrobotics.com/",
        "name": "KCStemAlliance/Families of Team 2164/Elks Lodge #2791/Baptist Missionary Transportation Ministry/Eerle M. Jorgensen Company&Harrisonville High&Cass County 4-H",
        "locality": "Harrisonville",
        "nickname": "The Core",
        "region": "Missouri",
        "team_number": 2164,
        "location": "Harrisonville, Missouri 64701, USA",
        "key": "frc2164",
        "country_name": "USA",
        "motto": "An Important Part of Something Important",
        "rookie_year": 2007
    },
    {
        "website": "http://www.team2165.weebly.com",
        "name": "Phillips 66 / Conoco Phillips / AEP / Bartlesville Rotary Club / Department of Defense STEM & Tri County Technology Center",
        "locality": "Bartlesville",
        "nickname": "Trailblazers",
        "region": "Oklahoma",
        "team_number": 2165,
        "location": "Bartlesville, Oklahoma 74006, USA",
        "key": "frc2165",
        "country_name": "USA",
        "motto": "Today's Competitors, Tomorrow's Champions",
        "rookie_year": 2007
    },
    {
        "website": "http://robotics.appleby.on.ca",
        "name": "Appleby College / Extrude-A-Trim / Entripy Custom Clothing / University of Toronto / MDA Robotics & Appleby College (High School)",
        "locality": "Oakville",
        "nickname": "Bluebotics",
        "region": "ON",
        "team_number": 2166,
        "location": "Oakville, ON, Canada",
        "key": "frc2166",
        "country_name": "Canada",
        "motto": null,
        "rookie_year": 2007
    },
    {
        "website": "http://www.firstinspires.org/",
        "name": "Northwest Missouri State University - Missouri Academy",
        "locality": "Maryville",
        "nickname": "Radical Tech",
        "region": "Missouri",
        "team_number": 2167,
        "location": "Maryville, Missouri 64468, USA",
        "key": "frc2167",
        "country_name": "USA",
        "motto": null,
        "rookie_year": 2007
    },
    {
        "website": "http://www.team2168.org",
        "name": "Pfizer/Groton Utilities/DoDSTEM/Google/Hubble Incorporated/Groton Education Foundation/The Hillery Company/Nvidia/Appllied Physical Sciences&Robert E Fitch High School ",
        "locality": "Groton",
        "nickname": "Aluminum Falcons",
        "region": "Connecticut",
        "team_number": 2168,
        "location": "Groton, Connecticut 06340, USA",
        "key": "frc2168",
        "country_name": "USA",
        "motto": "Stay on Target",
        "rookie_year": 2007
    },
    {
        "website": "http://www.kingtec2169.com",
        "name": "Boston Scientific Corp/PTC/UTC - United Technologies/Milwaukee School of Engineering/Seagate/Skyline Displays/Dell/The Furniture Source/Rotary Club of Prior Lake/Lunds & Byerlys Grocery/NASA/Stratasys & Prior Lake High School",
        "locality": "Savage",
        "nickname": "KING TeC",
        "region": "Minnesota",
        "team_number": 2169,
        "location": "Savage, Minnesota 55378, USA",
        "key": "frc2169",
        "country_name": "USA",
        "motto": "Beyond Rational Thought - V^5",
        "rookie_year": 2007
    },
    {
        "website": "https://sites.google.com/a/glastonburyus.org/ghs-first-robotics/",
        "name": "UTC/Black and Decker/Tsunami Tsolutions/Aging Care, LLC/Simoniz/Kocian Law Group/Cclyes/Apella Capital/Gemma Power Systems/Xpress Delivery /Tulimieri Associates/Gamer Development&Glastonbury High School",
        "locality": "Glastonbury",
        "nickname": "Titanium Tomahawks",
        "region": "Connecticut",
        "team_number": 2170,
        "location": "Glastonbury, Connecticut 06033, USA",
        "key": "frc2170",
        "country_name": "USA",
        "motto": null,
        "rookie_year": 2007
    },
    {
        "website": "http://www.cprobodogs2171.weebly.com",
        "name": "Crown Point Community Foundation/Burrell Family Foundation/REMAX Pace Realty & Crown Point High School & Crown Point High School",
        "locality": "Crown Point",
        "nickname": "RoboDogs",
        "region": "Indiana",
        "team_number": 2171,
        "location": "Crown Point, Indiana 46307, USA",
        "key": "frc2171",
        "country_name": "USA",
        "motto": "Improvise-Adapt-Overcome",
        "rookie_year": 2007
    },
    {
        "website": "http://www.sehsrobotics.com/",
        "name": "Rockwell Automation/Parker Hannifin/Advanced Polymer Coatings Ltd./JBC Technologies/American Tank and Fabricating Co/Pointe Blank Solutions/Alphaport&St Edward High School",
        "locality": "Lakewood",
        "nickname": "Street Legal",
        "region": "Ohio",
        "team_number": 2172,
        "location": "Lakewood, Ohio 44107, USA",
        "key": "frc2172",
        "country_name": "USA",
        "motto": null,
        "rookie_year": 2007
    },
    {
        "website": "http://www.ststan.com/robotics",
        "name": "USMI/AVL/Mississippi Power/MS Delta American Legion Post 1776 & St. Stanislaus College High School",
        "locality": "Bay St. Louis",
        "nickname": "Robo Rocks",
        "region": "MS",
        "team_number": 2173,
        "location": "Bay St. Louis, MS, USA",
        "key": "frc2173",
        "country_name": "USA",
        "motto": null,
        "rookie_year": 2007
    },
    {
        "website": null,
        "name": "Boeing/US Bank/Raytheon & Verbum Dei High School",
        "locality": "Watts",
        "nickname": "Iron Eagles",
        "region": "CA",
        "team_number": 2174,
        "location": "Watts, CA, USA",
        "key": "frc2174",
        "country_name": "USA",
        "motto": null,
        "rookie_year": 2007
    },
    {
        "website": "http://www.fightingcalculators.org/",
        "name": "Northern Tier/Phillips Medisize/3M/Hubbard Broadcasting/Boston Scientific/Intertech&Math & Science Academy",
        "locality": "Saint Paul",
        "nickname": "The Fighting Calculators",
        "region": "Minnesota",
        "team_number": 2175,
        "location": "Saint Paul, Minnesota 55125, USA",
        "key": "frc2175",
        "country_name": "USA",
        "motto": null,
        "rookie_year": 2007
    },
    {
        "website": null,
        "name": "NASA & Starkville Academy",
        "locality": "Starkville",
        "nickname": "MAD SCIENTIST ASSOCIATION",
        "region": "MS",
        "team_number": 2176,
        "location": "Starkville, MS, USA",
        "key": "frc2176",
        "country_name": "USA",
        "motto": null,
        "rookie_year": 2007
    },
    {
        "website": "http://www.therobettes.com",
        "name": "Boston Scientific & Convent of the Visitation School",
        "locality": "Mendota Heights",
        "nickname": "The Robettes",
        "region": "Minnesota",
        "team_number": 2177,
        "location": "Mendota Heights, Minnesota 55120, USA",
        "key": "frc2177",
        "country_name": "USA",
        "motto": "Non Scholae Sed Vitae",
        "rookie_year": 2007
    },
    {
        "website": "http://www.ouhsd.k12.ca.us/sites/rmhs/CLUBS/robotics.htm",
        "name": "Haas Automation & Rio Mesa High School",
        "locality": "Oxnard",
        "nickname": "RioBotics",
        "region": "CA",
        "team_number": 2178,
        "location": "Oxnard, CA, USA",
        "key": "frc2178",
        "country_name": "USA",
        "motto": null,
        "rookie_year": 2007
    },
    {
        "website": "http://steinertrobotics.net",
        "name": "NDEP/Sun Chemical Corporation/Valspar/Lockheed Martin/Mercer County Improvement Authority/FMC Technologies/HTEA and NJEA/Bristol-Myers Squibb/Princeton Partners, Inc/Nav-Air & Hamilton East  Steinert",
        "locality": "Hamilton",
        "nickname": "Zero Gravity",
        "region": "New Jersey",
        "team_number": 2180,
        "location": "Hamilton, New Jersey 08690, USA",
        "key": "frc2180",
        "country_name": "USA",
        "motto": "Nothing Can Hold Us Down!",
        "rookie_year": 2007
    },
    {
        "website": "http://www.anoka.k12.mn.us/bhsrobotics",
        "name": "Medtronic&Blaine Senior High",
        "locality": "Blaine",
        "nickname": "G.E.A.R.s (Great Engineers Awesome Robots)",
        "region": "Minnesota",
        "team_number": 2181,
        "location": "Blaine, Minnesota 55434-2199, USA",
        "key": "frc2181",
        "country_name": "USA",
        "motto": "Our gears are always turning.",
        "rookie_year": 2007
    },
    {
        "website": "http://www.slidellrobotics.org",
        "name": "Chalmette Refining/NASA & St. Tammany Parish Public Schools & Slidell High School",
        "locality": "Slidell",
        "nickname": "Tyborgs",
        "region": "LA",
        "team_number": 2182,
        "location": "Slidell, LA, USA",
        "key": "frc2182",
        "country_name": "USA",
        "motto": null,
        "rookie_year": 2007
    },
    {
        "website": "http://www.stcharles.k12.la.us/site/default.aspx?DomainID=642",
        "name": "Entergy/Monsanto/DOW/ARKEMA/Royal Productions/Laitram Corp/Intralox/Cornerstone Chemical/Distefano Plumbing/Skiba Family/Allen's Ace Hardware/Outcast Marine, Inc./Barnes and Noble/Mr. & Mrs. Albert Temes Dr./St. Charles Parish Public Schools&Hahnville High School",
        "locality": "Boutte",
        "nickname": "Tigerbots",
        "region": "Louisiana",
        "team_number": 2183,
        "location": "Boutte, Louisiana 70039, USA",
        "key": "frc2183",
        "country_name": "USA",
        "motto": null,
        "rookie_year": 2007
    },
    {
        "website": null,
        "name": "Alchesay High School",
        "locality": "Whiteriver",
        "nickname": "Team Injun Ingenuity",
        "region": "AZ",
        "team_number": 2184,
        "location": "Whiteriver, AZ, USA",
        "key": "frc2184",
        "country_name": "USA",
        "motto": null,
        "rookie_year": 2007
    },
    {
        "website": "http://etobicokeci.ca",
        "name": "TDSB  / APPOLO Machine Ltd. & Etobicoke Collegiate Institute",
        "locality": "Toronto",
        "nickname": "RAMAZOIDZ",
        "region": "Ontario",
        "team_number": 2185,
        "location": "Toronto, Ontario M9A 3N5, Canada",
        "key": "frc2185",
        "country_name": "Canada",
        "motto": "Students Preparing for Tomorrow. Today.",
        "rookie_year": 2007
    },
    {
        "website": "http://www.dogsofsteel.org",
        "name": "Stellar Solutions/BAE Systems/Infinity Technology, LLC/SAIC/Westfield High School PTSA/Hickory Ground Solutions/Zeta Associates&Westfield High",
        "locality": "Chantilly",
        "nickname": "Dogs of Steel",
        "region": "Virginia",
        "team_number": 2186,
        "location": "Chantilly, Virginia 20151, USA",
        "key": "frc2186",
        "country_name": "USA",
        "motto": null,
        "rookie_year": 2007
    },
    {
        "website": "http://ata.horrycountyschools.net/for_students/robotics_team/",
        "name": "Santee Cooper/Horry County School District & Academy for Technology and Academics",
        "locality": "Conway",
        "nickname": "Team Volt",
        "region": "South Carolina",
        "team_number": 2187,
        "location": "Conway, South Carolina 29526, USA",
        "key": "frc2187",
        "country_name": "USA",
        "motto": "We do more with less",
        "rookie_year": 2007
    },
    {
        "website": "http://robotics.bas-k12.org",
        "name": "Stahlin Enclosures / Herff Jones Sales Recognition / Belding Tank Technology / Greenville Tool & Die / Weisen Inc. / Gordon Food Service / Fleis & VanDenBrink / Belding Parts Plus / Wills Insurance Agency / Chartwell Food Service / FIRST BANK WEST MICHIGAN / Digital Fabrication & Belding High School Technology Dept",
        "locality": "Belding",
        "nickname": "Critical Mass",
        "region": "MI",
        "team_number": 2188,
        "location": "Belding, MI, USA",
        "key": "frc2188",
        "country_name": "USA",
        "motto": null,
        "rookie_year": 2007
    },
    {
        "website": null,
        "name": "NASA/Chicano And Latino Engineers and Scientist Society (CALESS)/Society of Mexican American Engineers and Scientists (MAES) & Woodland and Pioneer High School",
        "locality": "Woodland",
        "nickname": "woodland Robotics",
        "region": "CA",
        "team_number": 2189,
        "location": "Woodland, CA, USA",
        "key": "frc2189",
        "country_name": "USA",
        "motto": null,
        "rookie_year": 2007
    },
    {
        "website": "http://josephbastine.wix.com/teamhero2190#!",
        "name": "Petal School District/#FlyHighOmar/Kohler Engines/Mississippi Power & Petal High School",
        "locality": "Petal",
        "nickname": "Team Hero",
        "region": "Mississippi",
        "team_number": 2190,
        "location": "Petal, Mississippi 39465, USA",
        "key": "frc2190",
        "country_name": "USA",
        "motto": null,
        "rookie_year": 2007
    },
    {
        "website": "http://www.team2191.com",
        "name": "Nordson Corp. / Hamilton Township Education Assoc. HTEA & Hamilton North  Nottingham",
        "locality": "Hamilton",
        "nickname": "Flux Core",
        "region": "New Jersey",
        "team_number": 2191,
        "location": "Hamilton, New Jersey 08619, USA",
        "key": "frc2191",
        "country_name": "USA",
        "motto": "You will be seeing stars",
        "rookie_year": 2007
    },
    {
        "website": "http://%20%20%20%20%20%20%20%20team2192.org%20",
        "name": "NASA / Georgia-Pacific / Oregon Department of Education  / Confederated Tribes of Siletz Indians & NEWPORT HIGH SCHOOL",
        "locality": "Newport",
        "nickname": "YAK Attack",
        "region": "OR",
        "team_number": 2192,
        "location": "Newport, OR, USA",
        "key": "frc2192",
        "country_name": "USA",
        "motto": null,
        "rookie_year": 2007
    },
    {
        "website": "http://www.hilltoprobotics.com",
        "name": "Qualcomm/NASA/Anytime Sign Solutions & Hilltop High School",
        "locality": "Chula Vista",
        "nickname": "EPIC Robotics",
        "region": "CA",
        "team_number": 2193,
        "location": "Chula Vista, CA, USA",
        "key": "frc2193",
        "country_name": "USA",
        "motto": null,
        "rookie_year": 2007
    },
    {
        "website": "http://fondyfire.com/",
        "name": "John Deere Horicon Works/PTC/Belke Financial Group/Industrial Controls Engineering/DuFu Engneering/BCI Burke/Milwaukee School of Engineering/Mid-States Aluminum/MEC/Spiros Industries/HUI/Moraine Park Technical College/Stone Foundation/Saputo Cheese/Holiday Automotive Group/Hanson Refrigeration/Chicago Tube & Iron/Mercury Marine & Neighborhood Group & Fond Du Lac High School",
        "locality": "Fond du Lac",
        "nickname": "Fondy Fire",
        "region": "Wisconsin",
        "team_number": 2194,
        "location": "Fond du Lac, Wisconsin 54935, USA",
        "key": "frc2194",
        "country_name": "USA",
        "motto": "We Build More Than Just Smokin' Robots",
        "rookie_year": 2007
    },
    {
        "website": null,
        "name": "Shiprock High School",
        "locality": "Shiprock",
        "nickname": "B\u00e9\u00e9sh B\u00e1'\u00e1h Alchini",
        "region": "NM",
        "team_number": 2196,
        "location": "Shiprock, NM, USA",
        "key": "frc2196",
        "country_name": "USA",
        "motto": null,
        "rookie_year": 2007
    },
    {
        "website": "http://www.laspumas2197.org",
        "name": "IN-Tek IN-Kote/AEP/Qubit Networks&New Prairie High School",
        "locality": "New Carlisle",
        "nickname": "Las Pumas",
        "region": "Indiana",
        "team_number": 2197,
        "location": "New Carlisle, Indiana 46552, USA",
        "key": "frc2197",
        "country_name": "USA",
        "motto": "Sailing the FRC.",
        "rookie_year": 2007
    },
    {
        "website": "http://www.firstinspires.org/",
        "name": "TDSB /Ion Graphix/Rishav Sarma/Tommy Choy/Joyce Ma &  L'Amoreaux Collegiate Institute",
        "locality": "Toronto",
        "nickname": "Paradigm Shift",
        "region": "Ontario",
        "team_number": 2198,
        "location": "Toronto, Ontario M1W2K1, Canada",
        "key": "frc2198",
        "country_name": "Canada",
        "motto": "Believe in Miracles",
        "rookie_year": 2007
    },
    {
        "website": "http://www.robo-lions.org/",
        "name": "Booz Allen Hamilton/Leidos/Knorr Brake/Flowserve/Freedom Area Recreation Council/Constellation Energy & PIE3 & Liberty High & Winters Mill High & Sykesville Middle",
        "locality": "Sykesville",
        "nickname": "Robo-Lions",
        "region": "Maryland",
        "team_number": 2199,
        "location": "Sykesville, Maryland 21784, USA",
        "key": "frc2199",
        "country_name": "USA",
        "motto": null,
        "rookie_year": 2007
    },
    {
        "website": "http://www.mmrambotics.com",
        "name": "Arcelor Mittal Dofasco Hamilton / Almex Group / Halton District School Board / L3 Westcam & M.M. Robinson High School",
        "locality": "Burlington",
        "nickname": "MMRambotics",
        "region": "Ontario",
        "team_number": 2200,
        "location": "Burlington, Ontario L7P 3N9, Canada",
        "key": "frc2200",
        "country_name": "Canada",
        "motto": null,
        "rookie_year": 2007
    },
    {
        "website": "http://www.tgmtech.com/robotics",
        "name": "Ewing Marion Kauffman Foundation/AT&T/Cerner Corporation/KC Pro Jocks, LLC/PEARCE Construction/Peterson Manufacturing/Spidertel/Sports City & Touch of Grace Ministries",
        "locality": "Grandview",
        "nickname": "TGM",
        "region": "MO",
        "team_number": 2201,
        "location": "Grandview, MO, USA",
        "key": "frc2201",
        "country_name": "USA",
        "motto": null,
        "rookie_year": 2007
    },
    {
        "website": "http://www.beastrobotics.com",
        "name": "ABB Drives/Lockheed Martin/GE Volunteers/ESI | CBRE/Boyle-Frederickson/Milwaukee School of Engineering/Signicast/Trace-A-Matic/Milwaukee Tool/First Bank Financial Centre/Sentry Equipment/Generac/Abodo/D & H/Brookfield East High School/Brookfield Central High School&East High&Central High",
        "locality": "Brookfield",
        "nickname": "BEAST Robotics",
        "region": "Wisconsin",
        "team_number": 2202,
        "location": "Brookfield, Wisconsin 53005, USA",
        "key": "frc2202",
        "country_name": "USA",
        "motto": "FIRST Things First!",
        "rookie_year": 2007
    },
    {
        "website": "http://www.wix.com/pandamochofun/robotics  ",
        "name": "The Eagle Academy Foundation & The Eagle Academy for Young Men",
        "locality": "Bronx",
        "nickname": "Cyber-Eagles",
        "region": "NY",
        "team_number": 2203,
        "location": "Bronx, NY, USA",
        "key": "frc2203",
        "country_name": "USA",
        "motto": null,
        "rookie_year": 2007
    },
    {
        "website": "http://www.firstinspires.org/",
        "name": "Google/GSD Group, Inc./BAE Systems/World's Fare Donuts & California Crosspoint High School",
        "locality": "Hayward",
        "nickname": "Rambots",
        "region": "California",
        "team_number": 2204,
        "location": "Hayward, California 94545, USA",
        "key": "frc2204",
        "country_name": "USA",
        "motto": null,
        "rookie_year": 2007
    },
    {
        "website": null,
        "name": "The Montfort Academy",
        "locality": "Mount Vernon",
        "nickname": "Juggernauts",
        "region": "NY",
        "team_number": 2205,
        "location": "Mount Vernon, NY, USA",
        "key": "frc2205",
        "country_name": "USA",
        "motto": null,
        "rookie_year": null
    },
    {
        "website": null,
        "name": "New South Parking / I TT Technical Institute & John Ehret High School",
        "locality": "Marrero",
        "nickname": "Ehret Patriots",
        "region": "LA",
        "team_number": 2206,
        "location": "Marrero, LA, USA",
        "key": "frc2206",
        "country_name": "USA",
        "motto": null,
        "rookie_year": 2007
    },
    {
        "website": "http://www.whitebearlakerobotics.com",
        "name": "Medtronic Inc./PTC & White Bear South Campus Senior",
        "locality": "Saint Paul",
        "nickname": "Bright Bears",
        "region": "Minnesota",
        "team_number": 2207,
        "location": "Saint Paul, Minnesota 55110, USA",
        "key": "frc2207",
        "country_name": "USA",
        "motto": "Bright Students, Bright Ideas, Bright Futures",
        "rookie_year": 2007
    },
    {
        "website": "http://www.frc2208.tk",
        "name": "B.V.R Systems / FIRST Israel & Makif Daled High School",
        "locality": "Ashdod",
        "nickname": "Makif Dalet",
        "region": "D",
        "team_number": 2208,
        "location": "Ashdod, D, Israel",
        "key": "frc2208",
        "country_name": "Israel",
        "motto": null,
        "rookie_year": 2007
    },
    {
        "website": "http://www.b7rabin.org.il/portal/tabid/110/Default.aspx",
        "name": "Teva / FIRST Israel & Makif Rabin High School",
        "locality": "Beer Sheva",
        "nickname": "Rabin HS",
        "region": "D",
        "team_number": 2209,
        "location": "Beer Sheva, D, Israel",
        "key": "frc2209",
        "country_name": "Israel",
        "motto": null,
        "rookie_year": 2007
    },
    {
        "website": null,
        "name": "FIRST Israel & Yarka High School",
        "locality": "Yarka",
        "nickname": "Yarka High School",
        "region": "Z",
        "team_number": 2210,
        "location": "Yarka, Z, Israel",
        "key": "frc2210",
        "country_name": "Israel",
        "motto": null,
        "rookie_year": 2007
    },
    {
        "website": null,
        "name": "Israel Aircraft Industries & Ort Israel Aircraft Industries High School",
        "locality": "Lod",
        "nickname": "Ort IAI",
        "region": "M",
        "team_number": 2211,
        "location": "Lod, M, Israel",
        "key": "frc2211",
        "country_name": "Israel",
        "motto": null,
        "rookie_year": 2007
    },
    {
        "website": "http://spikes2212.com/",
        "name": "Motorola Solutions IL/Nesher/ELAL/Atid Lod High School&Atid Lod",
        "locality": "Lod",
        "nickname": "The Spikes",
        "region": "HaMerkaz (Central)",
        "team_number": 2212,
        "location": "Lod, HaMerkaz (Central) 71106, Israel",
        "key": "frc2212",
        "country_name": "Israel",
        "motto": "We will graciously and professionally spike you!",
        "rookie_year": 2007
    },
    {
        "website": "http://www.axiom2213.com/",
        "name": "RASHI fund/ROBOTEC/Nahariya Municipality/AMAL & Shehakim Nahariya High School",
        "locality": "Nahariya",
        "nickname": "AXIOM",
        "region": "HaZafon (Northern)",
        "team_number": 2213,
        "location": "Nahariya, HaZafon (Northern) 22103, Israel",
        "key": "frc2213",
        "country_name": "Israel",
        "motto": null,
        "rookie_year": 2007
    },
    {
        "website": "http://space.ort.org.il/dupelt",
        "name": "Israel Navy Ship Yard & Yemin Orde High School",
        "locality": "Yemin Orde",
        "nickname": "ASSIT",
        "region": "HA",
        "team_number": 2214,
        "location": "Yemin Orde, HA, Israel",
        "key": "frc2214",
        "country_name": "Israel",
        "motto": null,
        "rookie_year": 2007
    },
    {
        "website": null,
        "name": "Sacta Rashi Foundation & Ort Akko High School",
        "locality": "Akko",
        "nickname": "Akkoleon",
        "region": "Z",
        "team_number": 2215,
        "location": "Akko, Z, Israel",
        "key": "frc2215",
        "country_name": "Israel",
        "motto": null,
        "rookie_year": 2007
    },
    {
        "website": null,
        "name": "Sacta Rashi Foundation & zinman grop amal",
        "locality": "Dimona",
        "nickname": "robodim",
        "region": "HaDarom (Southern)",
        "team_number": 2216,
        "location": "Dimona, HaDarom (Southern), Israel",
        "key": "frc2216",
        "country_name": "Israel",
        "motto": null,
        "rookie_year": 2007
    },
    {
        "website": "http://2217.biztv.co.il",
        "name": "Paz Oil & Kiryat Motzkin High School",
        "locality": "Kiryat Motzkin",
        "nickname": "Kiryat Motzkin",
        "region": "Z",
        "team_number": 2217,
        "location": "Kiryat Motzkin, Z, Israel",
        "key": "frc2217",
        "country_name": "Israel",
        "motto": null,
        "rookie_year": 2007
    },
    {
        "website": "http://www.megahurts2219.com",
        "name": "The Boeing Company & Brehm Preparatory School, Inc.",
        "locality": "Carbondale",
        "nickname": "Megahurts",
        "region": "IL",
        "team_number": 2219,
        "location": "Carbondale, IL, USA",
        "key": "frc2219",
        "country_name": "USA",
        "motto": null,
        "rookie_year": 2007
    },
    {
        "website": "http://team2220.org",
        "name": "3M / Thomson Reuters / HBFuller / Ergotron / Xcel Energy / Lancet Software / Gopher Resource / Skyline Exhibits & Eagan Senior High",
        "locality": "Eagan",
        "nickname": "Blue Twilight ",
        "region": "Minnesota",
        "team_number": 2220,
        "location": "Eagan, Minnesota 55123-1575, USA",
        "key": "frc2220",
        "country_name": "USA",
        "motto": "Blue Twilight - Lighting Up Robotics...Lighting up the world!",
        "rookie_year": 2007
    },
    {
        "website": "http://2221.lafrc.org",
        "name": "RoboDawgs Booster Club/Bentley Software/DW Bryant Consulting, LLC/Floor It/Classy Hair & Wigs/Huntington Learning Center/Big Easy Comics, LLC./Pilant Court Reporting, LTD./Rabalias Unland Attorneys/Anne and Richard Authement/The Bosman Family/George Newton IV&Fontainebleau High School",
        "locality": "Mandeville ",
        "nickname": "FHS Robodawgs",
        "region": "Louisiana",
        "team_number": 2221,
        "location": "Mandeville , Louisiana 70471, USA",
        "key": "frc2221",
        "country_name": "USA",
        "motto": "\"Do What You're Great At\"",
        "rookie_year": 2007
    },
    {
        "website": null,
        "name": "Andrews Space Incorporated/Bezos Family Foundation & Lincoln High School",
        "locality": "Tacoma",
        "nickname": "Abes",
        "region": "WA",
        "team_number": 2222,
        "location": "Tacoma, WA, USA",
        "key": "frc2222",
        "country_name": "USA",
        "motto": null,
        "rookie_year": 2007
    },
    {
        "website": null,
        "name": "University of Pennsylvania School of Engineering and Applied Sciences & Mariana Bracetti Academy Charter High School",
        "locality": "Philadelphia",
        "nickname": "B-ROC",
        "region": "PA",
        "team_number": 2223,
        "location": "Philadelphia, PA, USA",
        "key": "frc2223",
        "country_name": "USA",
        "motto": null,
        "rookie_year": 2007
    },
    {
        "website": "http://www.firstinspires.org/",
        "name": "Johnson Controls Inc./Renaissance High School-Detroit Public Schools/FIRST in Michigan/MEZ- University of Michigan/Ford Motor Company  & Renaissance High School",
        "locality": "Detroit",
        "nickname": "RoboPhoenix",
        "region": "Michigan",
        "team_number": 2224,
        "location": "Detroit, Michigan 48235, USA",
        "key": "frc2224",
        "country_name": "USA",
        "motto": "#ornah",
        "rookie_year": 2007
    },
    {
        "website": "http://www.facebook.com/pages/RUST-Robots-Uniting-Students-Together/176671705704918",
        "name": "Caterpillar, Inc. / The Boeing Company & SECONDARY TECHNICAL EDUC. PROG. & CHAMPLIN PARK SENIOR HIGH",
        "locality": "Anoka",
        "nickname": "R.U.S.T",
        "region": "Minnesota",
        "team_number": 2225,
        "location": "Anoka, Minnesota 55303, USA",
        "key": "frc2225",
        "country_name": "USA",
        "motto": "We'll fix it in Post",
        "rookie_year": 2007
    },
    {
        "website": "http://sjh-www.sanjuanschools.org",
        "name": "NASA/Eagle Air Med/JM Welding/Recapture Metals/Energy Solutions & San Juan School District",
        "locality": "Blanding",
        "nickname": "Bronco's",
        "region": "UT",
        "team_number": 2226,
        "location": "Blanding, UT, USA",
        "key": "frc2226",
        "country_name": "USA",
        "motto": null,
        "rookie_year": 2007
    },
    {
        "website": "http://www.firstinspires.org/",
        "name": "Medtronic/Fridley High School & Fridley Senior High",
        "locality": "Fridley",
        "nickname": "Tigers",
        "region": "Minnesota",
        "team_number": 2227,
        "location": "Fridley, Minnesota 55432, USA",
        "key": "frc2227",
        "country_name": "USA",
        "motto": null,
        "rookie_year": 2007
    },
    {
        "website": "http://www.hflrobotics.com/",
        "name": "General Motors/Xerox&Honeoye Falls-Lima Senior High School&Rush-Henrietta Senior High School",
        "locality": "Honeoye Falls",
        "nickname": "CougarTech",
        "region": "New York",
        "team_number": 2228,
        "location": "Honeoye Falls, New York 14472, USA",
        "key": "frc2228",
        "country_name": "USA",
        "motto": "\u201cDrive it like you stole it.\u201d",
        "rookie_year": 2007
    },
    {
        "website": null,
        "name": "Colonial School District & Plymouth Whitemarsh High School",
        "locality": "Plymouth Meeting",
        "nickname": "ROBOSHOP",
        "region": "PA",
        "team_number": 2229,
        "location": "Plymouth Meeting, PA, USA",
        "key": "frc2229",
        "country_name": "USA",
        "motto": null,
        "rookie_year": 2007
    },
    {
        "website": "http://www.frc2230.com",
        "name": "General Motors/Herzliya Municipality & Handasaim Herzliya ",
        "locality": "Herzliya",
        "nickname": "General Angels",
        "region": "HaMerkaz (Central)",
        "team_number": 2230,
        "location": "Herzliya, HaMerkaz (Central) 46153, Israel",
        "key": "frc2230",
        "country_name": "Israel",
        "motto": "We do FIRST A2Z!",
        "rookie_year": 2007
    },
    {
        "website": "http://onyxtronix.cixx6.com/index.php?id=Welcome%20to%20Shoham%20High%20School,%20Team%202231\\\\\\'s%20official%20website!",
        "name": "Unitronics/Integrated Systems R.L Ltd/Motorola  solutions  /Extal/Shoham\u2019s City Council&SHOHAM",
        "locality": "Shoham",
        "nickname": "OnyxTronix",
        "region": "HaMerkaz (Central)",
        "team_number": 2231,
        "location": "Shoham, HaMerkaz (Central) 60850, Israel",
        "key": "frc2231",
        "country_name": "Israel",
        "motto": "Every member is a valuable member",
        "rookie_year": 2007
    },
    {
        "website": "http://frc2232.github.io/",
        "name": "Pentair, Inc./Solidworks/Federal Premium Ammunition/Life Fitness/Commercial Mechanical Maintenance/Anoka Kiwanis/Pearle Vision Elk River&Anoka Senior High",
        "locality": "Anoka",
        "nickname": "Deus ex Machina",
        "region": "Minnesota",
        "team_number": 2232,
        "location": "Anoka, Minnesota 55303, USA",
        "key": "frc2232",
        "country_name": "USA",
        "motto": null,
        "rookie_year": 2007
    },
    {
        "website": "http://www.firstinspires.org/",
        "name": "the Episcopal Academy",
        "locality": "Newtown Square",
        "nickname": "Alternating Current",
        "region": "Pennsylvania",
        "team_number": 2234,
        "location": "Newtown Square, Pennsylvania 19073, USA",
        "key": "frc2234",
        "country_name": "USA",
        "motto": "Esse Quam Videri",
        "rookie_year": 2007
    },
    {
        "website": null,
        "name": "Qualcomm/BAE Systems & Abraxas High School",
        "locality": "Poway",
        "nickname": "Abraxas Metal Heads",
        "region": "CA",
        "team_number": 2235,
        "location": "Poway, CA, USA",
        "key": "frc2235",
        "country_name": "USA",
        "motto": null,
        "rookie_year": 2007
    },
    {
        "website": "http://www.team2236.com",
        "name": "Colegio Genese High School",
        "locality": "Sao Paulo",
        "nickname": "Genese Team",
        "region": "SP",
        "team_number": 2236,
        "location": "Sao Paulo, SP, Brazil",
        "key": "frc2236",
        "country_name": "Brazil",
        "motto": null,
        "rookie_year": 2007
    },
    {
        "website": "http://www.team2237.org",
        "name": "Beckley Area Foundation / American Electric Power / Ralph A. Hiller Company / 80-20.net / Cogar Mine Supply / State Electric / Meadows Machining / Brea Signs / Precision Electric Inc. / ESI .INC / Kevin's Electronics & Academy of Careers and Technology",
        "locality": "Beckley",
        "nickname": "The Junkyard Robo's",
        "region": "WV",
        "team_number": 2237,
        "location": "Beckley, WV, USA",
        "key": "frc2237",
        "country_name": "USA",
        "motto": null,
        "rookie_year": 2007
    },
    {
        "website": "http://www.firstinspires.org/",
        "name": "Medtronic & 270 Hopkins Is",
        "locality": "Hopkins",
        "nickname": "Technocrats",
        "region": "Minnesota",
        "team_number": 2239,
        "location": "Hopkins, Minnesota 55305, USA",
        "key": "frc2239",
        "country_name": "USA",
        "motto": null,
        "rookie_year": 2007
    },
    {
        "website": "http://www.dsstrobotics.org",
        "name": "Mathnasium/Leidos/Comcast/Ball Aerospace & Technologies Corp./Lockheed Martin/F5 Networks & Denver School of Science and Technology",
        "locality": "Denver",
        "nickname": "Brute Force",
        "region": "Colorado",
        "team_number": 2240,
        "location": "Denver, Colorado 80238, USA",
        "key": "frc2240",
        "country_name": "USA",
        "motto": null,
        "rookie_year": 2007
    },
    {
        "website": null,
        "name": "BAE Systems & Coon Rapids High School",
        "locality": "Coon Rapids",
        "nickname": "SWAT team",
        "region": "MN",
        "team_number": 2241,
        "location": "Coon Rapids, MN, USA",
        "key": "frc2241",
        "country_name": "USA",
        "motto": null,
        "rookie_year": 2007
    },
    {
        "website": null,
        "name": "Tulane University & EDNA KARR SECONDARY SCHOOL",
        "locality": "New Orleans",
        "nickname": "Cyber Claw",
        "region": "Louisiana",
        "team_number": 2242,
        "location": "New Orleans, Louisiana, USA",
        "key": "frc2242",
        "country_name": "USA",
        "motto": null,
        "rookie_year": 2007
    },
    {
        "website": null,
        "name": "Funda\u00e7\u00e3o Bradesco Campinas Funda\u00e7\u00e3o Bradesco",
        "locality": "Campinas",
        "nickname": "BRATECC",
        "region": "SP",
        "team_number": 2243,
        "location": "Campinas, SP, Brazil",
        "key": "frc2243",
        "country_name": "Brazil",
        "motto": null,
        "rookie_year": 2007
    },
    {
        "website": "http://www.escolavirtual.org.br/frc/osasco",
        "name": "Funda\u00e7\u00e3o Bradesco Osasco I Funda\u00e7\u00e3o Bradesco",
        "locality": "Osasco",
        "nickname": "The Chips",
        "region": "SP",
        "team_number": 2244,
        "location": "Osasco, SP, Brazil",
        "key": "frc2244",
        "country_name": "Brazil",
        "motto": null,
        "rookie_year": 2007
    },
    {
        "website": "http://frankfort.k12.mi.us",
        "name": "Frankfort High School",
        "locality": "Frankfort",
        "nickname": "PANTHERS",
        "region": "MI",
        "team_number": 2245,
        "location": "Frankfort, MI, USA",
        "key": "frc2245",
        "country_name": "USA",
        "motto": null,
        "rookie_year": 2007
    },
    {
        "website": "http://firstarmyofsum.wix.com/home",
        "name": "Lewiston Lodge/Professional Foot & Ankle Associates/Treetops Resort/PIE&G&Johannesburg-Lewiston High School",
        "locality": "Johannesburg",
        "nickname": "The Army of Sum",
        "region": "Michigan",
        "team_number": 2246,
        "location": "Johannesburg, Michigan 49751, USA",
        "key": "frc2246",
        "country_name": "USA",
        "motto": "Whatever it takes!!",
        "rookie_year": 2007
    },
    {
        "website": "http://www.escolavirtual.org.br/frc/gravatai",
        "name": "Funda\u00e7\u00e3o Bradesco Gravata\u00ed Funda\u00e7\u00e3o Bradesco",
        "locality": "Gravata\u00ed",
        "nickname": "FB HT",
        "region": "RS",
        "team_number": 2247,
        "location": "Gravata\u00ed, RS, Brazil",
        "key": "frc2247",
        "country_name": "Brazil",
        "motto": null,
        "rookie_year": 2007
    },
    {
        "website": null,
        "name": "Pacific Steele / Apex Manufactoring Services Ltd & Billings West High School",
        "locality": "Billings",
        "nickname": "KISS",
        "region": "MT",
        "team_number": 2249,
        "location": "Billings, MT, USA",
        "key": "frc2249",
        "country_name": "USA",
        "motto": null,
        "rookie_year": 2007
    },
    {
        "website": "http://alhsrobotics.wikispaces.com",
        "name": "Lockheed Martin Space Systems Company & Abraham Lincoln High School",
        "locality": "Denver",
        "nickname": "Lancerbotics",
        "region": "CO",
        "team_number": 2250,
        "location": "Denver, CO, USA",
        "key": "frc2250",
        "country_name": "USA",
        "motto": null,
        "rookie_year": 2007
    },
    {
        "website": null,
        "name": "M.J. Murdock Charitable Trust/NASA & Bozeman High School",
        "locality": "Bozeman",
        "nickname": "Hawks",
        "region": "MT",
        "team_number": 2251,
        "location": "Bozeman, MT, USA",
        "key": "frc2251",
        "country_name": "USA",
        "motto": null,
        "rookie_year": 2007
    },
    {
        "website": "http://www.mavericks2252.net",
        "name": "NASA Plum Brook Station/Sierra Lobo, Inc./Bettcher Industries/Riley Contracting/Schlessman Seed Co. & Ehove Career Center",
        "locality": "Milan",
        "nickname": "The Mavericks",
        "region": "Ohio",
        "team_number": 2252,
        "location": "Milan, Ohio 44846, USA",
        "key": "frc2252",
        "country_name": "USA",
        "motto": "Engineering Was Never This Wild!",
        "rookie_year": 2007
    },
    {
        "website": "http://www.twistedtransistors.com",
        "name": "Nelvana / Atomic Energy Canada Ltd. / International Dairy & John Fraser Secondary High Schools",
        "locality": "Mississauga",
        "nickname": "Twisted Transistors",
        "region": "ON",
        "team_number": 2254,
        "location": "Mississauga, ON, Canada",
        "key": "frc2254",
        "country_name": "Canada",
        "motto": null,
        "rookie_year": 2007
    },
    {
        "website": null,
        "name": "Sacta Rashi Foundation & Afula High School",
        "locality": "Afula",
        "nickname": "Afula High School",
        "region": "Z",
        "team_number": 2257,
        "location": "Afula, Z, Israel",
        "key": "frc2257",
        "country_name": "Israel",
        "motto": null,
        "rookie_year": 2007
    },
    {
        "website": "http://www.firstinspires.org/",
        "name": "Medtronic & Fred N Thomas Career Education Center",
        "locality": "Denver",
        "nickname": "1/4 Twenties",
        "region": "Colorado",
        "team_number": 2259,
        "location": "Denver, Colorado 80211, USA",
        "key": "frc2259",
        "country_name": "USA",
        "motto": null,
        "rookie_year": 2007
    },
    {
        "website": null,
        "name": "Wheeler Foundation & Vail Christian High School",
        "locality": "Edwards",
        "nickname": "Transformers",
        "region": "CO",
        "team_number": 2260,
        "location": "Edwards, CO, USA",
        "key": "frc2260",
        "country_name": "USA",
        "motto": null,
        "rookie_year": 2007
    },
    {
        "website": "http://www.casarobotics.org",
        "name": "Ball Aerospace & Technologies Corp/Seagate Corp./IBM/Front Range Engineering&Casa de la Esperanza Learning Center",
        "locality": "Longmont",
        "nickname": "Casa Robotics",
        "region": "Colorado",
        "team_number": 2261,
        "location": "Longmont, Colorado 80501, USA",
        "key": "frc2261",
        "country_name": "USA",
        "motto": "\u00a1S\u00ed se puede!  (Yes, we can!)",
        "rookie_year": 2007
    },
    {
        "website": "http://www.firstinspires.org/",
        "name": "NASA/Mathworks/ABBESS/Harbor Freight/C SPACE&Holliston High",
        "locality": "Holliston",
        "nickname": "Robo-Panthers",
        "region": "Massachusetts",
        "team_number": 2262,
        "location": "Holliston, Massachusetts 01746, USA",
        "key": "frc2262",
        "country_name": "USA",
        "motto": "Quidquid potest errare, errabit.",
        "rookie_year": 2007
    },
    {
        "website": "http://www.team2264.com",
        "name": "Boston Scientific & Wayzata High",
        "locality": "Plymouth",
        "nickname": "Wayzata Robotics",
        "region": "Minnesota",
        "team_number": 2264,
        "location": "Plymouth, Minnesota 55446, USA",
        "key": "frc2264",
        "country_name": "USA",
        "motto": "Initiate. Innovate",
        "rookie_year": 2007
    },
    {
        "website": "http://www.femaidens.org",
        "name": "The Alumni Association of The Bronx High School  of Science/ConEdison/Bloomberg/Evernote/Solon E. Summerfield Foundation, Inc. & Bronx High School of Science",
        "locality": "Bronx",
        "nickname": "Fe Maidens",
        "region": "New York",
        "team_number": 2265,
        "location": "Bronx, New York 10468, USA",
        "key": "frc2265",
        "country_name": "USA",
        "motto": "Talk Nerdy To Us",
        "rookie_year": 2007
    },
    {
        "website": "http://www.sa1team.com.br",
        "name": "Col\u00e9gio Sacramentinas High School",
        "locality": "Salvador",
        "nickname": "Colegio Sacramentinas",
        "region": "BA",
        "team_number": 2266,
        "location": "Salvador, BA, Brazil",
        "key": "frc2266",
        "country_name": "Brazil",
        "motto": null,
        "rookie_year": 2007
    },
    {
        "website": null,
        "name": "Pepperell High School",
        "locality": "Lindale",
        "nickname": "Dragons",
        "region": "GA",
        "team_number": 2269,
        "location": "Lindale, GA, USA",
        "key": "frc2269",
        "country_name": "USA",
        "motto": null,
        "rookie_year": 2007
    },
    {
        "website": "http://groups.yahoo.com/group/conejorobotics",
        "name": "Amgen & La Reina High School & Thousand Oaks High School & Westlake High School",
        "locality": "Thousand Oaks",
        "nickname": "Metalheads",
        "region": "CA",
        "team_number": 2272,
        "location": "Thousand Oaks, CA, USA",
        "key": "frc2272",
        "country_name": "USA",
        "motto": null,
        "rookie_year": 2007
    },
    {
        "website": null,
        "name": "Honda Canada Inc. / Future Shop / Kodak Graphic Communications Canada Company & School District 36 Surrey",
        "locality": "Surrey",
        "nickname": "The Mechanix Coalition",
        "region": "BC",
        "team_number": 2273,
        "location": "Surrey, BC, Canada",
        "key": "frc2273",
        "country_name": "Canada",
        "motto": null,
        "rookie_year": 2007
    },
    {
        "website": null,
        "name": "Larry Ackman / Bloomberg / Credit Suisse & Fordham Leadership, Roosevelt Campus High School",
        "locality": "Bronx",
        "nickname": "Fuego",
        "region": "NY",
        "team_number": 2274,
        "location": "Bronx, NY, USA",
        "key": "frc2274",
        "country_name": "USA",
        "motto": null,
        "rookie_year": 2007
    },
    {
        "website": "http://bellobots2275.org",
        "name": "Lockheed Martin & Montbello High School",
        "locality": "Denver",
        "nickname": "Bello Bots",
        "region": "CO",
        "team_number": 2275,
        "location": "Denver, CO, USA",
        "key": "frc2275",
        "country_name": "USA",
        "motto": null,
        "rookie_year": 2007
    },
    {
        "website": "http://www.starsofcypress.webs.com",
        "name": "Houston Robotics/GE Oil & Gas/SASOL North America & Cypress Springs High School",
        "locality": "Cypress",
        "nickname": "STARS of Cypress",
        "region": "TX",
        "team_number": 2276,
        "location": "Cypress, TX, USA",
        "key": "frc2276",
        "country_name": "USA",
        "motto": null,
        "rookie_year": 2007
    },
    {
        "website": "http://www.avengingpluto.com",
        "name": "Universal Creative & Lake Highland Preparatory High School",
        "locality": "Orlando",
        "nickname": "AVENGING PLUTO",
        "region": "FL",
        "team_number": 2278,
        "location": "Orlando, FL, USA",
        "key": "frc2278",
        "country_name": "USA",
        "motto": null,
        "rookie_year": 2007
    },
    {
        "website": "http://Bcvt.tec.pa.us",
        "name": "Butler County Area Vo-Tech School",
        "locality": "Butler",
        "nickname": "The Butlers",
        "region": "PA",
        "team_number": 2279,
        "location": "Butler, PA, USA",
        "key": "frc2279",
        "country_name": "USA",
        "motto": null,
        "rookie_year": 2007
    },
    {
        "website": null,
        "name": "YWCA of Greater Pittsburgh",
        "locality": "Pittsburgh",
        "nickname": "YWCA DELTA F.O.R.C.E.",
        "region": "PA",
        "team_number": 2280,
        "location": "Pittsburgh, PA, USA",
        "key": "frc2280",
        "country_name": "USA",
        "motto": null,
        "rookie_year": 2007
    },
    {
        "website": "http://panteras.up.edu.mx/",
        "name": "General Motors Mexico/Centro Internacional de Exposiciones y Convenciones World Trade Center Mexico City/Telcel/National Instruments/Fundacion Azteca/ArtCenter/SIES/Asana/PTC/Google/Airbus/BrandYourself/Salesforce/RPL Racing/GoKart Mania&Universidad Panamericana High School",
        "locality": "Mexico City",
        "nickname": "Panteras",
        "region": "Distrito Federal",
        "team_number": 2283,
        "location": "Mexico City, Distrito Federal 01050, Mexico",
        "key": "frc2283",
        "country_name": "Mexico",
        "motto": "Coming together is the beginning, working together is the success!",
        "rookie_year": 2007
    },
    {
        "website": null,
        "name": "jcpenney & Irvington Blue Knights 4-H & 4H",
        "locality": "Irvington",
        "nickname": "Irvington Blue Knights 4-H",
        "region": "NJ",
        "team_number": 2285,
        "location": "Irvington, NJ, USA",
        "key": "frc2285",
        "country_name": "USA",
        "motto": null,
        "rookie_year": 2007
    },
    {
        "website": null,
        "name": "HOUSTON ROBOTICS / Bezos Foundation / AEP, Texas & Sinton High School",
        "locality": "Sinton",
        "nickname": "RoboTech Pirates",
        "region": "TX",
        "team_number": 2287,
        "location": "Sinton, TX, USA",
        "key": "frc2287",
        "country_name": "USA",
        "motto": null,
        "rookie_year": 2007
    },
    {
        "website": "http://www.jadamsmmp.com/robotics",
        "name": "AEP / Oklahoma State Department of Education / First National Bank of Fletcher / Shiflett Transport Service / J Adams Multimedia Productions & Fletcher High School",
        "locality": "Fletcher",
        "nickname": "F-Tech",
        "region": "OK",
        "team_number": 2330,
        "location": "Fletcher, OK, USA",
        "key": "frc2330",
        "country_name": "USA",
        "motto": null,
        "rookie_year": 2008
    },
    {
        "website": null,
        "name": "Oklahoma State Department of Education/Dr. Ray Booker & Fairview High School",
        "locality": "Fairview",
        "nickname": "Team Lucky",
        "region": "OK",
        "team_number": 2332,
        "location": "Fairview, OK, USA",
        "key": "frc2332",
        "country_name": "USA",
        "motto": null,
        "rookie_year": 2008
    },
    {
        "website": "http://sapulpachieftainrobotics.webs.com/",
        "name": "Bartlett Foundation / leidos engineering & Sapulpa Hs",
        "locality": "Sapulpa",
        "nickname": "S.C.R.E.E.C.H.",
        "region": "Oklahoma",
        "team_number": 2333,
        "location": "Sapulpa, Oklahoma 74066, USA",
        "key": "frc2333",
        "country_name": "USA",
        "motto": null,
        "rookie_year": 2008
    },
    {
        "website": "http://www.bvrobotics.com",
        "name": "Ewing Marion Kauffman Foundation/Garmin Int/Honeywell & Blue Valley School District Center For Advanced Professional Studies & Blue Valley High School",
        "locality": "Stilwell",
        "nickname": "Blue Valley CAPS Robotics",
        "region": "KS",
        "team_number": 2334,
        "location": "Stilwell, KS, USA",
        "key": "frc2334",
        "country_name": "USA",
        "motto": null,
        "rookie_year": 2008
    },
    {
        "website": "http://www.sargonrobotics.com",
        "name": "Shawnee Mission East High",
        "locality": "Prairie Village",
        "nickname": "Sargon",
        "region": "Kansas",
        "team_number": 2335,
        "location": "Prairie Village, Kansas 66208, USA",
        "key": "frc2335",
        "country_name": "USA",
        "motto": "Conquering through cooperation",
        "rookie_year": 2008
    },
    {
        "website": null,
        "name": "NASA & Cosby High School",
        "locality": "Midlothian",
        "nickname": "Titan Crusaders",
        "region": "VA",
        "team_number": 2336,
        "location": "Midlothian, VA, USA",
        "key": "frc2336",
        "country_name": "USA",
        "motto": null,
        "rookie_year": 2008
    },
    {
        "website": "http://www.team2337.com",
        "name": "General Motors / Premier Tooling Systems / The Chrysler Foundation / Davison Tool & Engineering, L.L.C. / Michigan Department of Education / UnyPOS Manufacturing / The Robot Space / Kettering University & Grand Blanc Community High School",
        "locality": "Grand Blanc",
        "nickname": "EngiNERDs",
        "region": "Michigan",
        "team_number": 2337,
        "location": "Grand Blanc, Michigan 48439, USA",
        "key": "frc2337",
        "country_name": "USA",
        "motto": "Inspire. Redefine. Design. Change.",
        "rookie_year": 2008
    },
    {
        "website": "http://www.oswegofirst.org",
        "name": "Caterpillar Inc. / Navistar International / School District 308 & Oswego High School & Oswego East High School",
        "locality": "Oswego",
        "nickname": "Gear It Forward",
        "region": "Illinois",
        "team_number": 2338,
        "location": "Oswego, Illinois 60543, USA",
        "key": "frc2338",
        "country_name": "USA",
        "motto": "Two Schools, One Team",
        "rookie_year": 2008
    },
    {
        "website": "http://www.wix.com/robolopes/robolopes",
        "name": "NASA/ITEA/MDM Architects/All Glass and Plastics/Lowe's & Antelope Valley High",
        "locality": "Lancaster",
        "nickname": "Robolopes",
        "region": "California",
        "team_number": 2339,
        "location": "Lancaster, California 93535, USA",
        "key": "frc2339",
        "country_name": "USA",
        "motto": "Scientia Super Omnia",
        "rookie_year": 2008
    },
    {
        "website": "http://www.team2340.org/",
        "name": "Xerox Corporation & OUR LADY OF MERCY HIGH SCHOOL",
        "locality": "Rochester",
        "nickname": "Xcentrics",
        "region": "New York",
        "team_number": 2340,
        "location": "Rochester, New York 14613, USA",
        "key": "frc2340",
        "country_name": "USA",
        "motto": "Inspire young women to go beyond the boundaries of today",
        "rookie_year": 2008
    },
    {
        "website": "http://sprocketsteam2341.weebly.com",
        "name": "The Boeing Company/Singletrack Integration/Enviro Systems Inc./HAAS Foundation/EGR Architectural Millworks/DOD STEM/Team Tinker - Tinker OC-ALC/Mills Machining, Inc.&Gordon Cooper Technology Center",
        "locality": "Shawnee",
        "nickname": "Sprockets",
        "region": "Oklahoma",
        "team_number": 2341,
        "location": "Shawnee, Oklahoma 74804, USA",
        "key": "frc2341",
        "country_name": "USA",
        "motto": "M.A.D. (Making a Difference)",
        "rookie_year": 2008
    },
    {
        "website": "http://team2342.org/",
        "name": "Southern New Hampshire University/BAE SYSTEMS/Intel/Greater Nashua FIRST Robotics, Inc./Kentico/Solidworks/amazon robotics/Raytheon/4-H/Analog Devices/BeyondTrust/EmbroidMe/Souheagan Valley Dental&Neighborhood Group",
        "locality": "Nashua",
        "nickname": "Team Phoenix",
        "region": "New Hampshire",
        "team_number": 2342,
        "location": "Nashua, New Hampshire 03064, USA",
        "key": "frc2342",
        "country_name": "USA",
        "motto": "Ex cinis cineris",
        "rookie_year": 2008
    },
    {
        "website": null,
        "name": "The Boeing Company/jcpenney & Inola High School",
        "locality": "Inola",
        "nickname": "Technohorns",
        "region": "OK",
        "team_number": 2343,
        "location": "Inola, OK, USA",
        "key": "frc2343",
        "country_name": "USA",
        "motto": null,
        "rookie_year": 2008
    },
    {
        "website": "http://www.saundersdroidfactory.com",
        "name": "Con Edison/Dott-Communications, LLC & Saunders Trades & Technical High School",
        "locality": "Yonkers",
        "nickname": "The Saunders Droid Factory ",
        "region": "New York",
        "team_number": 2344,
        "location": "Yonkers, New York 10701, USA",
        "key": "frc2344",
        "country_name": "USA",
        "motto": "Student Run, Student Done",
        "rookie_year": 2008
    },
    {
        "website": "http://www.firstinspires.org/",
        "name": "Kearney School Distrtict/OKStats/EPIC Electric/MAGNA LMV Automotive Systems/Cole Printing/Kearney Commercial Bank/Hampton Plumbing, INC./Platte-Clay Electric Cooperative/Variform by Ply Gem&Kearney High",
        "locality": "Kearney",
        "nickname": "Animal Control",
        "region": "Missouri",
        "team_number": 2345,
        "location": "Kearney, Missouri 64060, USA",
        "key": "frc2345",
        "country_name": "USA",
        "motto": null,
        "rookie_year": 2008
    },
    {
        "website": "https://sites.google.com/a/oharahs.org/ohara-celtechs/",
        "name": "Shuttlewagon / Kastle Grinding / Steve's Auto  / Hey Mechanical / Black and Veatch / Paradise Locker Meats / Lawler Gear / Orscheln / Vance Brothers / Unitech / Carter Creations / Burger & Brown / Serc Physical Therapy & Archbishop O' Hara High School",
        "locality": "Kansas City",
        "nickname": "Cel-Techs",
        "region": "Missouri",
        "team_number": 2346,
        "location": "Kansas City, Missouri 64138, USA",
        "key": "frc2346",
        "country_name": "USA",
        "motto": null,
        "rookie_year": 2008
    },
    {
        "website": "http://www.firstinspires.org/",
        "name": "School Construction Consultants Incorporated & WALTER G O'CONNELL COPIAGUE HIGH SCHOOL",
        "locality": "Copiague",
        "nickname": "Metal Mercs",
        "region": "New York",
        "team_number": 2347,
        "location": "Copiague, New York 11726, USA",
        "key": "frc2347",
        "country_name": "USA",
        "motto": "Mechanized Madness",
        "rookie_year": 2008
    },
    {
        "website": "http://mohs-robotics.k12.hi.us/",
        "name": "Friends of Hawaii Robotics & Moanalua High School",
        "locality": "Honolulu",
        "nickname": "Cool Geeks",
        "region": "Hawaii",
        "team_number": 2348,
        "location": "Honolulu, Hawaii 96818, USA",
        "key": "frc2348",
        "country_name": "USA",
        "motto": null,
        "rookie_year": 2008
    },
    {
        "website": null,
        "name": "Wayland Public Schools Foundation/jcpenney & Wayland High School",
        "locality": "Wayland",
        "nickname": "Hurriquake",
        "region": "MA",
        "team_number": 2349,
        "location": "Wayland, MA, USA",
        "key": "frc2349",
        "country_name": "USA",
        "motto": null,
        "rookie_year": 2008
    },
    {
        "website": null,
        "name": "America Electric Power Authority, Independence High school, Walnut Ridge High School, and Eastmoor Academy",
        "locality": "Columbus",
        "nickname": "Region 1 Robotics",
        "region": "OH",
        "team_number": 2350,
        "location": "Columbus, OH, USA",
        "key": "frc2350",
        "country_name": "USA",
        "motto": null,
        "rookie_year": 2008
    },
    {
        "website": "http://www.metalmayhem2352.com",
        "name": "the Chickasaw Nation Science, Technology and Math Academy",
        "locality": "Ada",
        "nickname": "Metal Mayhem",
        "region": "Oklahoma",
        "team_number": 2352,
        "location": "Ada, Oklahoma 74820, USA",
        "key": "frc2352",
        "country_name": "USA",
        "motto": "Mind Over Metal: Focus Determines Reality",
        "rookie_year": 2008
    },
    {
        "website": "http://phslegion2353.com",
        "name": "Honey Well & the Pembroke Hill School",
        "locality": "Kansas City",
        "nickname": "The Legion",
        "region": "Missouri",
        "team_number": 2353,
        "location": "Kansas City, Missouri 64112, USA",
        "key": "frc2353",
        "country_name": "USA",
        "motto": null,
        "rookie_year": 2008
    },
    {
        "website": "http://www.firstinspires.org/",
        "name": "Halliburton & Red river Technology Center",
        "locality": "Duncan",
        "nickname": "Red River Robotics",
        "region": "Oklahoma",
        "team_number": 2354,
        "location": "Duncan, Oklahoma 73534, USA",
        "key": "frc2354",
        "country_name": "USA",
        "motto": "Channeling Creativity",
        "rookie_year": 2008
    },
    {
        "website": "https://www.systemmeltdown.com/",
        "name": "All Systems Designed Solutions/Balance Point Heating and Cooling&Raymore-Peculiar Sr. High",
        "locality": "Peculiar",
        "nickname": "System Meltdown",
        "region": "Missouri",
        "team_number": 2357,
        "location": "Peculiar, Missouri 64078, USA",
        "key": "frc2357",
        "country_name": "USA",
        "motto": null,
        "rookie_year": 2008
    },
    {
        "website": "http://www.firstinspires.org/",
        "name": "Northrop Grumman / PTC / Designcraft Inc. / The Abbott Fund / Lake Zurich Bear Boosters / Gull Material Handling / The McAndrews Family / Milwaukee School of Engineering / Elenco / Mitsubishi Electric Automation / Avanade Inc. & Lake Zurich High School",
        "locality": "Lake Zurich",
        "nickname": "Bearbotics",
        "region": "Illinois",
        "team_number": 2358,
        "location": "Lake Zurich, Illinois 60047, USA",
        "key": "frc2358",
        "country_name": "USA",
        "motto": "Too much Bot for you to Bear",
        "rookie_year": 2008
    },
    {
        "website": "http://www.firstinspires.org/",
        "name": "Boeing / DOD STEM / Jasco Products / Kimray / Oklahoma Christian University & Santa Fe Hs",
        "locality": "Edmond",
        "nickname": "RoboLobos",
        "region": "Oklahoma",
        "team_number": 2359,
        "location": "Edmond, Oklahoma 73013, USA",
        "key": "frc2359",
        "country_name": "USA",
        "motto": null,
        "rookie_year": 2008
    },
    {
        "website": "http://www.facebook.com/Powerstormrobotics/?fref=ts",
        "name": "Rolls Royce Corporation/Water Jet Cutting of Indiana/Indianapolis Public Schools & Arsenal Technical High School",
        "locality": "Indianapolis",
        "nickname": "Tech Titan's POWER-Storm",
        "region": "Indiana",
        "team_number": 2360,
        "location": "Indianapolis, Indiana 46201, USA",
        "key": "frc2360",
        "country_name": "USA",
        "motto": null,
        "rookie_year": 2008
    },
    {
        "website": "http://www.pacerobotics.com",
        "name": "PACE Parents Association & P.A.C.E. Academy",
        "locality": "Richmond Hill",
        "nickname": "PACE Invaders",
        "region": "ON",
        "team_number": 2361,
        "location": "Richmond Hill, ON, Canada",
        "key": "frc2361",
        "country_name": "Canada",
        "motto": null,
        "rookie_year": 2008
    },
    {
        "website": "http://www.olympicrobotics.org",
        "name": "Charlotte Mechanical, LLC/General Dynamics Armament and Technical Products/Celgard, LLC/CPI Security Systems & School of Math, Engineering, Technology, and Science at Olympic High School",
        "locality": "Charlotte",
        "nickname": "Olympic Robotics",
        "region": "NC",
        "team_number": 2362,
        "location": "Charlotte, NC, USA",
        "key": "frc2362",
        "country_name": "USA",
        "motto": null,
        "rookie_year": 2008
    },
    {
        "website": "http://www.team2363.org",
        "name": "US Army Research Laboratory/NASA/The Boeing Company/Booz Allen Hamilton/DoD STEM/SPAWAR Systems Center Atlantic/SAIC/PTC/Q-Free Open Roads/YakAttack/Intentional Innovation Foundation & Intentional Innovation Foundation & Menchville High",
        "locality": "Newport News",
        "nickname": "Triple Helix",
        "region": "Virginia",
        "team_number": 2363,
        "location": "Newport News, Virginia 23602, USA",
        "key": "frc2363",
        "country_name": "USA",
        "motto": "It's in our genes!",
        "rookie_year": 2008
    },
    {
        "website": "http://www.oregonrobohawks.com",
        "name": "NASA/Exelon Nuclear-Byron Generating Station/Community Foundation of Northern Illinois & Oregon Community Unit School District #220",
        "locality": "Oregon",
        "nickname": "Oregon RoboHawks",
        "region": "IL",
        "team_number": 2364,
        "location": "Oregon, IL, USA",
        "key": "frc2364",
        "country_name": "USA",
        "motto": null,
        "rookie_year": 2008
    },
    {
        "website": null,
        "name": "Science Foundation Arizona & Alhambra High School",
        "locality": "Phoenix",
        "nickname": "Lions",
        "region": "AZ",
        "team_number": 2365,
        "location": "Phoenix, AZ, USA",
        "key": "frc2365",
        "country_name": "USA",
        "motto": null,
        "rookie_year": 2008
    },
    {
        "website": "http://www.teslarobotics.com",
        "name": "Heartland Fabrication & Machine / Black & Veatch / ATK (Alliant Techsystems) / Ewing Marion Kauffman Foundation & Fort Osage High School",
        "locality": "Independence",
        "nickname": "Tesla Robotics",
        "region": "MO",
        "team_number": 2366,
        "location": "Independence, MO, USA",
        "key": "frc2366",
        "country_name": "USA",
        "motto": null,
        "rookie_year": 2008
    },
    {
        "website": "http://www.sfhsrobotics.com/",
        "name": "Stellar Solutions Foundation/Solidworks/Google & St Francis High School",
        "locality": "Mountain View",
        "nickname": "Lancer Robotics",
        "region": "California",
        "team_number": 2367,
        "location": "Mountain View, California 94040, USA",
        "key": "frc2367",
        "country_name": "USA",
        "motto": null,
        "rookie_year": 2008
    },
    {
        "website": null,
        "name": "Duke Energy / Indiana Department of Workforce Development & Terre Haute South Vigo High School & Vigo County School Corporation",
        "locality": "Terre Haute",
        "nickname": "South Robotics",
        "region": "IN",
        "team_number": 2368,
        "location": "Terre Haute, IN, USA",
        "key": "frc2368",
        "country_name": "USA",
        "motto": null,
        "rookie_year": 2008
    },
    {
        "website": "http://www.team2369.com",
        "name": "Stillwater Breakfast Kiwanis & Meridian Technology Center",
        "locality": "Stillwater",
        "nickname": "Maximus Roboticus",
        "region": "OK",
        "team_number": 2369,
        "location": "Stillwater, OK, USA",
        "key": "frc2369",
        "country_name": "USA",
        "motto": null,
        "rookie_year": 2008
    },
    {
        "website": "http://2370.rutlandarearobotics.org",
        "name": "GE Aviation Volunteers/Alderman Chevrolet and Toyota/Timco Jewelers & Stafford Technical Center",
        "locality": "Rutland",
        "nickname": "IBOTs",
        "region": "Vermont",
        "team_number": 2370,
        "location": "Rutland, Vermont 05701, USA",
        "key": "frc2370",
        "country_name": "USA",
        "motto": "Intelligence Beyond Ordinary Teenage Students",
        "rookie_year": 2008
    },
    {
        "website": null,
        "name": "OSU-Okmulgee / NASA & Morris Public Schools",
        "locality": "Morris",
        "nickname": "Eagle Pride",
        "region": "OK",
        "team_number": 2371,
        "location": "Morris, OK, USA",
        "key": "frc2371",
        "country_name": "USA",
        "motto": null,
        "rookie_year": 2008
    },
    {
        "website": null,
        "name": "BAE SYSTEMS & Elgin High School",
        "locality": "Elgin",
        "nickname": "Robo-Hooters",
        "region": "OK",
        "team_number": 2372,
        "location": "Elgin, OK, USA",
        "key": "frc2372",
        "country_name": "USA",
        "motto": null,
        "rookie_year": 2008
    },
    {
        "website": "http://www.firstinspires.org/",
        "name": "National Defense Education Program/Team Tinker/Donald Kincy/Daniel Moore/Klassen Family&Caddo Kiowa Technology Center",
        "locality": "Fort Cobb",
        "nickname": "The Crickets",
        "region": "Oklahoma",
        "team_number": 2373,
        "location": "Fort Cobb, Oklahoma 73038, USA",
        "key": "frc2373",
        "country_name": "USA",
        "motto": "Theoretically.... this should work....theoretically",
        "rookie_year": 2008
    },
    {
        "website": "http://www.team2374.com",
        "name": "Mentor Graphics/Boeing & Jesuit High School",
        "locality": "Portland",
        "nickname": "Crusader Bots",
        "region": "Oregon",
        "team_number": 2374,
        "location": "Portland, Oregon 97225, USA",
        "key": "frc2374",
        "country_name": "USA",
        "motto": "A posse ad esse   \"from possibility to actuality\"",
        "rookie_year": 2008
    },
    {
        "website": "http://www.dragonrobotics2375.com",
        "name": "NRG/The Boeing Company/BAE Systems/Arizona Tax Payer/Orthotic Specialists/Microchip Technology, Inc./Freeport McMoran/United Technologies Corporation/APS/Airpark Signs & Graphics/American Metals Company/Copperstate Nut & Bolt&Phoenix Union Bioscience High School",
        "locality": "Phoenix",
        "nickname": "Dragon Robotics",
        "region": "Arizona",
        "team_number": 2375,
        "location": "Phoenix, Arizona 85004, USA",
        "key": "frc2375",
        "country_name": "USA",
        "motto": "\"What's a Weekend without Robotics?\"",
        "rookie_year": 2008
    },
    {
        "website": null,
        "name": "OSU-Tulsa / McElroy Manufacturing / Thermal Windows / BP / Othon Engineering / Calpine / Wells Fargo & Bishop Kelley High School",
        "locality": "Tulsa",
        "nickname": "RoboCOMETS",
        "region": "OK",
        "team_number": 2376,
        "location": "Tulsa, OK, USA",
        "key": "frc2376",
        "country_name": "USA",
        "motto": null,
        "rookie_year": 2008
    },
    {
        "website": "https://www.facebook.com/pages/FIRST-Robotics-Team-2377/1410647532563646?sk=info&tab=page_info",
        "name": "NASA-GSFC/DeWALT/AACPS Advanced Studies & Programs/Leidos/Product Support Inc/Red Alpha LLC/Residential Dumpster Service/Alliance Technology Group/TCOM LP/Fifer's Seafood/Stevens Battery Warehouse/St. John Properties/Calvert Veterinary Center/Pasadena Signs/UPS/Eleven Peppers/Maryland Science Center/Baltimore Museum of Industry/TowBoatUS/Atlantic Canvas&Chesapeake High",
        "locality": "Pasadena",
        "nickname": "C Company",
        "region": "Maryland",
        "team_number": 2377,
        "location": "Pasadena, Maryland 21122, USA",
        "key": "frc2377",
        "country_name": "USA",
        "motto": null,
        "rookie_year": 2008
    },
    {
        "website": null,
        "name": "NASA / Oklahoma State Department of Education / Western Medical & Drug / Dewey County Abstract / First American Bank / Horton Studios, Inc. / Edward Jones: Lowell Flaming / Wheeler Brothers' Grain & Taloga High School",
        "locality": "Taloga",
        "nickname": "Team Mako 2378",
        "region": "OK",
        "team_number": 2378,
        "location": "Taloga, OK, USA",
        "key": "frc2378",
        "country_name": "USA",
        "motto": null,
        "rookie_year": 2008
    },
    {
        "website": "http://www.jagrobotics.org",
        "name": "Science Foundation AZ / Employees of Microchip Technology Inc. / NSC / Tram Tek Inc / Real Eyes Media / Articulate / Harbinger Knowledge Products / Blatant Media / Rapid Intake / Motherboards and Upgrades / FedEx Kinkos 1379 / Di's Creative Edge & Desert Ridge High School",
        "locality": "Mesa",
        "nickname": "Jag Robotics",
        "region": "AZ",
        "team_number": 2380,
        "location": "Mesa, AZ, USA",
        "key": "frc2380",
        "country_name": "USA",
        "motto": null,
        "rookie_year": 2008
    },
    {
        "website": null,
        "name": "After School Matters and Motorola & The Ark of St. Sabina",
        "locality": "Chicago",
        "nickname": "The Ark",
        "region": "IL",
        "team_number": 2381,
        "location": "Chicago, IL, USA",
        "key": "frc2381",
        "country_name": "USA",
        "motto": null,
        "rookie_year": 2008
    },
    {
        "website": "http://www.firstinspires.org/",
        "name": "Argosy foundation / DoD Stem Tinker AFB / Oklahoma state department of education / Mueller Construction Company & Colbert Hs",
        "locality": "Colbert",
        "nickname": "The Leopard Legion",
        "region": "Oklahoma",
        "team_number": 2382,
        "location": "Colbert, Oklahoma 74733, USA",
        "key": "frc2382",
        "country_name": "USA",
        "motto": "\"Veni, vidi, vici\"",
        "rookie_year": 2008
    },
    {
        "website": "http://team2383.com/",
        "name": "American Heritage School/Partsmaster/Boca Bearing/ProcessMap/Maroon Equity/Winzer&American Heritage",
        "locality": "Plantation",
        "nickname": "Ninjineers",
        "region": "Florida",
        "team_number": 2383,
        "location": "Plantation, Florida 33325, USA",
        "key": "frc2383",
        "country_name": "USA",
        "motto": "Individually we engineer togetherness!",
        "rookie_year": 2008
    },
    {
        "website": null,
        "name": "Marco Mfg. Inc./NASA & Wright Christian Academy",
        "locality": "Tulsa",
        "nickname": "Obelisk Trio",
        "region": "OK",
        "team_number": 2385,
        "location": "Tulsa, OK, USA",
        "key": "frc2385",
        "country_name": "USA",
        "motto": null,
        "rookie_year": 2008
    },
    {
        "website": "https://www.bchrobotics.com",
        "name": "Arcelor Mittal Dofasco/BMP Metals/Pathways/Halton District School board/RBC/Hatch/AST/Halton Marine/Burlington Community Foundation/S.B. Simpson/Pure Facts Financial Solutions/Princess Auto&Burlington Central High School",
        "locality": "Burlington",
        "nickname": "Trojans",
        "region": "Ontario",
        "team_number": 2386,
        "location": "Burlington, Ontario L7S 1K4, Canada",
        "key": "frc2386",
        "country_name": "Canada",
        "motto": null,
        "rookie_year": 2008
    },
    {
        "website": null,
        "name": "Columbus City Schools & Columbus Alternative High School",
        "locality": "Columbus",
        "nickname": "Alternative Robotics",
        "region": "OH",
        "team_number": 2387,
        "location": "Columbus, OH, USA",
        "key": "frc2387",
        "country_name": "USA",
        "motto": null,
        "rookie_year": 2008
    },
    {
        "website": "http://www.firstinspires.org/",
        "name": "AEP-PSO/Oklahoma State Department of Education/DaVco Mechanical/Dale and Lee's Service/Herrington Foundation/Samson Resources/Kirk Foster/Green Country ShirtnSign/Exchange Bank/National Defense Education Program & Sperry Hs",
        "locality": "Sperry",
        "nickname": "Pirate Robotics",
        "region": "Oklahoma",
        "team_number": 2388,
        "location": "Sperry, Oklahoma 74073, USA",
        "key": "frc2388",
        "country_name": "USA",
        "motto": "We arrrrrrr Team 2388, home of Pirate Robotics! We do it without spilling blood!",
        "rookie_year": 2008
    },
    {
        "website": "http://okstorm.ctinteractive.com",
        "name": "Tinker AFB & Central Technology Center",
        "locality": "Drumright",
        "nickname": "Oklahoma STORM",
        "region": "OK",
        "team_number": 2389,
        "location": "Drumright, OK, USA",
        "key": "frc2389",
        "country_name": "USA",
        "motto": null,
        "rookie_year": 2008
    },
    {
        "website": null,
        "name": "Dougherty Valley High School",
        "locality": "San Ramon",
        "nickname": "Wildcats",
        "region": "CA",
        "team_number": 2390,
        "location": "San Ramon, CA, USA",
        "key": "frc2390",
        "country_name": "USA",
        "motto": null,
        "rookie_year": 2008
    },
    {
        "website": null,
        "name": "Boeing / AEP / Flight Safety / Tulsa Post SAME & Broken Arrow Senior High School",
        "locality": "Broken Arrow",
        "nickname": "Tiger Drive",
        "region": "OK",
        "team_number": 2391,
        "location": "Broken Arrow, OK, USA",
        "key": "frc2391",
        "country_name": "USA",
        "motto": null,
        "rookie_year": 2008
    },
    {
        "website": null,
        "name": "Batelle & columbus city schools",
        "locality": "Columbus",
        "nickname": "Pagwire",
        "region": "OH",
        "team_number": 2392,
        "location": "Columbus, OH, USA",
        "key": "frc2392",
        "country_name": "USA",
        "motto": null,
        "rookie_year": 2008
    },
    {
        "website": "http://www.knoxvillecatholic.com/parents-students/robotics-team/",
        "name": "ORNL/UT-Battelle/MDF/Denso/Dow/North Wind Group/Bertlekamp Automation Inc.&Knoxville Catholic High School",
        "locality": "Knoxville",
        "nickname": "Robotichauns",
        "region": "Tennessee",
        "team_number": 2393,
        "location": "Knoxville, Tennessee 37923, USA",
        "key": "frc2393",
        "country_name": "USA",
        "motto": "The Luck of the Irish",
        "rookie_year": 2008
    },
    {
        "website": null,
        "name": "Southwestern Oklahoma State University (SWOSU) & Watonga High School",
        "locality": "Watonga",
        "nickname": "Eagles",
        "region": "OK",
        "team_number": 2394,
        "location": "Watonga, OK, USA",
        "key": "frc2394",
        "country_name": "USA",
        "motto": null,
        "rookie_year": 2008
    },
    {
        "website": "http://www.okcrobot.com",
        "name": "The Boeing Company/National Defense Education Program/DoDStem/AAR Aircraft Services/CNI Aviation LLC/MIDCON Data Services, LLC/AT&T Pioneers,  Oklahoma City Life Member Club/New Beginning Fellowship Church&Oklahoma County 4-H",
        "locality": "Oklahoma City",
        "nickname": "OKC 4-H Robotics - Ninja Munkees",
        "region": "Oklahoma",
        "team_number": 2395,
        "location": "Oklahoma City, Oklahoma 73162, USA",
        "key": "frc2395",
        "country_name": "USA",
        "motto": "It can happen, with God's help.",
        "rookie_year": 2008
    },
    {
        "website": null,
        "name": "Innovative Products / Boeing / BKD, LLP CPA's and Advisors / MacArthur Associated Consultants, LLC & Canadian Valley Technology Center",
        "locality": "Yukon",
        "nickname": "SeeHawks",
        "region": "OK",
        "team_number": 2396,
        "location": "Yukon, OK, USA",
        "key": "frc2396",
        "country_name": "USA",
        "motto": null,
        "rookie_year": 2008
    },
    {
        "website": null,
        "name": "Science Foundation AZ & Phoenix Union Cyber High School",
        "locality": "Phoenix",
        "nickname": "Cyborgs",
        "region": "AZ",
        "team_number": 2397,
        "location": "Phoenix, AZ, USA",
        "key": "frc2397",
        "country_name": "USA",
        "motto": null,
        "rookie_year": 2008
    },
    {
        "website": "http://www.firstinspires.org/",
        "name": "The Boeing Company/Cherokee Nation & Sequoyah High School",
        "locality": "Tahlequah",
        "nickname": "Tech Walkers",
        "region": "Oklahoma",
        "team_number": 2398,
        "location": "Tahlequah, Oklahoma 74465, USA",
        "key": "frc2398",
        "country_name": "USA",
        "motto": "Leading Native Americans into the future through technology",
        "rookie_year": 2008
    },
    {
        "website": "http://www.team2399.org",
        "name": "Rockwell Automation / Slack Technologies / NASA Glenn Research Center Educational Programs Office / Case Western Reserve University & Hathaway Brown School",
        "locality": "Beachwood",
        "nickname": "The Fighting Unicorns",
        "region": "Ohio",
        "team_number": 2399,
        "location": "Beachwood, Ohio 44122, USA",
        "key": "frc2399",
        "country_name": "USA",
        "motto": "Bursting Into Flames From Sheer Excellence",
        "rookie_year": 2008
    },
    {
        "website": "http://www.scsd2.com/SheridanHigh.cfm?subpage=572845",
        "name": "NASA / Rio Tinto Energy America / Spring Creek Coal Mine / Pearl Development / Woming Space Grant Consortium / Anita Pinkham / LeRoy Family Dental Clinic / Powder River Power Company of Sheridan / Vista West Engineering / Connie's Glass / Knechts Ace Hardware / Craftco Metal Services Inc / Sheridan Winnelson / Sheridan Tent and Awning / King's Saddlery / ABC Signs / Bloedorn Lumber & Sheridan High School",
        "locality": "Sheridan",
        "nickname": "Wyoming!?",
        "region": "WY",
        "team_number": 2400,
        "location": "Sheridan, WY, USA",
        "key": "frc2400",
        "country_name": "USA",
        "motto": null,
        "rookie_year": 2008
    },
    {
        "website": null,
        "name": "nasa & north dakota space grant/hardware hank/fugleberg  seed and bean & May-Port C.G. High School",
        "locality": "MAYVILLE",
        "nickname": "PATRIOTS",
        "region": "ND",
        "team_number": 2401,
        "location": "MAYVILLE, ND, USA",
        "key": "frc2401",
        "country_name": "USA",
        "motto": null,
        "rookie_year": 2008
    },
    {
        "website": "http://www.robo-jackets.com",
        "name": "Booz Allen Hamilton / NDEP / Rappahannock Electric Cooperative / Scuba Shack / Papa Johns / Foley Family / Kobin Family / Johnston & O'Donnell Family / Tate Family & JAMES MONROE HIGH",
        "locality": "Fredericksburg",
        "nickname": "RoboJackets",
        "region": "Virginia",
        "team_number": 2402,
        "location": "Fredericksburg, Virginia, USA",
        "key": "frc2402",
        "country_name": "USA",
        "motto": null,
        "rookie_year": 2008
    },
    {
        "website": "http://www.plasmarobotics.com",
        "name": "General Dynamics/Bluemedia/SRP/MPS-CTE/The Boeing Company/Hunter Contracting/NXP Semiconductor/Arizona Diamondbacks&Red Mountain High School",
        "locality": "Mesa",
        "nickname": "Plasma Robotics",
        "region": "Arizona",
        "team_number": 2403,
        "location": "Mesa, Arizona 85207, USA",
        "key": "frc2403",
        "country_name": "USA",
        "motto": "Uniting purpose-driven students, creating the problem-solvers of tomorrow.",
        "rookie_year": 2008
    },
    {
        "website": "http://team2404.org/",
        "name": "NASA-JPL/Ontic BBA/Lockheed Martin&Neighbors Empowering Youth (NEY)",
        "locality": "Altadena",
        "nickname": "TNT",
        "region": "California",
        "team_number": 2404,
        "location": "Altadena, California 91001, USA",
        "key": "frc2404",
        "country_name": "USA",
        "motto": "Having a Blast with STEAM",
        "rookie_year": 2008
    },
    {
        "website": "http://www.Fruitportrobotics.com",
        "name": "Busche Group/Lee Manufacturing/Kaydon/Campbell Grinder/The Lions Club of Fruitport/Muskegon Community Foundation/State of Michigan/Walmart&Fruitport High School",
        "locality": "Fruitport",
        "nickname": "Techno Trojans",
        "region": "Michigan",
        "team_number": 2405,
        "location": "Fruitport, Michigan 49415, USA",
        "key": "frc2405",
        "country_name": "USA",
        "motto": "Divided by Zero...anything is possible",
        "rookie_year": 2008
    },
    {
        "website": null,
        "name": "Verde Valley Robotics, Inc. & Camp Verde Unified School District",
        "locality": "Camp Verde",
        "nickname": "CowDogs",
        "region": "AZ",
        "team_number": 2406,
        "location": "Camp Verde, AZ, USA",
        "key": "frc2406",
        "country_name": "USA",
        "motto": null,
        "rookie_year": 2008
    },
    {
        "website": "http://rcyders%40leetonia.k12.oh.us",
        "name": "BAE Systems & Leetonia Schools",
        "locality": "Leetonia",
        "nickname": "Roaring Bears",
        "region": "OH",
        "team_number": 2407,
        "location": "Leetonia, OH, USA",
        "key": "frc2407",
        "country_name": "USA",
        "motto": null,
        "rookie_year": 2008
    },
    {
        "website": "http://www.team2408.com",
        "name": "The Boeing Company/Monsanto Fund/Kennedy Fence/Ameren/United States Navy/Emerson&Hazelwood West High",
        "locality": "Hazelwood",
        "nickname": "Shrapnel Sergeants",
        "region": "Missouri",
        "team_number": 2408,
        "location": "Hazelwood, Missouri 63042, USA",
        "key": "frc2408",
        "country_name": "USA",
        "motto": "We came here to have fun",
        "rookie_year": 2008
    },
    {
        "website": null,
        "name": "NASA & Greater New Bedford Regional Voc-Tec High School",
        "locality": "New Bedford",
        "nickname": "Da Bears",
        "region": "MA",
        "team_number": 2409,
        "location": "New Bedford, MA, USA",
        "key": "frc2409",
        "country_name": "USA",
        "motto": null,
        "rookie_year": 2008
    },
    {
        "website": "http://www.mmr2410.com/",
        "name": "Blue Valley Educational Foundation/General Motors/Honeywell/Ryerson/Hantover&Blue Valley Center For Professional Studies",
        "locality": "Overland Park",
        "nickname": "Blue Valley CAPS Metal Mustang Robotics",
        "region": "Kansas",
        "team_number": 2410,
        "location": "Overland Park, Kansas 66223, USA",
        "key": "frc2410",
        "country_name": "USA",
        "motto": "Do what you love; love what you do. Work hard for others; they'll do that for yo",
        "rookie_year": 2008
    },
    {
        "website": "http://www.pps.k12.or.us/schools-c/pages/meek/metals/robotics.html",
        "name": "Boeing/Oregon Department of Edcation/Daimler & Alliance High School",
        "locality": "Portland",
        "nickname": "Rebel @lliance",
        "region": "Oregon",
        "team_number": 2411,
        "location": "Portland, Oregon 97211, USA",
        "key": "frc2411",
        "country_name": "USA",
        "motto": null,
        "rookie_year": 2008
    },
    {
        "website": "http://first.robototes.com",
        "name": "Microsoft/Intellectual Ventures/Bellevue Schools Foundation/SPEEA IFPTE Local 2001/Office of the Superintendent of Public Instruction/f5 Networks/Embry Riddle Aeronautical University/T-Mobile&Sammamish Senior High",
        "locality": "Bellevue",
        "nickname": "Robototes",
        "region": "Washington",
        "team_number": 2412,
        "location": "Bellevue, Washington 98005, USA",
        "key": "frc2412",
        "country_name": "USA",
        "motto": null,
        "rookie_year": 2008
    },
    {
        "website": null,
        "name": "Maryvale High School",
        "locality": "Phoenix",
        "nickname": "Panthers",
        "region": "AZ",
        "team_number": 2413,
        "location": "Phoenix, AZ, USA",
        "key": "frc2413",
        "country_name": "USA",
        "motto": null,
        "rookie_year": 2008
    },
    {
        "website": null,
        "name": "BAE Systems / Science Foundation AZ & Stardust Foundation & Camelback High School",
        "locality": "Phoenix",
        "nickname": "Spartans",
        "region": "AZ",
        "team_number": 2414,
        "location": "Phoenix, AZ, USA",
        "key": "frc2414",
        "country_name": "USA",
        "motto": null,
        "rookie_year": 2008
    },
    {
        "website": "http://www.wiredcats.org",
        "name": "Underwriters Laboratories/Greenguard/Air Quality Sciences/CAMaster/KGMade Welding and Fabrication/Unboundary & the Westminster Schools",
        "locality": "Atlanta",
        "nickname": "WiredCats",
        "region": "Georgia",
        "team_number": 2415,
        "location": "Atlanta, Georgia 30327, USA",
        "key": "frc2415",
        "country_name": "USA",
        "motto": "Engage. Support. Empower.",
        "rookie_year": 2008
    },
    {
        "website": null,
        "name": "Mitchell's Restaurant / The Tobacco Commission / US FIRST & Nottoway High School",
        "locality": "Crewe",
        "nickname": "RoboCougars",
        "region": "VA",
        "team_number": 2417,
        "location": "Crewe, VA, USA",
        "key": "frc2417",
        "country_name": "USA",
        "motto": null,
        "rookie_year": 2008
    },
    {
        "website": "http://s2.webstarts.com/northernlightsrobotics",
        "name": "Boeing/University of North Dakota & Northern Lights Council-Boy Scouts",
        "locality": "Minot",
        "nickname": "tomahawks",
        "region": "ND",
        "team_number": 2418,
        "location": "Minot, ND, USA",
        "key": "frc2418",
        "country_name": "USA",
        "motto": null,
        "rookie_year": 2008
    },
    {
        "website": "http://teammonrobot.com",
        "name": "Action Mold & Tool / Test-Tek / Southland Painting & Wallcovering & Brea Olinda Unified School District & Brea Olinda High School",
        "locality": "Brea",
        "nickname": "Team MonRobot",
        "region": "CA",
        "team_number": 2419,
        "location": "Brea, CA, USA",
        "key": "frc2419",
        "country_name": "USA",
        "motto": null,
        "rookie_year": 2008
    },
    {
        "website": null,
        "name": "Sentrinsic/Georgia Tech RoboJackets & Tech High School",
        "locality": "Atlanta",
        "nickname": "RoboTitans",
        "region": "GA",
        "team_number": 2420,
        "location": "Atlanta, GA, USA",
        "key": "frc2420",
        "country_name": "USA",
        "motto": null,
        "rookie_year": 2008
    },
    {
        "website": "http://www.firstinspires.org/",
        "name": "NASA/Rappaport Management Company/The Boeing Company/Federal Acquisitions Strategies, LLC/BAE Systems, Inc./Air Force Officers' Spouses Club & Home School",
        "locality": "Burke",
        "nickname": "RTR Team Robotics",
        "region": "Virginia",
        "team_number": 2421,
        "location": "Burke, Virginia 22015, USA",
        "key": "frc2421",
        "country_name": "USA",
        "motto": null,
        "rookie_year": 2008
    },
    {
        "website": "http://www.bucket-o-bolts.com",
        "name": "NASA/Walt Disney World Company & Ridge Community High School",
        "locality": "Davenport",
        "nickname": "Bucket O' Bolts",
        "region": "FL",
        "team_number": 2422,
        "location": "Davenport, FL, USA",
        "key": "frc2422",
        "country_name": "USA",
        "motto": null,
        "rookie_year": 2008
    },
    {
        "website": "http://www.team2423.org",
        "name": "Watertown Savings Bank/Hitachi Consulting/Olympus/Gartaganis Brothers, Inc./Watertown Community Foundation/Pini's Pizzeria&Watertown High",
        "locality": "Watertown",
        "nickname": "The KwarQs",
        "region": "Massachusetts",
        "team_number": 2423,
        "location": "Watertown, Massachusetts 02472, USA",
        "key": "frc2423",
        "country_name": "USA",
        "motto": null,
        "rookie_year": 2008
    },
    {
        "website": "http://bixbyrobotics.org/index.php?module=Page&page=webaward10",
        "name": "AEP   PSO/Argosy Foundation/DoD STEM/FIRST&Bixby Hs",
        "locality": "Bixby",
        "nickname": "Robot Mafia",
        "region": "Oklahoma",
        "team_number": 2424,
        "location": "Bixby, Oklahoma 74008, USA",
        "key": "frc2424",
        "country_name": "USA",
        "motto": "The team you don't want to meet in a dark alley.",
        "rookie_year": 2008
    },
    {
        "website": "http://hydrarobotics.com",
        "name": "Hillsborough High School/NASA/Foundation for Community Driven Innovation/Midwest Industrial Rubber, Inc.&Hillsborough High School",
        "locality": "Tampa",
        "nickname": "Hydra ",
        "region": "Florida",
        "team_number": 2425,
        "location": "Tampa, Florida 33603, USA",
        "key": "frc2425",
        "country_name": "USA",
        "motto": "THREE heads are better than ONE!",
        "rookie_year": 2008
    },
    {
        "website": null,
        "name": "THALES Canada / Genome Quebec / McGill University & Marianopolis College",
        "locality": "Westmount",
        "nickname": "Techno Beavers",
        "region": "QC",
        "team_number": 2427,
        "location": "Westmount, QC, Canada",
        "key": "frc2427",
        "country_name": "Canada",
        "motto": null,
        "rookie_year": 2008
    },
    {
        "website": null,
        "name": "jcpenney/Robert Morris University & Sewickley Academy",
        "locality": "Sewickley",
        "nickname": "Panthers",
        "region": "PA",
        "team_number": 2428,
        "location": "Sewickley, PA, USA",
        "key": "frc2428",
        "country_name": "USA",
        "motto": null,
        "rookie_year": 2008
    },
    {
        "website": "http://www.lcec.us",
        "name": "NASA/Spartan Boosters/Industrial Metal Supply/Jet Propulsion Lab/Girl Scouts of Greater Los Angeles&La Canada High",
        "locality": "La Canada Flintridge",
        "nickname": "La Canada Engineerng Cub",
        "region": "California",
        "team_number": 2429,
        "location": "La Canada Flintridge, California 91011, USA",
        "key": "frc2429",
        "country_name": "USA",
        "motto": "Mind Over Metal",
        "rookie_year": 2008
    },
    {
        "website": "http://www.gripus.org",
        "name": "FujiFilm Inc./Capsugel/Aaron Industries, In/JCPenney Afterschool Fund/Partnership Alliance/Piedmont Technical College & GRIP (Greenwood Robotics Interactive Partners)",
        "locality": "Greenwood",
        "nickname": "CyberStorm",
        "region": "SC",
        "team_number": 2430,
        "location": "Greenwood, SC, USA",
        "key": "frc2430",
        "country_name": "USA",
        "motto": null,
        "rookie_year": 2008
    },
    {
        "website": null,
        "name": "BAE Systems/Ford Motor & Detroit Northwestern HS and STEM",
        "locality": "Detroit",
        "nickname": "TechnoColts",
        "region": "MI",
        "team_number": 2431,
        "location": "Detroit, MI, USA",
        "key": "frc2431",
        "country_name": "USA",
        "motto": null,
        "rookie_year": 2008
    },
    {
        "website": null,
        "name": "The Boeing Company/SRT & Hales Franciscan High School",
        "locality": "Chicago",
        "nickname": "RoboSpartans",
        "region": "IL",
        "team_number": 2432,
        "location": "Chicago, IL, USA",
        "key": "frc2432",
        "country_name": "USA",
        "motto": null,
        "rookie_year": 2008
    },
    {
        "website": null,
        "name": "After School Matters and Motorola & Austin Polytech Academy High School",
        "locality": "Chicago",
        "nickname": "Tech Tigers",
        "region": "IL",
        "team_number": 2433,
        "location": "Chicago, IL, USA",
        "key": "frc2433",
        "country_name": "USA",
        "motto": null,
        "rookie_year": 2008
    },
    {
        "website": null,
        "name": "Hopewell Public Schools/Blue Print Automation & Hopewell High School",
        "locality": "Hopewell",
        "nickname": "Blue Devils Gear Heads",
        "region": "VA",
        "team_number": 2434,
        "location": "Hopewell, VA, USA",
        "key": "frc2434",
        "country_name": "USA",
        "motto": null,
        "rookie_year": 2008
    },
    {
        "website": "http://www.team2435.org",
        "name": "NASA / CGI Federal / Lockheed Martin / The Goodyear Tire & Rubber Company / AEP-PSO / Great Plains Technology Center Foundation & Great Plains Technology Center",
        "locality": "Lawton",
        "nickname": "Soldiers of Technology",
        "region": "OK",
        "team_number": 2435,
        "location": "Lawton, OK, USA",
        "key": "frc2435",
        "country_name": "USA",
        "motto": null,
        "rookie_year": 2008
    },
    {
        "website": null,
        "name": "Noble Hardware / Country Wide Realty / Noble First State Bank / MSC Industrial Supply Co / Oklahoma State Department of Education & Noble Public Schools",
        "locality": "Noble",
        "nickname": "Bearacudas",
        "region": "OK",
        "team_number": 2436,
        "location": "Noble, OK, USA",
        "key": "frc2436",
        "country_name": "USA",
        "motto": null,
        "rookie_year": 2008
    },
    {
        "website": "http://www.lancerrobotics.org/",
        "name": "SPAWAR/BAE SYSTEMS/FRIENDS OF HAWAII ROBOTICS/BRIAN CHOCK/HECO/HONOLULU ZONTA CLUB/JEFF WHITE CFP & COMPANY/PTC/DEVIN ALFORD & M'LISS MOORE/MIT/ZERO ROBOTICS MIT/NANCY ROCHELEAU/RAECHEL KULA/ONR/AUTODESK/BOOZ ALLEN HAMILTON & SACRED HEARTS ACADEMY",
        "locality": "Honolulu",
        "nickname": "Lancer Robotics",
        "region": "Hawaii",
        "team_number": 2437,
        "location": "Honolulu, Hawaii 96816, USA",
        "key": "frc2437",
        "country_name": "USA",
        "motto": "Never under estimate the power of girls in large groups",
        "rookie_year": 2008
    },
    {
        "website": "http://iolani.honolulu.hi.us/robotics/web11/",
        "name": "BAE SYSTEMS/DATAHOUSE & IOLANI SCHOOL",
        "locality": "Honolulu",
        "nickname": "'Iobotics",
        "region": "Hawaii",
        "team_number": 2438,
        "location": "Honolulu, Hawaii 96826, USA",
        "key": "frc2438",
        "country_name": "USA",
        "motto": null,
        "rookie_year": 2008
    },
    {
        "website": "http://www.baldwinrobotics.com/",
        "name": "The Boeing Company/MEDB Ke Alahele Education Fund/Robotics Organizing Committee-Friends of Hawaii Robotics/Maui Electric Co., Ltd./Warren S. Unemori Engineering/Monsanto Fund/BAE Systems/Aloha Shell/Textron Systems/FedEx/Pono Communications/Maui Zipline/Alaka'ina Foundation/AFCEA Hawaii/McDonald's & Henry Perrine Baldwin High School",
        "locality": "Wailuku",
        "nickname": "Bearbotics",
        "region": "Hawaii",
        "team_number": 2439,
        "location": "Wailuku, Hawaii 96793, USA",
        "key": "frc2439",
        "country_name": "USA",
        "motto": "laulima  (many hands)",
        "rookie_year": 2008
    },
    {
        "website": null,
        "name": "NASA & St. Louis High School High School",
        "locality": "Honolulu",
        "nickname": "Saints",
        "region": "HI",
        "team_number": 2440,
        "location": "Honolulu, HI, USA",
        "key": "frc2440",
        "country_name": "USA",
        "motto": null,
        "rookie_year": 2008
    },
    {
        "website": "http://www.maryknollrobotics.org/",
        "name": "Maryknoll School",
        "locality": "Honolulu",
        "nickname": "Spartechs",
        "region": "Hawaii",
        "team_number": 2441,
        "location": "Honolulu, Hawaii 96822, USA",
        "key": "frc2441",
        "country_name": "USA",
        "motto": "Noblesse Oblige",
        "rookie_year": 2008
    },
    {
        "website": "http://mauihs.k12.hi.us/robotics/",
        "name": "Maui Economic and Development Board (MEDB)/BAE Systems/Friends of Hawaii Robotics/Boeing Company/Maui Electric Company/Hawaii Space Grant Consortium/McDonalds of Hawaii/Maui High School Foundation & Maui High School",
        "locality": "Kahului",
        "nickname": "Blue Thunder",
        "region": "Hawaii",
        "team_number": 2443,
        "location": "Kahului, Hawaii 96732, USA",
        "key": "frc2443",
        "country_name": "USA",
        "motto": "Build your character. Program the mind. Document life.",
        "rookie_year": 2008
    },
    {
        "website": null,
        "name": "Kamehameha Schools Kapalama Campus",
        "locality": "Honolulu",
        "nickname": "Kamehameha RoboWarriors",
        "region": "Hawaii",
        "team_number": 2444,
        "location": "Honolulu, Hawaii 96817, USA",
        "key": "frc2444",
        "country_name": "USA",
        "motto": "Imua !",
        "rookie_year": 2008
    },
    {
        "website": "http://www.kapoleirobotics.com",
        "name": "BAE SYSTEMS / Chevron / Structural Solutions / Hawaii State Department of Education Learning Centers Program / Robotics Organizing Committee & Friends of Hawaii Robotics / Territorial Savings Bank / James and Abigail Campbell Family Foundation / National Defense Education Program / Niro Electrical / Grab CAD / McDonalds of Hawaii / Booz Allen Hamilton / HEI & Kapolei High School",
        "locality": "Kapolei",
        "nickname": "RoboKAP",
        "region": "Hawaii",
        "team_number": 2445,
        "location": "Kapolei, Hawaii 96707, USA",
        "key": "frc2445",
        "country_name": "USA",
        "motto": "\"The whole is greater than the sum of its parts\" -Aristotle",
        "rookie_year": 2008
    },
    {
        "website": null,
        "name": "Foothill High School",
        "locality": "Pleasanton",
        "nickname": "Pleasanton Slingshots",
        "region": "CA",
        "team_number": 2446,
        "location": "Pleasanton, CA, USA",
        "key": "frc2446",
        "country_name": "USA",
        "motto": null,
        "rookie_year": 2008
    },
    {
        "website": "http://www.ssvotech.org/Robotics..shtml",
        "name": "Phoenix Masonic Lodge & South Shore Vo-Tech High School",
        "locality": "Hanover",
        "nickname": "Vikes",
        "region": "MA",
        "team_number": 2447,
        "location": "Hanover, MA, USA",
        "key": "frc2447",
        "country_name": "USA",
        "motto": null,
        "rookie_year": 2008
    },
    {
        "website": null,
        "name": "Stephen Lawrence Trust high school",
        "locality": "London",
        "nickname": "SLT",
        "region": "ENG",
        "team_number": 2448,
        "location": "London, ENG, Kingdom",
        "key": "frc2448",
        "country_name": "Kingdom",
        "motto": null,
        "rookie_year": 2008
    },
    {
        "website": "http://www.team2449.org",
        "name": "Orbital ATK/Industrial Metal Supply/Copperstate Bolt & Nut/Port Plastics/Southwest Safety Consulting/Southwest WaterJet & Laser/Einstein Bagels/2017 FRC\u00ae Hardship Grant & Team 2449",
        "locality": "Chandler",
        "nickname": "Out of Orbit Robotics",
        "region": "Arizona",
        "team_number": 2449,
        "location": "Chandler, Arizona 85248, USA",
        "key": "frc2449",
        "country_name": "USA",
        "motto": "This is the path to success!",
        "rookie_year": 2008
    },
    {
        "website": "http://team2450.org",
        "name": "Cretin Derham Hall",
        "locality": "St. Paul",
        "nickname": "Raiderbots",
        "region": "Minnesota",
        "team_number": 2450,
        "location": "St. Paul, Minnesota 55116, USA",
        "key": "frc2450",
        "country_name": "USA",
        "motto": null,
        "rookie_year": 2008
    },
    {
        "website": "http://Pwnagerobotics.com",
        "name": "Genesis Automation/Ace Metal Crafts&Neighborhood Group",
        "locality": "Saint Charles",
        "nickname": "PWNAGE",
        "region": "Illinois",
        "team_number": 2451,
        "location": "Saint Charles, Illinois 60174, USA",
        "key": "frc2451",
        "country_name": "USA",
        "motto": "Inspiring Youth through STEM",
        "rookie_year": 2008
    },
    {
        "website": "http://www.hbaroboticsclub.com",
        "name": "Spirent Communications & Hawaii Baptist Academy High School",
        "locality": "Honolulu",
        "nickname": "Soaring Eagles",
        "region": "HI",
        "team_number": 2453,
        "location": "Honolulu, HI, USA",
        "key": "frc2453",
        "country_name": "USA",
        "motto": null,
        "rookie_year": 2008
    },
    {
        "website": "http://www2.k12.hi.us/~radfordrobotics",
        "name": "BAE SYSTEMS/NASA & Radford High School",
        "locality": "Honolulu",
        "nickname": "Rambotx",
        "region": "HI",
        "team_number": 2454,
        "location": "Honolulu, HI, USA",
        "key": "frc2454",
        "country_name": "USA",
        "motto": null,
        "rookie_year": 2008
    },
    {
        "website": null,
        "name": "BAE/Joint Astronomy Centre/TATA Built Technology/Echrays/W.M. Keck Observatory & Honoka'a High School",
        "locality": "Honoka'a",
        "nickname": "HRC 2455",
        "region": "HI",
        "team_number": 2455,
        "location": "Honoka'a, HI, USA",
        "key": "frc2455",
        "country_name": "USA",
        "motto": null,
        "rookie_year": 2008
    },
    {
        "website": "http://www.marinrobotics.com",
        "name": "NASA / Autodesk & Marin Robotics & Tamalpais Alumni Association",
        "locality": "San Rafael",
        "nickname": "Team Recycle It!",
        "region": "CA",
        "team_number": 2456,
        "location": "San Rafael, CA, USA",
        "key": "frc2456",
        "country_name": "USA",
        "motto": null,
        "rookie_year": 2008
    },
    {
        "website": "http://thelaw2457.org/",
        "name": "Black & Veatch/U.S. Engineering Company/Ross Mechanical, Inc/Lockton/Coveris/Sponsor Rotary Club/Pizza Ranch/Lawson Memorial VFW 6278/XI MU BETA/Goppert Financial Bank/Morrow and Sons Lumber&Lawson High",
        "locality": "Lawson",
        "nickname": "The Law",
        "region": "Missouri",
        "team_number": 2457,
        "location": "Lawson, Missouri 64062, USA",
        "key": "frc2457",
        "country_name": "USA",
        "motto": "Problems, the pathways to perfection!!!",
        "rookie_year": 2008
    },
    {
        "website": "http://www.chaos2458.com",
        "name": "Gill St Bernard S School",
        "locality": "Gladstone",
        "nickname": "Team Chaos",
        "region": "New Jersey",
        "team_number": 2458,
        "location": "Gladstone, New Jersey 07934, USA",
        "key": "frc2458",
        "country_name": "USA",
        "motto": "Roboticum mundus est",
        "rookie_year": 2008
    },
    {
        "website": null,
        "name": "NASA/BAE Systems/UH School of Engineeing/Nanakuli PTSA/Coast Crane Company & NANAKULI HIGH & INTERMEDIATE SCHOOL",
        "locality": "Waianae",
        "nickname": "Golden Hawks",
        "region": "Hawaii",
        "team_number": 2459,
        "location": "Waianae, Hawaii, USA",
        "key": "frc2459",
        "country_name": "USA",
        "motto": null,
        "rookie_year": 2008
    },
    {
        "website": "http://www.kohalarobotics.com",
        "name": "BAE SYSTEMS INC. / Friends of Robotics-Hawaii / College of Engineering, University of Hawaii / Lockheed / North Kohala Community Resource Center(NKCRC) / CruiseHawaii / Lio Lapa'au,LLC / Hisaoka Ohana / Lamination House & Kohala High School",
        "locality": "Kapaau",
        "nickname": "Na Paniolo",
        "region": "HI",
        "team_number": 2460,
        "location": "Kapaau, HI, USA",
        "key": "frc2460",
        "country_name": "USA",
        "motto": null,
        "rookie_year": 2008
    },
    {
        "website": "http://metalskinschhs.weebly.com/",
        "name": "Dell, Inc / Tinker AFB & Capitol Hill Hs",
        "locality": "Oklahoma City",
        "nickname": "METAL-SKINS",
        "region": "Oklahoma",
        "team_number": 2461,
        "location": "Oklahoma City, Oklahoma 73109, USA",
        "key": "frc2461",
        "country_name": "USA",
        "motto": "If we build it, we can improve it!",
        "rookie_year": 2008
    },
    {
        "website": null,
        "name": "The Boeing Company/Innovative Global Technologies LLC. & Chicago Education Enrichment Network",
        "locality": "CHICAGO",
        "nickname": "Digi Bots",
        "region": "IL",
        "team_number": 2462,
        "location": "CHICAGO, IL, USA",
        "key": "frc2462",
        "country_name": "USA",
        "motto": null,
        "rookie_year": null
    },
    {
        "website": "http://www.thesiege.dyndns.org",
        "name": "Tripple Strange & North Davidson High School & Davidson County Academy of pre Engineering",
        "locality": "Lexington",
        "nickname": "The Siege",
        "region": "NC",
        "team_number": 2463,
        "location": "Lexington, NC, USA",
        "key": "frc2463",
        "country_name": "USA",
        "motto": null,
        "rookie_year": 2008
    },
    {
        "website": null,
        "name": "NASA & Pahrump Valley High School",
        "locality": "Pahrump",
        "nickname": "Trojans",
        "region": "NV",
        "team_number": 2464,
        "location": "Pahrump, NV, USA",
        "key": "frc2464",
        "country_name": "USA",
        "motto": null,
        "rookie_year": 2008
    },
    {
        "website": "http://www.kauaibots.com",
        "name": "Lappert's Hawaii/Kukui Grove Shopping Ctr./Hawaii Community Foundation/Kauai Robotics Alliance/Kauai Labs/Pohaku Fabrication/Young Bros./Saltchuk/Poipu Beach Rotary/Hilo Hatties/Sannas Consulting/Matson/Signature Systems/KEDB/Kauai Beer Co./Omao Technologies/Aloha Angels/Kauai Estate Law&Island School&Kauai High School&Kapaa High School",
        "locality": "Lihue",
        "nickname": "Kauaibots",
        "region": "Hawaii",
        "team_number": 2465,
        "location": "Lihue, Hawaii 96766, USA",
        "key": "frc2465",
        "country_name": "USA",
        "motto": "Building geniuses island-wide.",
        "rookie_year": 2008
    },
    {
        "website": "http://www.waimeahighschool.org/menehune%20robotics/index_robotics.htm",
        "name": "Oceanit / Pioneer / PMRF / NASA / STU, LLC / Textron / Young Brothers / KEDB Aloha 'Ike / BAE Systems & Waimea High School",
        "locality": "Waimea",
        "nickname": "Menehune Robots",
        "region": "HI",
        "team_number": 2466,
        "location": "Waimea, HI, USA",
        "key": "frc2466",
        "country_name": "USA",
        "motto": null,
        "rookie_year": 2008
    },
    {
        "website": "http://www.sabertron2467.com",
        "name": "Disney/Pearl Harbor Naval Shipyard & IMF/Hawaiian Airlines & James Campbell High School",
        "locality": "Ewa Beach",
        "nickname": "Sabertron",
        "region": "HI",
        "team_number": 2467,
        "location": "Ewa Beach, HI, USA",
        "key": "frc2467",
        "country_name": "USA",
        "motto": null,
        "rookie_year": 2008
    },
    {
        "website": "http://www.frc2468.org",
        "name": "NXP/Intel/Qualcomm/National Instruments/Berry Consultants/Pixels and Verbs, LLC/NASA/BAE Systems/Westlake & Eanes Science & Technology Association/SolidWorks/FIRST in Texas/Texas Workforce Commission/Eanes Independent School District/Westlake High School PTO & Westlake H S",
        "locality": "Austin",
        "nickname": "Team Appreciate",
        "region": "Texas",
        "team_number": 2468,
        "location": "Austin, Texas 78746, USA",
        "key": "frc2468",
        "country_name": "USA",
        "motto": " 2 -4-6 - 8 -- Who Do You Appreciate?",
        "rookie_year": 2008
    },
    {
        "website": null,
        "name": "Idabel Foundation for Academic Excellence/NASA/Oklahoma State Department of Education/Sporos Computers & Idabel High School",
        "locality": "Idabel",
        "nickname": "Idabots",
        "region": "OK",
        "team_number": 2469,
        "location": "Idabel, OK, USA",
        "key": "frc2469",
        "country_name": "USA",
        "motto": null,
        "rookie_year": 2008
    },
    {
        "website": "http://www.team2470.org",
        "name": "General Dynamics Advanced Information Systems/InSports Foundation/Culver's/Mathias Die Company/Friends and family of Team BJORG&Jefferson Senior High",
        "locality": "Bloomington",
        "nickname": "Team BJORG",
        "region": "Minnesota",
        "team_number": 2470,
        "location": "Bloomington, Minnesota 55437, USA",
        "key": "frc2470",
        "country_name": "USA",
        "motto": null,
        "rookie_year": 2008
    },
    {
        "website": "http://www.team2471.org/",
        "name": "US Digital / Thomas & Betts, ABB Group / The Boeing Company / WA OSPI / Wafertech / Linear Technology / Georga Pacific / Riverview Bank / Wafertech / Hewlett Packard / Camas Washougal Rotary / iPly Designs / Delta Computer Systems / Protech Composites / Temp Control Mechanical Services / SPEEA / Linda Calica / Seasons Financial LPL / Fire Fighters L1159 / Wacom / Gates Belts / Barsotti Family / Murray Familiy / Interstate Batteries / Industrial Machine Services / Columbia-Okura & Camas High School & Washougal High School & Hockinson High School",
        "locality": "Camas",
        "nickname": "Team Mean Machine",
        "region": "Washington",
        "team_number": 2471,
        "location": "Camas, Washington 98607, USA",
        "key": "frc2471",
        "country_name": "USA",
        "motto": "24 hours a day, 7 days a week, 1 build season",
        "rookie_year": 2008
    },
    {
        "website": "http://www.team2472.com",
        "name": "Medtronic/Syngenta/Twin City Fab, Inc./A & C Metals/St. Paul Machine & Design, Inc & Centennial Senior",
        "locality": "Circle Pines",
        "nickname": "Centurions",
        "region": "Minnesota",
        "team_number": 2472,
        "location": "Circle Pines, Minnesota 55014, USA",
        "key": "frc2472",
        "country_name": "USA",
        "motto": "Deus ex Machina",
        "rookie_year": 2008
    },
    {
        "website": "http://www.tinorobotics.org",
        "name": "Lockheed Martin/Jacobs Technology/Intuitive Surgical/Aerospace Mechanisms Symposia/FUHSD Foundation/NASA/Qualcomm/Apple Computer/Nvidia/Cupertino Rotary Club/Advance Welding/Dave Izant&Cupertino High",
        "locality": "Cupertino",
        "nickname": "Goldstrikers",
        "region": "California",
        "team_number": 2473,
        "location": "Cupertino, California 95014, USA",
        "key": "frc2473",
        "country_name": "USA",
        "motto": "building people building robots",
        "rookie_year": 2008
    },
    {
        "website": "http://www.firstinspires.org/",
        "name": "AEP-American Electric Power/Delta Machining Inc./Whirlpool Corporation/Eagle Technologies Group/Vickers Enginneering/NASA/Dane Systems, LLC/Laidig Inc. & Berrien Resa",
        "locality": "Niles",
        "nickname": "Excel",
        "region": "Michigan",
        "team_number": 2474,
        "location": "Niles, Michigan 49120, USA",
        "key": "frc2474",
        "country_name": "USA",
        "motto": "For His Glory!",
        "rookie_year": 2008
    },
    {
        "website": null,
        "name": "NASA / Parker School & Earl's Garage",
        "locality": "Kamuela",
        "nickname": "Caution!",
        "region": "HI",
        "team_number": 2475,
        "location": "Kamuela, HI, USA",
        "key": "frc2475",
        "country_name": "USA",
        "motto": null,
        "rookie_year": 2008
    },
    {
        "website": null,
        "name": "Sewanhaka High School",
        "locality": "Floral Park",
        "nickname": "The Limited",
        "region": "NY",
        "team_number": 2476,
        "location": "Floral Park, NY, USA",
        "key": "frc2476",
        "country_name": "USA",
        "motto": null,
        "rookie_year": 2008
    },
    {
        "website": "http://waipahurobotics.wix.com/2477",
        "name": "NDEP / USN SPAWAR Pacific / BAE Systems / Friends of Hawaii / National Defense Education Program & Waipahu High School",
        "locality": "Waipahu",
        "nickname": "Marauder Rascals",
        "region": "Hawaii",
        "team_number": 2477,
        "location": "Waipahu, Hawaii 96797, USA",
        "key": "frc2477",
        "country_name": "USA",
        "motto": "If it ain't broke, you ain't trying.",
        "rookie_year": 2008
    },
    {
        "website": "http://www.westwoodrobotics.org",
        "name": "Cox Communications / General Dynamics C4 Systems / Boeing / Freescale Semiconductor / Rural Electric / VKW Construction / Mesa Public Schools / Solidworks / European Fashion Group / Baker Brothers Flooring / Chipotle  / Rainbow Graffix / IBM & Westwood High School",
        "locality": "Mesa",
        "nickname": "Westwood Robotics",
        "region": "Arizona",
        "team_number": 2478,
        "location": "Mesa, Arizona 85201, USA",
        "key": "frc2478",
        "country_name": "USA",
        "motto": null,
        "rookie_year": 2008
    },
    {
        "website": "http://www.firstinspires.org/",
        "name": "General Mills & Minneapolis College Prep High School",
        "locality": "Minneapolis",
        "nickname": "Phoenix",
        "region": "Minnesota",
        "team_number": 2479,
        "location": "Minneapolis, Minnesota 55411, USA",
        "key": "frc2479",
        "country_name": "USA",
        "motto": "Always Rising",
        "rookie_year": 2008
    },
    {
        "website": "http://www.firstinspires.org/",
        "name": "Reddy Rents / Aeromat & Roosevelt Senior High",
        "locality": "Minneapolis",
        "nickname": "Teddies",
        "region": "Minnesota",
        "team_number": 2480,
        "location": "Minneapolis, Minnesota 55406, USA",
        "key": "frc2480",
        "country_name": "USA",
        "motto": null,
        "rookie_year": 2008
    },
    {
        "website": "http://www.team2481.com",
        "name": "Caterpillar, Inc,/Boeing/Precision Planting/The Monsanto Fund&Tremont High School",
        "locality": "Tremont",
        "nickname": "Roboteers",
        "region": "Illinois",
        "team_number": 2481,
        "location": "Tremont, Illinois 61568, USA",
        "key": "frc2481",
        "country_name": "USA",
        "motto": "Digging for Treasure in the Depths of the Mind.",
        "rookie_year": 2008
    },
    {
        "website": "http://www.clawbotz.net",
        "name": "DuPont, Fayetteville Works/Eaton Corporation & Westover High School",
        "locality": "Fayetteville",
        "nickname": "Clawbotz",
        "region": "NC",
        "team_number": 2483,
        "location": "Fayetteville, NC, USA",
        "key": "frc2483",
        "country_name": "USA",
        "motto": null,
        "rookie_year": 2008
    },
    {
        "website": "http://www.teamimplosion.com",
        "name": "Electronic Arts / Intermountain Sales / Bountiful Tunex & Woods Cross High",
        "locality": "Woods Cross",
        "nickname": "Team Implosion",
        "region": "Utah",
        "team_number": 2484,
        "location": "Woods Cross, Utah 84087, USA",
        "key": "frc2484",
        "country_name": "USA",
        "motto": "Its a yellow brick",
        "rookie_year": 2008
    },
    {
        "website": "http://www.team2485.org/",
        "name": "Qualcomm/TE Connectivity/WowWee/Seacoast Commerce Bank/Trestle Energy/Evolution Projects/Sullivan Solar/DoD STEM/NewBlue/Rhodes River Ranch/Epsilon System Solutions/BrecoFlex/MakerPlace/General Dynamics NASSCO/Paper Clip Engineering/Environmental Lights/SolidProfessor/SolidWorks/GitHub&Francis Parker School",
        "locality": "San Diego",
        "nickname": "WARLords",
        "region": "California",
        "team_number": 2485,
        "location": "San Diego, California 92111, USA",
        "key": "frc2485",
        "country_name": "USA",
        "motto": "Champions of Lagacy",
        "rookie_year": 2008
    },
    {
        "website": "http://www.team2486.org",
        "name": "NASA/Belden/GKC Geosciences LLC/Softrol/World Wide Technology, Inc. & Cisco/WL Gore & Associates/Northern Arizona University/The Flagstaff Community via the Arizona Tax Credit Program/Flagstaff Unified School District #1&Coconino High School",
        "locality": "Flagstaff",
        "nickname": "CocoNuts",
        "region": "Arizona",
        "team_number": 2486,
        "location": "Flagstaff, Arizona 86004, USA",
        "key": "frc2486",
        "country_name": "USA",
        "motto": "GO NUTS!",
        "rookie_year": 2008
    },
    {
        "website": "http://www.team2487.com",
        "name": "Jo-Art Photographers & Sayville High School & Bayport-Blue Point High School",
        "locality": "Oakdale",
        "nickname": "Mechanical Animals",
        "region": "New York",
        "team_number": 2487,
        "location": "Oakdale, New York 11769, USA",
        "key": "frc2487",
        "country_name": "USA",
        "motto": null,
        "rookie_year": 2008
    },
    {
        "website": null,
        "name": "BAE Systems/Medtronic & Studio Academy High School",
        "locality": "Rochester",
        "nickname": "Plasma Pumas",
        "region": "MN",
        "team_number": 2488,
        "location": "Rochester, MN, USA",
        "key": "frc2488",
        "country_name": "USA",
        "motto": null,
        "rookie_year": 2008
    },
    {
        "website": "http://www.team2489.org",
        "name": "Magceutics/Google/Boeing/Brin Wojcicki Foundation/Cisco Systems, Inc/Bart Manufacturing/Playing At Learning/F5 Networks & Fremont Unified School District",
        "locality": "Fremont",
        "nickname": "The Insomniacs",
        "region": "California",
        "team_number": 2489,
        "location": "Fremont, California 94539, USA",
        "key": "frc2489",
        "country_name": "USA",
        "motto": "Do the math, save the world.",
        "rookie_year": 2008
    },
    {
        "website": null,
        "name": "Boeing & Chicago Hope Academy High School",
        "locality": "chicago",
        "nickname": "eagles",
        "region": "IL",
        "team_number": 2490,
        "location": "chicago, IL, USA",
        "key": "frc2490",
        "country_name": "USA",
        "motto": null,
        "rookie_year": 2008
    },
    {
        "website": "http://www.2491nomythic.com",
        "name": "Pace Analytical/Minnetronix/Quality Tool/Groveland Software, Inc & Great River School & Avalon School",
        "locality": "Saint Paul",
        "nickname": "No Mythic",
        "region": "Minnesota",
        "team_number": 2491,
        "location": "Saint Paul, Minnesota 55108, USA",
        "key": "frc2491",
        "country_name": "USA",
        "motto": "The Unicorn Team",
        "rookie_year": 2008
    },
    {
        "website": "http://www.robokong2493.com",
        "name": "The Boeing Company/STARS for a Better Tomorrow, Inc/Vocademy: The Maker Space/Gethsemane Lutheran Church/UTC Space Systems/BAE Systems&La Sierra High",
        "locality": "Riverside",
        "nickname": "Robokong",
        "region": "California",
        "team_number": 2493,
        "location": "Riverside, California 92504, USA",
        "key": "frc2493",
        "country_name": "USA",
        "motto": "Always find a way",
        "rookie_year": 2008
    },
    {
        "website": "http://team2495.com",
        "name": "Bloomberg &Hamilton West  Watson",
        "locality": "Hamilton",
        "nickname": "Hive Mind",
        "region": "New Jersey",
        "team_number": 2495,
        "location": "Hamilton, New Jersey 08691, USA",
        "key": "frc2495",
        "country_name": "USA",
        "motto": null,
        "rookie_year": 2008
    },
    {
        "website": "http://www.team2496.com",
        "name": "NASA/JPL/Boeing/Walt Disney Imagineering/Arnold O. Beckman High School&Arnold O. Beckman High",
        "locality": "Irvine",
        "nickname": "Tru Blu Robotics",
        "region": "California",
        "team_number": 2496,
        "location": "Irvine, California 92602, USA",
        "key": "frc2496",
        "country_name": "USA",
        "motto": "Six Weeks That Will Change Your Life",
        "rookie_year": 2008
    },
    {
        "website": "http://robonatick.org",
        "name": "National Defense Education Program/PTC & Natick High School",
        "locality": "Natick",
        "nickname": "RoboNatick",
        "region": "MA",
        "team_number": 2497,
        "location": "Natick, MA, USA",
        "key": "frc2497",
        "country_name": "USA",
        "motto": null,
        "rookie_year": 2008
    },
    {
        "website": "http://www.bearbotics.org",
        "name": "Medtronic Inc. & The Blake School",
        "locality": "Minneapolis",
        "nickname": "BearBotics",
        "region": "Minnesota",
        "team_number": 2498,
        "location": "Minneapolis, Minnesota 55403, USA",
        "key": "frc2498",
        "country_name": "USA",
        "motto": "Building Leaders With Robotics",
        "rookie_year": 2008
    },
    {
        "website": "http://hibbingfrc2499.com",
        "name": "Medtronic/Hardee's & Hibbing High",
        "locality": "Hibbing",
        "nickname": "Industrial Revolution",
        "region": "Minnesota",
        "team_number": 2499,
        "location": "Hibbing, Minnesota 55746, USA",
        "key": "frc2499",
        "country_name": "USA",
        "motto": "Don't touch that!",
        "rookie_year": 2008
    }
]