[
    {
        "website": "http://www.cgateam500.org",
        "name": "U.S. Coast Guard Academy, USCG Foundation, USCG Alumni Association & Local Supporters & Grosso Regional Vocational Technical High School & Local Home School Community & New London Magnet High School & Westerly, RI  High School",
        "locality": "New London",
        "nickname": "Team 500/Team USA",
        "region": "CT",
        "team_number": 500,
        "location": "New London, CT, USA",
        "key": "frc500",
        "country_name": "USA",
        "motto": null,
        "rookie_year": 2001
    },
    {
        "website": "http://www.powerknights.com",
        "name": "BURNDY / Dyn / UL / 4-H & Manchester West High School & Goffstown High School",
        "locality": "Manchester",
        "nickname": "The PowerKnights",
        "region": "New Hampshire",
        "team_number": 501,
        "location": "Manchester, New Hampshire 03102, USA",
        "key": "frc501",
        "country_name": "USA",
        "motto": "Meeting the challenge, exceeding the standard.",
        "rookie_year": 2001
    },
    {
        "website": null,
        "name": "",
        "locality": "Rockville Centre",
        "nickname": "",
        "region": "NY",
        "team_number": 502,
        "location": "Rockville Centre, NY, USA",
        "key": "frc502",
        "country_name": "USA",
        "motto": null,
        "rookie_year": null
    },
    {
        "website": "http://www.frogforce503.org",
        "name": "Magna Seating Systems (Primary Sponsor)/Denso/The Nissan Foundation/Tata Technologies/Ford Motor Company/Novi Community School District/Autoliv/NGK Sparkplugs/ASCO Numatics Inc./Bright House Networks/Michigan Department of Education&Novi High School",
        "locality": "Novi",
        "nickname": "Frog Force",
        "region": "Michigan",
        "team_number": 503,
        "location": "Novi, Michigan 48375, USA",
        "key": "frc503",
        "country_name": "USA",
        "motto": "A Leap Ahead",
        "rookie_year": 2001
    },
    {
        "website": null,
        "name": "",
        "locality": "Little Silver",
        "nickname": "",
        "region": "NJ",
        "team_number": 504,
        "location": "Little Silver, NJ, USA",
        "key": "frc504",
        "country_name": "USA",
        "motto": null,
        "rookie_year": null
    },
    {
        "website": null,
        "name": "Con Edison/Westchester Community College & Saunders Trades and Technical High School",
        "locality": "Yonkers",
        "nickname": "",
        "region": "NY",
        "team_number": 505,
        "location": "Yonkers, NY, USA",
        "key": "frc505",
        "country_name": "USA",
        "motto": null,
        "rookie_year": 2001
    },
    {
        "website": "http://www.startrobotics.vze.com",
        "name": "NASA/Wire to Water Inc./Power Aisle, Inc/Cadin Contracting Corp. & St. Anthony's High School",
        "locality": "South Huntington",
        "nickname": "BroBots",
        "region": "NY",
        "team_number": 506,
        "location": "South Huntington, NY, USA",
        "key": "frc506",
        "country_name": "USA",
        "motto": null,
        "rookie_year": 2001
    },
    {
        "website": "http://www.carolinaroboteers.com",
        "name": "Walmart/Electrolock/Computer Dynamics & Carolina Academy",
        "locality": "Greenville",
        "nickname": "Solid Orange Academy of Robotics (SOAR)",
        "region": "SC",
        "team_number": 507,
        "location": "Greenville, SC, USA",
        "key": "frc507",
        "country_name": "USA",
        "motto": null,
        "rookie_year": 2001
    },
    {
        "website": null,
        "name": "",
        "locality": "Avon",
        "nickname": "",
        "region": "CT",
        "team_number": 508,
        "location": "Avon, CT, USA",
        "key": "frc508",
        "country_name": "USA",
        "motto": null,
        "rookie_year": null
    },
    {
        "website": "http://www.redstorm509.appspot.com/",
        "name": "Bedford School District & Bedford High School",
        "locality": "Bedford",
        "nickname": "Red Storm",
        "region": "New Hampshire",
        "team_number": 509,
        "location": "Bedford, New Hampshire 03110, USA",
        "key": "frc509",
        "country_name": "USA",
        "motto": "Taking the World by STORM",
        "rookie_year": 2001
    },
    {
        "website": null,
        "name": "Qimonda, Richmond / CapTech / Henrico Education Foundation / CAPER & Highland Springs Technical Center",
        "locality": "Highland Springs",
        "nickname": "Hawaii Five-10",
        "region": "VA",
        "team_number": 510,
        "location": "Highland Springs, VA, USA",
        "key": "frc510",
        "country_name": "USA",
        "motto": null,
        "rookie_year": 2001
    },
    {
        "website": "http://therobodox.org",
        "name": "Granada Hills Charter High",
        "locality": "Granada Hills",
        "nickname": "The Robodox",
        "region": "California",
        "team_number": 511,
        "location": "Granada Hills, California, USA",
        "key": "frc511",
        "country_name": "USA",
        "motto": null,
        "rookie_year": 2001
    },
    {
        "website": null,
        "name": "",
        "locality": "Hull",
        "nickname": "",
        "region": "MA",
        "team_number": 512,
        "location": "Hull, MA, USA",
        "key": "frc512",
        "country_name": "USA",
        "motto": null,
        "rookie_year": null
    },
    {
        "website": "http://www.renegaderobotics.com",
        "name": "OSU-OKC & OKC Public Schools",
        "locality": "Oklahoma City",
        "nickname": "Renegade Robotics",
        "region": "OK",
        "team_number": 513,
        "location": "Oklahoma City, OK, USA",
        "key": "frc513",
        "country_name": "USA",
        "motto": null,
        "rookie_year": 2001
    },
    {
        "website": "http://www.millerplacerobotics.wordpress.com",
        "name": "HTX Services / MP Robotics Boosters & Miller Place High School",
        "locality": "Miller Place",
        "nickname": "Miller Place Robotics",
        "region": "New York",
        "team_number": 514,
        "location": "Miller Place, New York 11764, USA",
        "key": "frc514",
        "country_name": "USA",
        "motto": "Done is good",
        "rookie_year": 2001
    },
    {
        "website": null,
        "name": "Gallagher-Kaiser  Corporation/Prevention Network and Skillman Foundation/GM-MAAC & Osborn Educational Complex",
        "locality": "Detroit",
        "nickname": "TechnoKnights",
        "region": "MI",
        "team_number": 515,
        "location": "Detroit, MI, USA",
        "key": "frc515",
        "country_name": "USA",
        "motto": null,
        "rookie_year": 2001
    },
    {
        "website": null,
        "name": "",
        "locality": "New Providence",
        "nickname": "",
        "region": "NJ",
        "team_number": 517,
        "location": "New Providence, NJ, USA",
        "key": "frc517",
        "country_name": "USA",
        "motto": null,
        "rookie_year": null
    },
    {
        "website": null,
        "name": "GRAPCEP Davenport/Gumbo/Steelcase/GE Aviation Systems/IST & Ottawa Hills High School",
        "locality": "Grand Rapids",
        "nickname": "Blue Steel",
        "region": "MI",
        "team_number": 518,
        "location": "Grand Rapids, MI, USA",
        "key": "frc518",
        "country_name": "USA",
        "motto": null,
        "rookie_year": 2001
    },
    {
        "website": "http://team519.bravehost.com",
        "name": "General Motors Foundation-GM CCRW/Harvey Industries/ITT Technical Institute/Detroit Public Schools/American Integrated Supply",
        "locality": "Detroit",
        "nickname": "Robo Masters",
        "region": "MI",
        "team_number": 519,
        "location": "Detroit, MI, USA",
        "key": "frc519",
        "country_name": "USA",
        "motto": null,
        "rookie_year": 2001
    },
    {
        "website": null,
        "name": "",
        "locality": "Deer Park",
        "nickname": "",
        "region": "TX",
        "team_number": 520,
        "location": "Deer Park, TX, USA",
        "key": "frc520",
        "country_name": "USA",
        "motto": null,
        "rookie_year": null
    },
    {
        "website": "http://www.waterfordschools.org/whsnew/robotics_club/home.html",
        "name": "Dominion Millstone Power Station &  Waterford High School",
        "locality": "Waterford",
        "nickname": "L33T CREW (\"leet crew\")",
        "region": "CT",
        "team_number": 521,
        "location": "Waterford, CT, USA",
        "key": "frc521",
        "country_name": "USA",
        "motto": null,
        "rookie_year": 2001
    },
    {
        "website": "http://www.robowizards.com",
        "name": "New York Container Terminal / Con Edison & RALPH R MCKEE CAREER AND TECHNICAL HIGH SCHOOL",
        "locality": "Staten Island",
        "nickname": "ROBO WIZARDS",
        "region": "NY",
        "team_number": 522,
        "location": "Staten Island, NY, USA",
        "key": "frc522",
        "country_name": "USA",
        "motto": null,
        "rookie_year": 2001
    },
    {
        "website": null,
        "name": "",
        "locality": "Bakersfield",
        "nickname": "",
        "region": "CA",
        "team_number": 524,
        "location": "Bakersfield, CA, USA",
        "key": "frc524",
        "country_name": "USA",
        "motto": null,
        "rookie_year": null
    },
    {
        "website": "http://www.525swartdogs.org",
        "name": "Cedar Falls Community Schools/John Deere/PTC/Rockwell Collins/Denso International America, Inc./Iowa State University College of Engineering/DISTek Integration, Inc/Hawkeye Tool and Die&Cedar Falls High School",
        "locality": "Cedar Falls",
        "nickname": "Swartdogs",
        "region": "Iowa",
        "team_number": 525,
        "location": "Cedar Falls, Iowa 50613, USA",
        "key": "frc525",
        "country_name": "USA",
        "motto": "Students Working Around Robotic Technology",
        "rookie_year": 2001
    },
    {
        "website": "http://www.team527.com/",
        "name": "Plainedge Senior High School",
        "locality": "Massapequa",
        "nickname": "Red Dragons",
        "region": "New York",
        "team_number": 527,
        "location": "Massapequa, New York 11758, USA",
        "key": "frc527",
        "country_name": "USA",
        "motto": "YEAH WOO WOO YEAH",
        "rookie_year": 2001
    },
    {
        "website": "http://www.northpennrobotics.org",
        "name": "Visteon Corp. & North Montco Technical Career Center & North Penn High School",
        "locality": "Lansdale",
        "nickname": "The Persuaders",
        "region": "PA",
        "team_number": 528,
        "location": "Lansdale, PA, USA",
        "key": "frc528",
        "country_name": "USA",
        "motto": null,
        "rookie_year": 2001
    },
    {
        "website": "http://www.mansfieldrobotics.org",
        "name": "NASA/Invensys Process Systems",
        "locality": "Mansfield",
        "nickname": "The Mansfield Hornets",
        "region": "MA",
        "team_number": 529,
        "location": "Mansfield, MA, USA",
        "key": "frc529",
        "country_name": "USA",
        "motto": null,
        "rookie_year": 2001
    },
    {
        "website": "http://www.team533.com",
        "name": "New York State Assembelywoman Kimberly Jean-Pierre/BAE Systems/Harris EDO Corporation /L3 Communications Narda Microwave /Chivvis Enterprises, Inc. /SIMS STEEL /North East Finishing Company, Inc. /Action Powder Coating  & Lindenhurst Senior High School",
        "locality": "Lindenhurst",
        "nickname": "The PSIcotics",
        "region": "New York",
        "team_number": 533,
        "location": "Lindenhurst, New York 11757, USA",
        "key": "frc533",
        "country_name": "USA",
        "motto": "A Mind is a Terrible Thing to Lose",
        "rookie_year": 2001
    },
    {
        "website": null,
        "name": "Wabash Technologies & Huntington County Schools",
        "locality": "Markle",
        "nickname": "G-Force",
        "region": "IN",
        "team_number": 535,
        "location": "Markle, IN, USA",
        "key": "frc535",
        "country_name": "USA",
        "motto": null,
        "rookie_year": 2001
    },
    {
        "website": null,
        "name": "",
        "locality": "San Francisco",
        "nickname": "",
        "region": "CA",
        "team_number": 536,
        "location": "San Francisco, CA, USA",
        "key": "frc536",
        "country_name": "USA",
        "motto": null,
        "rookie_year": null
    },
    {
        "website": "http://www.team537.org",
        "name": "GE Volunteers of GE Healthcare / Rockwell Automation / Red Arrow Labs & Hamilton High",
        "locality": "Sussex",
        "nickname": "Charger Robotics",
        "region": "Wisconsin",
        "team_number": 537,
        "location": "Sussex, Wisconsin 53089, USA",
        "key": "frc537",
        "country_name": "USA",
        "motto": "Charging into the future one game at a time.",
        "rookie_year": 2001
    },
    {
        "website": "http://www.firstinspires.org/",
        "name": "Marshall County Legislative Delegation/Engineering, Research, and Consulting/Bentley Systems/Arab City Schools Foundation/STRATA-G Solutions&Arab High Sch",
        "locality": "Arab",
        "nickname": "Dragon Slayers",
        "region": "Alabama",
        "team_number": 538,
        "location": "Arab, Alabama 35016, USA",
        "key": "frc538",
        "country_name": "USA",
        "motto": "If at first you don't make weight, drill, baby, drill!",
        "rookie_year": 2001
    },
    {
        "website": "http://trinityes.org/",
        "name": "Trinity Episcopal School",
        "locality": "Richmond",
        "nickname": "Titan Robotics",
        "region": "Virginia",
        "team_number": 539,
        "location": "Richmond, Virginia 23235, USA",
        "key": "frc539",
        "country_name": "USA",
        "motto": "Go Titans",
        "rookie_year": 2001
    },
    {
        "website": "http://www.team540.com/",
        "name": "Dupont Sprunance Plant/ShowBest Fixture Inc./Piedmont Metal Fabricators Inc./TKL/mindsensors.com/GE Volunteers of GE Healthcare/Henrico Education Foundation/George P. Burdell/RVA Dental Care/Richmond Consulting Group&Godwin High",
        "locality": "Henrico",
        "nickname": "TALON 540 Godwin Robotics",
        "region": "Virginia",
        "team_number": 540,
        "location": "Henrico, Virginia 23238, USA",
        "key": "frc540",
        "country_name": "USA",
        "motto": "\"More than a robot\"",
        "rookie_year": 2001
    },
    {
        "website": "http://maxshayes.hostars.com/index.html",
        "name": "MBNA Foundation/NASA-Glenn Research Center/RML Tool & Die Inc./Accurate Instrument Service Co./WorkForce Investment Act/ASSET of Northeast Ohio/Diamond Wheel & Fabricating Inc. & Max S. Hayes Vocational Career Center",
        "locality": "Cleveland",
        "nickname": "Surgeons of Steel",
        "region": "OH",
        "team_number": 541,
        "location": "Cleveland, OH, USA",
        "key": "frc541",
        "country_name": "USA",
        "motto": null,
        "rookie_year": 2001
    },
    {
        "website": "http://itrobotics.virtualave.net",
        "name": "Island Trees High School",
        "locality": "Levittown",
        "nickname": "ROBO-DAWGS",
        "region": "New York",
        "team_number": 545,
        "location": "Levittown, New York 11756, USA",
        "key": "frc545",
        "country_name": "USA",
        "motto": "WE'RE NOT DOING THIS BECAUSE IT'S EASY; WE'RE DOING IT BECAUSE IT'S HARD.",
        "rookie_year": 2001
    },
    {
        "website": "http://www.amityregion5.org/technotics",
        "name": "UTC Sikorsky & Amity Regional & Harding High School",
        "locality": "Woodbridge",
        "nickname": "Technotics",
        "region": "CT",
        "team_number": 546,
        "location": "Woodbridge, CT, USA",
        "key": "frc546",
        "country_name": "USA",
        "motto": null,
        "rookie_year": 2001
    },
    {
        "website": "http://mws2609.wixsite.com/team547lchsrobotics",
        "name": "The Boeing Company/NMR Consulting/Steelcase Inc./PAC/TVA/PeopleTec/KBM, Inc./MMI/Lincoln County, TN/Pendergrass Supply/Fayetteville College of Cosmetology/Don's Diesel Truck Performance & Lincoln County High School",
        "locality": "Fayetteville",
        "nickname": "Falcon Engineering And Robotics",
        "region": "Tennessee",
        "team_number": 547,
        "location": "Fayetteville, Tennessee 37334, USA",
        "key": "frc547",
        "country_name": "USA",
        "motto": null,
        "rookie_year": 2001
    },
    {
        "website": "http://www.robostangs.com",
        "name": "General Motors/State of Michigan/AVL/Ford Motor Company/Electro-Matic Products Inc./Perficient Inc./Lochbridge/Elektrobit Automotive/The Hamilton Family/IAC/Gutherie Lumber/Velox CNC&Northville High School",
        "locality": "Northville",
        "nickname": "Robostangs",
        "region": "Michigan",
        "team_number": 548,
        "location": "Northville, Michigan 48168, USA",
        "key": "frc548",
        "country_name": "USA",
        "motto": "We're not horsing around!",
        "rookie_year": 2001
    },
    {
        "website": "http://www.devildawgs549.com",
        "name": "Raytheon/BOSE/Solidus Technical Solutions/Steel Fab inc & Leominster High School",
        "locality": "Leominster",
        "nickname": "DevilDawgs",
        "region": "MA",
        "team_number": 549,
        "location": "Leominster, MA, USA",
        "key": "frc549",
        "country_name": "USA",
        "motto": null,
        "rookie_year": 2001
    },
    {
        "website": null,
        "name": "Warren County Technical School",
        "locality": "Washington",
        "nickname": "NanKnights",
        "region": "NJ",
        "team_number": 550,
        "location": "Washington, NJ, USA",
        "key": "frc550",
        "country_name": "USA",
        "motto": null,
        "rookie_year": 2001
    },
    {
        "website": null,
        "name": "",
        "locality": "Belvidere",
        "nickname": "",
        "region": "NJ",
        "team_number": 551,
        "location": "Belvidere, NJ, USA",
        "key": "frc551",
        "country_name": "USA",
        "motto": null,
        "rookie_year": null
    },
    {
        "website": "http://www.HHSrobots.org",
        "name": "Gateway Community and Technical College, Florence KY/Krauss-Maffei, Florence KY /Tom Jones Academic Competion Fund/Jedson Engineering, Cincinnati OH/Eighty Twenty Design Group, Newport KY&Highlands High School",
        "locality": "Ft. Thomas",
        "nickname": "The Bluegrease Crew",
        "region": "Kentucky",
        "team_number": 554,
        "location": "Ft. Thomas, Kentucky 41075, USA",
        "key": "frc554",
        "country_name": "USA",
        "motto": null,
        "rookie_year": 2001
    },
    {
        "website": "http://www.555robotics.org",
        "name": "Judy and Josh Weston/Montclair Fund for Educational Excellence/Montclair Society of Engineers & Montclair High",
        "locality": "Montclair",
        "nickname": "Montclair Robotics",
        "region": "New Jersey",
        "team_number": 555,
        "location": "Montclair, New Jersey 07042, USA",
        "key": "frc555",
        "country_name": "USA",
        "motto": null,
        "rookie_year": 2001
    },
    {
        "website": "http://www.teamFordFIRST.org/Team557",
        "name": "Ford Motor Company & Cooley High School",
        "locality": "Detroit",
        "nickname": "Flaming Cardinals",
        "region": "MI",
        "team_number": 557,
        "location": "Detroit, MI, USA",
        "key": "frc557",
        "country_name": "USA",
        "motto": null,
        "rookie_year": 2001
    },
    {
        "website": "http://www.elmcityrobosquad.org/",
        "name": "Yale University/United Illuminating-Avangrid/United Technologies Corp./Comcast NBCUniversal/Best Buy&Hill Regional Career High School",
        "locality": "New Haven",
        "nickname": "Elm City Robo Squad",
        "region": "Connecticut",
        "team_number": 558,
        "location": "New Haven, Connecticut 06519, USA",
        "key": "frc558",
        "country_name": "USA",
        "motto": "Family, School, Robots",
        "rookie_year": 2001
    },
    {
        "website": null,
        "name": "Ford Motor Company & Cody High School",
        "locality": "Detroit",
        "nickname": "",
        "region": "MI",
        "team_number": 560,
        "location": "Detroit, MI, USA",
        "key": "frc560",
        "country_name": "USA",
        "motto": null,
        "rookie_year": 2001
    },
    {
        "website": null,
        "name": "Rohm and Haas & Frankford High School",
        "locality": "Phila",
        "nickname": "",
        "region": "PA",
        "team_number": 561,
        "location": "Phila, PA, USA",
        "key": "frc561",
        "country_name": "USA",
        "motto": null,
        "rookie_year": 2001
    },
    {
        "website": "http://robotics.montytech.net",
        "name": "Montachusett Regional Vocational Technical School",
        "locality": "Fitchburg",
        "nickname": "SPARK - Students Pursuing Applied Robotics Knowledge",
        "region": "MA",
        "team_number": 562,
        "location": "Fitchburg, MA, USA",
        "key": "frc562",
        "country_name": "USA",
        "motto": null,
        "rookie_year": 2001
    },
    {
        "website": "http://www.spazbunny.com/robotic",
        "name": "BOK Tech High School & Sunrise Foundation",
        "locality": "Phila",
        "nickname": "Thrashers",
        "region": "PA",
        "team_number": 563,
        "location": "Phila, PA, USA",
        "key": "frc563",
        "country_name": "USA",
        "motto": null,
        "rookie_year": 2001
    },
    {
        "website": "http://www.longwoodrobotics.weebly.com",
        "name": "Longwood High School",
        "locality": "Middle Island",
        "nickname": "Longwood Robotics",
        "region": "New York",
        "team_number": 564,
        "location": "Middle Island, New York 11953, USA",
        "key": "frc564",
        "country_name": "USA",
        "motto": "Pride and Perserverence",
        "rookie_year": 2001
    },
    {
        "website": null,
        "name": "",
        "locality": "Newark",
        "nickname": "",
        "region": "DE",
        "team_number": 565,
        "location": "Newark, DE, USA",
        "key": "frc565",
        "country_name": "USA",
        "motto": null,
        "rookie_year": null
    },
    {
        "website": "http://www.geocities.com/mcsdrobotics",
        "name": "Middle Country School District",
        "locality": "Centereach",
        "nickname": "Hot Wired 566",
        "region": "NY",
        "team_number": 566,
        "location": "Centereach, NY, USA",
        "key": "frc566",
        "country_name": "USA",
        "motto": null,
        "rookie_year": 2001
    },
    {
        "website": "http://www.akfirstrobotics.org",
        "name": "BP/JEDC/ASD C&TE/Shannon & Wilson, Inc/IBEW/UAA/Roboterra/Schwartz/Alaska Airlines/International Society of Automation/Washington FIRST&Dimond High School&East High School&Bartlett High School&Steller Secondary School&Polaris K-12 School",
        "locality": "Anchorage",
        "nickname": "Nerds of the North",
        "region": "Alaska",
        "team_number": 568,
        "location": "Anchorage, Alaska 99502, USA",
        "key": "frc568",
        "country_name": "USA",
        "motto": "adapt, migrate, or die",
        "rookie_year": 2001
    },
    {
        "website": "http://www.wix.com/team569/frc",
        "name": "East Meadow Chamber of Commerce/East Meadow Kiwanis & Home School",
        "locality": "Westbury",
        "nickname": "Rambots",
        "region": "New York",
        "team_number": 569,
        "location": "Westbury, New York 11590, USA",
        "key": "frc569",
        "country_name": "USA",
        "motto": null,
        "rookie_year": 2001
    },
    {
        "website": "http://www.cm4.com/catalysts",
        "name": "Glen Cove High School",
        "locality": "Glen Cove",
        "nickname": "Team Phoenix",
        "region": "NY",
        "team_number": 570,
        "location": "Glen Cove, NY, USA",
        "key": "frc570",
        "country_name": "USA",
        "motto": null,
        "rookie_year": 2001
    },
    {
        "website": "http://www.team-paragon.org/",
        "name": "UTC Otis Elevator / The Town of Windsor Connecticut & Windsor High School",
        "locality": "Windsor",
        "nickname": "Team Paragon",
        "region": "Connecticut",
        "team_number": 571,
        "location": "Windsor, Connecticut 06095, USA",
        "key": "frc571",
        "country_name": "USA",
        "motto": "Spirit Works",
        "rookie_year": 2001
    },
    {
        "website": "http://team573.com/",
        "name": "OnStar/General Motors/Ford Motor Company/SolidWorks/Consumers Energy/Diversified Tooling Group & Marian High School & Brother Rice High School",
        "locality": "Bloomfield Hills",
        "nickname": "Mech Warriors",
        "region": "Michigan",
        "team_number": 573,
        "location": "Bloomfield Hills, Michigan 48301, USA",
        "key": "frc573",
        "country_name": "USA",
        "motto": "Engineering with Attitude!",
        "rookie_year": 2001
    },
    {
        "website": null,
        "name": "",
        "locality": "Bronx",
        "nickname": "",
        "region": "NY",
        "team_number": 574,
        "location": "Bronx, NY, USA",
        "key": "frc574",
        "country_name": "USA",
        "motto": null,
        "rookie_year": null
    },
    {
        "website": null,
        "name": "",
        "locality": "North Hills",
        "nickname": "",
        "region": "CA",
        "team_number": 575,
        "location": "North Hills, CA, USA",
        "key": "frc575",
        "country_name": "USA",
        "motto": null,
        "rookie_year": null
    },
    {
        "website": null,
        "name": "UCLA & University High School & Emerson Middle School",
        "locality": "Los Angeles",
        "nickname": "",
        "region": "CA",
        "team_number": 576,
        "location": "Los Angeles, CA, USA",
        "key": "frc576",
        "country_name": "USA",
        "motto": null,
        "rookie_year": 2001
    },
    {
        "website": null,
        "name": "",
        "locality": "Tujunga",
        "nickname": "",
        "region": "CA",
        "team_number": 577,
        "location": "Tujunga, CA, USA",
        "key": "frc577",
        "country_name": "USA",
        "motto": null,
        "rookie_year": null
    },
    {
        "website": "http://www.fairportrobotics.org",
        "name": "Fairport Central School District/Xerox/PMD Automation/Thomson Reuters & Fairport Senior High School",
        "locality": "Fairport",
        "nickname": "R-cubed  - Red Raider Robotics",
        "region": "New York",
        "team_number": 578,
        "location": "Fairport, New York 14450, USA",
        "key": "frc578",
        "country_name": "USA",
        "motto": "We build more than robots. We Build Careers.",
        "rookie_year": 2001
    },
    {
        "website": null,
        "name": "",
        "locality": "Laveen",
        "nickname": "",
        "region": "AZ",
        "team_number": 579,
        "location": "Laveen, AZ, USA",
        "key": "frc579",
        "country_name": "USA",
        "motto": null,
        "rookie_year": null
    },
    {
        "website": "http://vikingrobotics580.com",
        "name": "Campbell Hall School & Campbell Hall School",
        "locality": "Studio City",
        "nickname": "Viking Robotics",
        "region": "California",
        "team_number": 580,
        "location": "Studio City, California 91604, USA",
        "key": "frc580",
        "country_name": "USA",
        "motto": "We're [Au]some",
        "rookie_year": 2001
    },
    {
        "website": "http://www.team581.com",
        "name": "Synnex/BAE Systems/The Brin Wojcicki Foundation/Comcast/Platt Electric/Intuitive Surgical/HP/Bulldog Boosters & San Jos High",
        "locality": "San Jose",
        "nickname": "Blazing Bulldogs",
        "region": "California",
        "team_number": 581,
        "location": "San Jose, California 95116, USA",
        "key": "frc581",
        "country_name": "USA",
        "motto": "Always have a plan B.",
        "rookie_year": 2001
    },
    {
        "website": "http://www.educationalcentral.org/wmrh",
        "name": "Duval County Schools/William M Raines High School/Communities in Schools",
        "locality": "Jacksonville",
        "nickname": "The Viking Electros",
        "region": "FL",
        "team_number": 582,
        "location": "Jacksonville, FL, USA",
        "key": "frc582",
        "country_name": "USA",
        "motto": null,
        "rookie_year": 2001
    },
    {
        "website": null,
        "name": "",
        "locality": "Seattle",
        "nickname": "",
        "region": "WA",
        "team_number": 583,
        "location": "Seattle, WA, USA",
        "key": "frc583",
        "country_name": "USA",
        "motto": null,
        "rookie_year": null
    },
    {
        "website": "http://firstteam585.org",
        "name": "NASA/Lockheed Martin Skunkworks/United Technologies Corporation/Boeing/Northrop Grumman/NDEP/sPower/National Instruments/Society of Women Engineers&Tehachapi High",
        "locality": "Tehachapi",
        "nickname": "Cyber Penguins",
        "region": "California",
        "team_number": 585,
        "location": "Tehachapi, California 93561, USA",
        "key": "frc585",
        "country_name": "USA",
        "motto": "If you don't itch, you're not doing it right!",
        "rookie_year": 2001
    },
    {
        "website": null,
        "name": "",
        "locality": "Alhambra",
        "nickname": "",
        "region": "CA",
        "team_number": 586,
        "location": "Alhambra, CA, USA",
        "key": "frc586",
        "country_name": "USA",
        "motto": null,
        "rookie_year": null
    },
    {
        "website": "http://www.team587.org",
        "name": "J W Faircloth and Son/United Therapeutics Corporation/Eclectech/Orange County Schools/Greg and Ellen Young/Mack Orthodontics/Carolina Biological Supply Company & Orange High & Cedar Ridge High",
        "locality": "Hillsborough",
        "nickname": "Hedgehogs",
        "region": "North Carolina",
        "team_number": 587,
        "location": "Hillsborough, North Carolina 27278, USA",
        "key": "frc587",
        "country_name": "USA",
        "motto": "We don't cut corners, we file them.",
        "rookie_year": 2001
    },
    {
        "website": "http://www.aprtech.org",
        "name": "CIS  & AP Randolph Academies of Technology",
        "locality": "Jacksonville",
        "nickname": "Jagtronx",
        "region": "FL",
        "team_number": 588,
        "location": "Jacksonville, FL, USA",
        "key": "frc588",
        "country_name": "USA",
        "motto": null,
        "rookie_year": 2001
    },
    {
        "website": "http://www.cvrobots.com",
        "name": "NASA Jet Propulsion Laboratory/Walt Disney Imagineering/WET/DreamWorks Animation/CoolerMaster&Crescenta Valley High",
        "locality": "La Crescenta",
        "nickname": "Falkon Robotics",
        "region": "California",
        "team_number": 589,
        "location": "La Crescenta, California 91214, USA",
        "key": "frc589",
        "country_name": "USA",
        "motto": "We're Falkon awesome!",
        "rookie_year": 2001
    },
    {
        "website": "http://www.choctaw.org/robotics",
        "name": "NASA/Stennis Space Center & Choctaw Central High School",
        "locality": "Choctaw",
        "nickname": "Chahta Warriors",
        "region": "Mississippi",
        "team_number": 590,
        "location": "Choctaw, Mississippi 39350, USA",
        "key": "frc590",
        "country_name": "USA",
        "motto": "So many dreams, so little time",
        "rookie_year": 2001
    },
    {
        "website": null,
        "name": "",
        "locality": "Los Angeles",
        "nickname": "",
        "region": "CA",
        "team_number": 591,
        "location": "Los Angeles, CA, USA",
        "key": "frc591",
        "country_name": "USA",
        "motto": null,
        "rookie_year": null
    },
    {
        "website": null,
        "name": "",
        "locality": "Sacramento",
        "nickname": "",
        "region": "CA",
        "team_number": 592,
        "location": "Sacramento, CA, USA",
        "key": "frc592",
        "country_name": "USA",
        "motto": null,
        "rookie_year": null
    },
    {
        "website": null,
        "name": "",
        "locality": "Houston",
        "nickname": "",
        "region": "TX",
        "team_number": 593,
        "location": "Houston, TX, USA",
        "key": "frc593",
        "country_name": "USA",
        "motto": null,
        "rookie_year": null
    },
    {
        "website": null,
        "name": "",
        "locality": "Flint",
        "nickname": "",
        "region": "MI",
        "team_number": 594,
        "location": "Flint, MI, USA",
        "key": "frc594",
        "country_name": "USA",
        "motto": null,
        "rookie_year": null
    },
    {
        "website": "http://www.hopkinton.k12.ma.us/high/schoollife/robotics/index.htm",
        "name": "Hopkinton High School",
        "locality": "Hopkinton",
        "nickname": "SciClones",
        "region": "MA",
        "team_number": 596,
        "location": "Hopkinton, MA, USA",
        "key": "frc596",
        "country_name": "USA",
        "motto": null,
        "rookie_year": 2001
    },
    {
        "website": "http://www.team597.org",
        "name": "The Boeing Company/USC-MESA/Vertirbi School of Engineering/Dr. Judy Flesh Rosenberg/Arconic Foundation - SkillsUSA/Kissick Family Foundation/NASA/Raytheon/Los Angeles Trade Tech/Supervisor Mark Ridley-Thomas/The William C. Bannerman Foundation/Project Lead The Way/L. A. City Council/X-treme Solutions/Friends of Foshay Robotics Team 597/Computers for Youth/AutoDesk/Iridescent/DirectTV/Society of Women Engineers (SWE)/Perkins Grant/CTEIG/Office of Dr. George Mckenna LAUSD/Stephen and Jill Petty&Foshay Lrn Center",
        "locality": "Los Angeles",
        "nickname": "The Wolverines",
        "region": "California",
        "team_number": 597,
        "location": "Los Angeles, California 90018, USA",
        "key": "frc597",
        "country_name": "USA",
        "motto": "\"We  Build More Than Robots, We Build Character!\"",
        "rookie_year": 2001
    },
    {
        "website": null,
        "name": "H & R Machining/Matt Sweeney Special Effects/C & M Relocation & William Howard Taft High School",
        "locality": "Woodland Hills",
        "nickname": "Team Duct Tape",
        "region": "CA",
        "team_number": 598,
        "location": "Woodland Hills, CA, USA",
        "key": "frc598",
        "country_name": "USA",
        "motto": null,
        "rookie_year": 2001
    },
    {
        "website": "http://www.therobodox.org",
        "name": "St. Jude Medical & Granada Hills Charter High",
        "locality": "Granada Hills",
        "nickname": "Robodox",
        "region": "California",
        "team_number": 599,
        "location": "Granada Hills, California 91344, USA",
        "key": "frc599",
        "country_name": "USA",
        "motto": "Engineering a Brighter Future",
        "rookie_year": 2001
    },
    {
        "website": "http://team600.org",
        "name": "Central Virginia Community College/AREVA/Region 2000 Technology Council & Lynchburg City Schools",
        "locality": "Lynchburg",
        "nickname": "RamRod Robotics",
        "region": "VA",
        "team_number": 600,
        "location": "Lynchburg, VA, USA",
        "key": "frc600",
        "country_name": "USA",
        "motto": null,
        "rookie_year": 2001
    },
    {
        "website": "http://frcteam601.weebly.com",
        "name": "ACE Shinnecock Hardware & Hampton Bays Secondary School",
        "locality": "Hampton Bays",
        "nickname": "BayBots",
        "region": "New York",
        "team_number": 601,
        "location": "Hampton Bays, New York 11946, USA",
        "key": "frc601",
        "country_name": "USA",
        "motto": null,
        "rookie_year": 2001
    },
    {
        "website": null,
        "name": "Diversified Educational Systems & Loudoun County Public Schools",
        "locality": "Leesburg",
        "nickname": "MTC",
        "region": "VA",
        "team_number": 602,
        "location": "Leesburg, VA, USA",
        "key": "frc602",
        "country_name": "USA",
        "motto": null,
        "rookie_year": 2001
    },
    {
        "website": null,
        "name": "",
        "locality": "Daytona Beach",
        "nickname": "",
        "region": "FL",
        "team_number": 603,
        "location": "Daytona Beach, FL, USA",
        "key": "frc603",
        "country_name": "USA",
        "motto": null,
        "rookie_year": null
    },
    {
        "website": "http://604Robotics.com",
        "name": "Leland High School FRC Team 604 Quixilver/IBM/Team Grandma/The Brin Wojcicki Foundation/BAE Systems/Qualcomm/Intuitive Surgical/Leland Bridge/Councilman J. Khamis/Almaden Valley Women's Club/NVIDIA/Exatron/MDR Precision/SOLIDWORKS/Dropbox/GitHub/Hurricane Electric&Leland High",
        "locality": "San Jose",
        "nickname": "Quixilver",
        "region": "California",
        "team_number": 604,
        "location": "San Jose, California 95120, USA",
        "key": "frc604",
        "country_name": "USA",
        "motto": "It will work - because it has to.",
        "rookie_year": 2001
    },
    {
        "website": "http://www.edenrop.org",
        "name": "Real Protection Fire/West Coast Cabinets & Eden Area Regional Occupational Program",
        "locality": "Hayward",
        "nickname": "Robots of Power",
        "region": "CA",
        "team_number": 605,
        "location": "Hayward, CA, USA",
        "key": "frc605",
        "country_name": "USA",
        "motto": null,
        "rookie_year": 2001
    },
    {
        "website": "http://www.robotics-team606.com",
        "name": "Raytheon/Aerospace Corporation/Disney Imagineering/Los Angeles Trade Technical College/Boys and Girls Club of King Drew/The William C. Bannerman Foundation&King/Drew Medical Magnet High",
        "locality": "Los Angeles",
        "nickname": "Cyber Eagles",
        "region": "California",
        "team_number": 606,
        "location": "Los Angeles, California 90059, USA",
        "key": "frc606",
        "country_name": "USA",
        "motto": null,
        "rookie_year": 2001
    },
    {
        "website": null,
        "name": "",
        "locality": "Piney Woods",
        "nickname": "",
        "region": "MS",
        "team_number": 607,
        "location": "Piney Woods, MS, USA",
        "key": "frc607",
        "country_name": "USA",
        "motto": null,
        "rookie_year": null
    },
    {
        "website": null,
        "name": "",
        "locality": "Atlanta",
        "nickname": "",
        "region": "GA",
        "team_number": 608,
        "location": "Atlanta, GA, USA",
        "key": "frc608",
        "country_name": "USA",
        "motto": null,
        "rookie_year": null
    },
    {
        "website": null,
        "name": "",
        "locality": "Santa Rosa",
        "nickname": "",
        "region": "CA",
        "team_number": 609,
        "location": "Santa Rosa, CA, USA",
        "key": "frc609",
        "country_name": "USA",
        "motto": null,
        "rookie_year": null
    },
    {
        "website": "http://www.team610.com",
        "name": "Hatch/Sinking Ship Entertainment/Extrude-A-Trim/EMC\u00b2/Doc-Chef Culinary Enterprise/H. Hatsios Investments/Telus & Crescent School",
        "locality": "Toronto",
        "nickname": "Crescent Robotics",
        "region": "Ontario",
        "team_number": 610,
        "location": "Toronto, Ontario M2L 1A2, Canada",
        "key": "frc610",
        "country_name": "Canada",
        "motto": "Robots of Character from Parts of Promise",
        "rookie_year": 2001
    },
    {
        "website": "http://langleyrobotics.com/",
        "name": "SAIC/South49 Solutions/Blue Ridge Technologies & Langley High",
        "locality": "McLean",
        "nickname": "Saxons",
        "region": "Virginia",
        "team_number": 611,
        "location": "McLean, Virginia 22101, USA",
        "key": "frc611",
        "country_name": "USA",
        "motto": "Competing Nationwide for Langley Pride ",
        "rookie_year": 2001
    },
    {
        "website": "http://chantillyrobotics.org/",
        "name": "IBEW Local 26 / Northrop Grumman / Booz Allen Hamilton & Chantilly Academy",
        "locality": "Chantilly",
        "nickname": "Chantilly Robotics",
        "region": "Virginia",
        "team_number": 612,
        "location": "Chantilly, Virginia 20151, USA",
        "key": "frc612",
        "country_name": "USA",
        "motto": "Shaping Future Generations!",
        "rookie_year": 2001
    },
    {
        "website": "http://www.neowarriors.net",
        "name": "Picatinny STEM / Franklin Township Public Schools & Franklin Twp High",
        "locality": "Somerset",
        "nickname": "NeoWarriors",
        "region": "New Jersey",
        "team_number": 613,
        "location": "Somerset, New Jersey 08873, USA",
        "key": "frc613",
        "country_name": "USA",
        "motto": null,
        "rookie_year": 2001
    },
    {
        "website": "http://Team614Robotics.org",
        "name": "Night Vision and Electronic Sensors Directorate (NVESD)/D & J Tech Service&Hayfield Secondary",
        "locality": "Alexandria",
        "nickname": "Night Hawks",
        "region": "Virginia",
        "team_number": 614,
        "location": "Alexandria, Virginia 22315, USA",
        "key": "frc614",
        "country_name": "USA",
        "motto": "United We Soar",
        "rookie_year": 2001
    },
    {
        "website": "http://www.firstinspires.org/",
        "name": "Google/Bezos Family Foundation/National Defense Education Partnership&Ballou Shs",
        "locality": "Washington",
        "nickname": "Knights",
        "region": "District of Columbia",
        "team_number": 615,
        "location": "Washington, District of Columbia 20032, USA",
        "key": "frc615",
        "country_name": "USA",
        "motto": "In pursuit of excellence",
        "rookie_year": 2001
    },
    {
        "website": "http://ircorp.fnsnet.net/index.htm",
        "name": "International Paper Corp/ODEC/Baggett Metal/ELectrical Motor Company/Nucor Steel/LRIG & Southampton Technical Career Center",
        "locality": "Courtland",
        "nickname": "Southampton Indian Robotics",
        "region": "VA",
        "team_number": 616,
        "location": "Courtland, VA, USA",
        "key": "frc616",
        "country_name": "USA",
        "motto": null,
        "rookie_year": 2001
    },
    {
        "website": "http://www.team617.com",
        "name": "Highland Springs High",
        "locality": "Henrico",
        "nickname": "Enginerds",
        "region": "Virginia",
        "team_number": 617,
        "location": "Henrico, Virginia 23075, USA",
        "key": "frc617",
        "country_name": "USA",
        "motto": null,
        "rookie_year": 2001
    },
    {
        "website": null,
        "name": "School District of Philadelphia / Everite Machine Products, Inc. / JMI Software Consultants Inc. / ITT Technical Institute / Applied Industrial Technologies & GEAR-UP & Edison Fareira High School",
        "locality": "Philadelphia",
        "nickname": "E.A.R.T.H. Squad (Edison Achieving Real Technological Heights)",
        "region": "PA",
        "team_number": 618,
        "location": "Philadelphia, PA, USA",
        "key": "frc618",
        "country_name": "USA",
        "motto": null,
        "rookie_year": 2001
    },
    {
        "website": "http://www.CARobotics.org",
        "name": "University of Virginia School of Engineering and Applied Science & Charlottesville-Albemarle Robotics",
        "locality": "Charlottesville",
        "nickname": "Cavalier Robotics",
        "region": "Virginia",
        "team_number": 619,
        "location": "Charlottesville, Virginia 22902, USA",
        "key": "frc619",
        "country_name": "USA",
        "motto": null,
        "rookie_year": 2001
    },
    {
        "website": "http://www.jmhsrobotics.org/",
        "name": "Bechtel/Atkins/Leidos/Lockheed Martin/Booz Allen Hamilton Inc/Foresight Engineering/Atlantic Exhibits/Vienna Volunteer Fire Department&Madison High",
        "locality": "Vienna",
        "nickname": "Warbots",
        "region": "Virginia",
        "team_number": 620,
        "location": "Vienna, Virginia 22181, USA",
        "key": "frc620",
        "country_name": "USA",
        "motto": "Together we soar.",
        "rookie_year": 2001
    },
    {
        "website": null,
        "name": "",
        "locality": "Falls Church",
        "nickname": "",
        "region": "VA",
        "team_number": 621,
        "location": "Falls Church, VA, USA",
        "key": "frc621",
        "country_name": "USA",
        "motto": null,
        "rookie_year": null
    },
    {
        "website": null,
        "name": "",
        "locality": "Manassas",
        "nickname": "",
        "region": "VA",
        "team_number": 622,
        "location": "Manassas, VA, USA",
        "key": "frc622",
        "country_name": "USA",
        "motto": null,
        "rookie_year": null
    },
    {
        "website": "http://www.team623.org",
        "name": "Lockheed Martin/Bechtel/Leidos/SAIC/Aerojet Rocketdyne/OHS PSTA/Integrity Applications Incorporated&Oakton High",
        "locality": "Vienna",
        "nickname": "Cougar Robotics",
        "region": "Virginia",
        "team_number": 623,
        "location": "Vienna, Virginia 22181, USA",
        "key": "frc623",
        "country_name": "USA",
        "motto": "We Believe",
        "rookie_year": 2001
    },
    {
        "website": "http://www.team624.org",
        "name": "BP America/Oceaneering/ConocoPhillips/Texas Workforce Commission & Cinco Ranch H S",
        "locality": "Katy",
        "nickname": "CRyptonite",
        "region": "Texas",
        "team_number": 624,
        "location": "Katy, Texas 77494, USA",
        "key": "frc624",
        "country_name": "USA",
        "motto": "Engineering a path to our future.",
        "rookie_year": 2001
    },
    {
        "website": null,
        "name": "",
        "locality": "Palmer",
        "nickname": "",
        "region": "AK",
        "team_number": 625,
        "location": "Palmer, AK, USA",
        "key": "frc625",
        "country_name": "USA",
        "motto": null,
        "rookie_year": null
    },
    {
        "website": null,
        "name": "",
        "locality": "Falls Church",
        "nickname": "",
        "region": "VA",
        "team_number": 627,
        "location": "Falls Church, VA, USA",
        "key": "frc627",
        "country_name": "USA",
        "motto": null,
        "rookie_year": null
    },
    {
        "website": "http://www.dershin.com/first",
        "name": "NASA/Ryan Machinery/University of Alaska Fairbanks & Lathrop High School",
        "locality": "Fairbanks",
        "nickname": "Northern RobArctic",
        "region": "AK",
        "team_number": 628,
        "location": "Fairbanks, AK, USA",
        "key": "frc628",
        "country_name": "USA",
        "motto": null,
        "rookie_year": 2001
    },
    {
        "website": null,
        "name": "",
        "locality": "McLean",
        "nickname": "",
        "region": "VA",
        "team_number": 630,
        "location": "McLean, VA, USA",
        "key": "frc630",
        "country_name": "USA",
        "motto": null,
        "rookie_year": null
    },
    {
        "website": "http://www.geocities.com/jlrobotic/robotic.htm",
        "name": "Able-Baker Automation Inc./Agile Automation/TriCed & James Logan High School",
        "locality": "Union City",
        "nickname": "Dissonance",
        "region": "CA",
        "team_number": 632,
        "location": "Union City, CA, USA",
        "key": "frc632",
        "country_name": "USA",
        "motto": null,
        "rookie_year": 2001
    },
    {
        "website": null,
        "name": "NASA/Vedimex Inc. & Henry Foss High School",
        "locality": "Tacoma",
        "nickname": "",
        "region": "WA",
        "team_number": 633,
        "location": "Tacoma, WA, USA",
        "key": "frc633",
        "country_name": "USA",
        "motto": null,
        "rookie_year": 2001
    },
    {
        "website": "http://www.lausd.k12.ca.us/vnhs/Tool_Academy/robotics.htm",
        "name": "Van Nuys High School",
        "locality": "Van Nuys",
        "nickname": "Rage",
        "region": "CA",
        "team_number": 634,
        "location": "Van Nuys, CA, USA",
        "key": "frc634",
        "country_name": "USA",
        "motto": null,
        "rookie_year": 2001
    },
    {
        "website": null,
        "name": "",
        "locality": "Buda",
        "nickname": "",
        "region": "TX",
        "team_number": 635,
        "location": "Buda, TX, USA",
        "key": "frc635",
        "country_name": "USA",
        "motto": null,
        "rookie_year": null
    },
    {
        "website": "http://www.waipahuhighrobotics.com",
        "name": "McInerny Foundation/University of Hawaii School of Ocean and Earth Science and Technology/The Estate of James Campbell/Hawaiian Electric Company/Goodwin Services/Del Monte Foods/Tanioka's Seafood  and Catering/Castle and Cooke Hawaii Homes, Inc./Friends of Pearl City Library/IEEE Hawaii & Waipahu High School",
        "locality": "Waipahu",
        "nickname": "Rascals",
        "region": "HI",
        "team_number": 636,
        "location": "Waipahu, HI, USA",
        "key": "frc636",
        "country_name": "USA",
        "motto": null,
        "rookie_year": 2001
    },
    {
        "website": "http://www.montville.net/highschool/robotics",
        "name": "Marotta Controls, Inc. & Montville Twp. High School",
        "locality": "Montville Township",
        "nickname": "MR. T",
        "region": "NJ",
        "team_number": 637,
        "location": "Montville Township, NJ, USA",
        "key": "frc637",
        "country_name": "USA",
        "motto": null,
        "rookie_year": 2001
    },
    {
        "website": null,
        "name": "DuPont Advanced Fibers Systems & Clover Hill High School",
        "locality": "Midlothian",
        "nickname": "Operation Oxidation",
        "region": "VA",
        "team_number": 638,
        "location": "Midlothian, VA, USA",
        "key": "frc638",
        "country_name": "USA",
        "motto": null,
        "rookie_year": 2001
    },
    {
        "website": "http://team639.org/",
        "name": "Rheonix/Cornell University/BorgWarner Morse TEC/CBORD/Vector/BAE Systems/IthacaSTEM Advocates&Ithaca Senior High School",
        "locality": "Ithaca",
        "nickname": "Code Red Robotics",
        "region": "New York",
        "team_number": 639,
        "location": "Ithaca, New York 14850, USA",
        "key": "frc639",
        "country_name": "USA",
        "motto": "Let's Go Red!",
        "rookie_year": 2001
    },
    {
        "website": "http://www.taehs.org",
        "name": "Con Edison & Thomas a Edison Career and Technical High School",
        "locality": "Jamaica",
        "nickname": "Robo Elite",
        "region": "New York",
        "team_number": 640,
        "location": "Jamaica, New York 11432, USA",
        "key": "frc640",
        "country_name": "USA",
        "motto": "Designed by Team 640, Engineered to Last",
        "rookie_year": 2001
    },
    {
        "website": null,
        "name": "",
        "locality": "Sanborn",
        "nickname": "",
        "region": "NY",
        "team_number": 641,
        "location": "Sanborn, NY, USA",
        "key": "frc641",
        "country_name": "USA",
        "motto": null,
        "rookie_year": null
    },
    {
        "website": "http://phs.wood.k12.wv.us/robot3/index.html",
        "name": "DuPont/Simonton Windows/Pickering and Associates/McHenry Electric/Murray's Sheet Metal/Parkersburg Tool Company/St. Joseph's Hospital/Lowe's & Parkersburg High School",
        "locality": "Parkersburg",
        "nickname": "BRR(Big Red Robotics)",
        "region": "WV",
        "team_number": 642,
        "location": "Parkersburg, WV, USA",
        "key": "frc642",
        "country_name": "USA",
        "motto": null,
        "rookie_year": 2001
    },
    {
        "website": null,
        "name": "",
        "locality": "Allentown",
        "nickname": "",
        "region": "PA",
        "team_number": 643,
        "location": "Allentown, PA, USA",
        "key": "frc643",
        "country_name": "USA",
        "motto": null,
        "rookie_year": null
    },
    {
        "website": "http://www.angelfire.com/droid/teammambo/PRHS.htm",
        "name": "Kelly Gene Cook, Sr Charitable Foundation/So'Moda, Inc/Defense Information Systems Agency & Pearl River High School",
        "locality": "Pearl River",
        "nickname": "Team Mambo",
        "region": "LA",
        "team_number": 644,
        "location": "Pearl River, LA, USA",
        "key": "frc644",
        "country_name": "USA",
        "motto": null,
        "rookie_year": 2001
    },
    {
        "website": null,
        "name": "Jackson's Hardware & Terra Linda High School",
        "locality": "San Rafael",
        "nickname": "",
        "region": "CA",
        "team_number": 645,
        "location": "San Rafael, CA, USA",
        "key": "frc645",
        "country_name": "USA",
        "motto": null,
        "rookie_year": 2001
    },
    {
        "website": null,
        "name": "",
        "locality": "West Sayville",
        "nickname": "",
        "region": "NY",
        "team_number": 646,
        "location": "West Sayville, NY, USA",
        "key": "frc646",
        "country_name": "USA",
        "motto": null,
        "rookie_year": null
    },
    {
        "website": "https://www.killeenisd.org/Schools/templates/basicWithCarousel/basicWithCarousel.cfm?navBarID=7669&cssFileName=blueMedAndWhite.css&campusCode=189",
        "name": "Texas Workforce Commission/Northrup Grumman/Dynamic Designs/Gen. (R) Robert M. Shoemaker/Killeen Independent School District/GEAR UP&Robert M Shoemaker H S",
        "locality": "Killeen",
        "nickname": "Cyberwolves ",
        "region": "Texas",
        "team_number": 647,
        "location": "Killeen, Texas 76549, USA",
        "key": "frc647",
        "country_name": "USA",
        "motto": "Keep your eye on the prize!",
        "rookie_year": 2001
    },
    {
        "website": "http://www.qcelite.com/",
        "name": "Arconic/John Deere/Wal-Mart and Sam's Club/Sears Manufacturing, Inc/Moline Foundation/Cobham/Riverstone/Singh Family Foundation&Moline Sr High School&Rock Island High School&Rivermont Collegiate&Pleasant Valley High School&North Scott Senior High School&Davenport West",
        "locality": "Blue Grass",
        "nickname": "QC ELITE - Flaming Squirrels",
        "region": "Iowa",
        "team_number": 648,
        "location": "Blue Grass, Iowa 52726, USA",
        "key": "frc648",
        "country_name": "USA",
        "motto": "Dream, Believe, Achieve",
        "rookie_year": 2001
    },
    {
        "website": "http://saratogamset.org",
        "name": "Sandisk/Apple/Brian and Monica Berkeley/Intuitive Surgical/Joyce and Howard Lorenz/FESTO/Santa Clara Plating Co/M & L Precision Machining/SolidWorks/GrabCAD/Screened Images&Saratoga High",
        "locality": "Saratoga",
        "nickname": "M-SET Fish",
        "region": "California",
        "team_number": 649,
        "location": "Saratoga, California 95070, USA",
        "key": "frc649",
        "country_name": "USA",
        "motto": "We practice \"Gracious Profishionalism\"!",
        "rookie_year": 2001
    },
    {
        "website": "http://www.hella650.com",
        "name": "Hella Electronics Corporation/Illinois Eastern Community Colleges/Wabash Valley College & FLora High School & Clay City High School & Louiisville High School & Cisne High School",
        "locality": "Flora",
        "nickname": "Hella's Angels",
        "region": "IL",
        "team_number": 650,
        "location": "Flora, IL, USA",
        "key": "frc650",
        "country_name": "USA",
        "motto": null,
        "rookie_year": 2001
    },
    {
        "website": "http://www.northschuylkill.net/Robotics%20folder/Robotics/index.html",
        "name": "Schuylkill Technology Centers",
        "locality": "Mar Lin",
        "nickname": "Yo Bot",
        "region": "PA",
        "team_number": 651,
        "location": "Mar Lin, PA, USA",
        "key": "frc651",
        "country_name": "USA",
        "motto": null,
        "rookie_year": 2001
    },
    {
        "website": "http://wasd.iu5.org/seneca/robotics/index.html",
        "name": "NASA Goddard Space Flight Center & Seneca  High School",
        "locality": "Erie",
        "nickname": "Bobcats",
        "region": "PA",
        "team_number": 652,
        "location": "Erie, PA, USA",
        "key": "frc652",
        "country_name": "USA",
        "motto": null,
        "rookie_year": 2001
    },
    {
        "website": "http://www.edisonengineering.org",
        "name": "Boeing/Texas Workforce Commission & FIRST in Texas/Lockheed Martin & Edison H S",
        "locality": "San Antonio",
        "nickname": "NOSIDE",
        "region": "Texas",
        "team_number": 653,
        "location": "San Antonio, Texas 78212, USA",
        "key": "frc653",
        "country_name": "USA",
        "motto": "There is no challenge too great for our team.  The future is our hands.  ",
        "rookie_year": 2001
    },
    {
        "website": "http://www.maclayrobotics.org",
        "name": "National High Magnetic Field Labratory/Tallahassee Welding and Machine Shop & Maclay School",
        "locality": "Tallahassee",
        "nickname": "Mechateuthis Dux",
        "region": "FL",
        "team_number": 654,
        "location": "Tallahassee, FL, USA",
        "key": "frc654",
        "country_name": "USA",
        "motto": null,
        "rookie_year": 2001
    },
    {
        "website": null,
        "name": "",
        "locality": "Brooklyn",
        "nickname": "",
        "region": "NY",
        "team_number": 655,
        "location": "Brooklyn, NY, USA",
        "key": "frc655",
        "country_name": "USA",
        "motto": null,
        "rookie_year": null
    },
    {
        "website": "http://www.Team658.com",
        "name": "General Motors & Godwin Public Schools",
        "locality": "Wyoming",
        "nickname": "B.E.A.S.T. - Bringing Excitement and Science Together",
        "region": "MI",
        "team_number": 658,
        "location": "Wyoming, MI, USA",
        "key": "frc658",
        "country_name": "USA",
        "motto": null,
        "rookie_year": 2001
    },
    {
        "website": null,
        "name": "",
        "locality": "Houston",
        "nickname": "",
        "region": "TX",
        "team_number": 659,
        "location": "Houston, TX, USA",
        "key": "frc659",
        "country_name": "USA",
        "motto": null,
        "rookie_year": null
    },
    {
        "website": "http://www.roundrockrobotics.net/index2.htm",
        "name": "BAE SYSTEMS & Round Rock High School",
        "locality": "Round Rock",
        "nickname": "Dragons",
        "region": "TX",
        "team_number": 660,
        "location": "Round Rock, TX, USA",
        "key": "frc660",
        "country_name": "USA",
        "motto": null,
        "rookie_year": 2001
    },
    {
        "website": "http://www.rockymountainrobotics.weebly.com",
        "name": "Academy School District 20/Verizon/National Defense Education Program/United States Air Force Academy STEM Outreach Program/The Niedringhaus Family/Northrup Grumman/Marco's Pizza/Alvin Fishman, CPA/Fastenal/RIM Technologies/Red Rock Technologies/Broadcom Limited/The Orton-Urbina Family&Air Academy High School&Discovery Canyon Campus School&Liberty High School&Pine Creek High School&Rampart High School&the Classical Academy High School&Tca College Pathways",
        "locality": "USAF Academy",
        "nickname": "Rocky Mountain Robotics",
        "region": "Colorado",
        "team_number": 662,
        "location": "USAF Academy, Colorado 80840, USA",
        "key": "frc662",
        "country_name": "USA",
        "motto": "Climb As High As You Can Dream",
        "rookie_year": 2001
    },
    {
        "website": "http://team663.org",
        "name": "WRT Management Corp. & Whitinsville Christian School & Whitinsville Christian School",
        "locality": "Whitinsville",
        "nickname": "Robonauts",
        "region": "Massachusetts",
        "team_number": 663,
        "location": "Whitinsville, Massachusetts 01588, USA",
        "key": "frc663",
        "country_name": "USA",
        "motto": "Faith, Honor, Courage & Nobility",
        "rookie_year": 2001
    },
    {
        "website": null,
        "name": "",
        "locality": "Harvard",
        "nickname": "",
        "region": "IL",
        "team_number": 664,
        "location": "Harvard, IL, USA",
        "key": "frc664",
        "country_name": "USA",
        "motto": null,
        "rookie_year": null
    },
    {
        "website": "http://www.wix.com/oakridgehs/firstteam665",
        "name": "Lockheed Martin / DeVry University / Walt Disney World / Fluid Power Society & OAK RIDGE HIGH",
        "locality": "Orlando",
        "nickname": "Motor Monkeys",
        "region": "FL",
        "team_number": 665,
        "location": "Orlando, FL, USA",
        "key": "frc665",
        "country_name": "USA",
        "motto": null,
        "rookie_year": 2001
    },
    {
        "website": null,
        "name": null,
        "locality": null,
        "nickname": null,
        "region": null,
        "team_number": 666,
        "location": "",
        "key": "frc666",
        "country_name": null,
        "motto": null,
        "rookie_year": null
    },
    {
        "website": null,
        "name": "",
        "locality": "Los Angeles",
        "nickname": "",
        "region": "CA",
        "team_number": 667,
        "location": "Los Angeles, CA, USA",
        "key": "frc667",
        "country_name": "USA",
        "motto": null,
        "rookie_year": null
    },
    {
        "website": "http://www.apesofwrath668.org",
        "name": "Gilbert-Greenstein Family /Google/Gigoptix/Boston Scientific/BAE/Solidworks/Evans Analytical Group/Xilinx/The Vezien Family/The Wilson Family&Pioneer High&Family/Community",
        "locality": "San Jose",
        "nickname": "The Apes of Wrath",
        "region": "California",
        "team_number": 668,
        "location": "San Jose, California 95118, USA",
        "key": "frc668",
        "country_name": "USA",
        "motto": "Inspired by Necessity, created by Genius, forged by Teamwork",
        "rookie_year": 2001
    },
    {
        "website": "http://homesteadrobotics.com",
        "name": "FUHSD Foundation / NASA / Apple / Qualcomm / Juniper Networks / SolidWorks & Homestead High",
        "locality": "Cupertino",
        "nickname": "Homestead Robotics",
        "region": "California",
        "team_number": 670,
        "location": "Cupertino, California 95014, USA",
        "key": "frc670",
        "country_name": "USA",
        "motto": "",
        "rookie_year": 2001
    },
    {
        "website": null,
        "name": "",
        "locality": "San Francisco",
        "nickname": "",
        "region": "CA",
        "team_number": 671,
        "location": "San Francisco, CA, USA",
        "key": "frc671",
        "country_name": "USA",
        "motto": null,
        "rookie_year": null
    },
    {
        "website": null,
        "name": "",
        "locality": "Manchester",
        "nickname": "",
        "region": "CA",
        "team_number": 674,
        "location": "Manchester, CA, USA",
        "key": "frc674",
        "country_name": "USA",
        "motto": null,
        "rookie_year": null
    },
    {
        "website": "http://robotics.gweaver.net",
        "name": "MV Transportation / Tellabs / Transit Maintenance Consultants / Goebel Paving / Unicorn Properties & Technology High School",
        "locality": "Rohnert Park",
        "nickname": "Phantom Robitics",
        "region": "California",
        "team_number": 675,
        "location": "Rohnert Park, California 94928, USA",
        "key": "frc675",
        "country_name": "USA",
        "motto": "Deus ex machina",
        "rookie_year": 2001
    },
    {
        "website": null,
        "name": "",
        "locality": "El Paso",
        "nickname": "",
        "region": "TX",
        "team_number": 676,
        "location": "El Paso, TX, USA",
        "key": "frc676",
        "country_name": "USA",
        "motto": null,
        "rookie_year": null
    },
    {
        "website": "http://firstteam677.wordpress.com/",
        "name": "Ohio State University/American Electric Power/Roush Honda/Abbott Fund/Kimball Midwest & Columbus School for Girls",
        "locality": "Columbus",
        "nickname": "Murphy's Outlaws",
        "region": "Ohio",
        "team_number": 677,
        "location": "Columbus, Ohio 43209, USA",
        "key": "frc677",
        "country_name": "USA",
        "motto": "Whatever can go wrong, will go wrong, Hombre.",
        "rookie_year": 2001
    },
    {
        "website": null,
        "name": "",
        "locality": "New York",
        "nickname": "",
        "region": "NY",
        "team_number": 679,
        "location": "New York, NY, USA",
        "key": "frc679",
        "country_name": "USA",
        "motto": null,
        "rookie_year": null
    },
    {
        "website": null,
        "name": "",
        "locality": "Chicago",
        "nickname": "",
        "region": "IL",
        "team_number": 681,
        "location": "Chicago, IL, USA",
        "key": "frc681",
        "country_name": "USA",
        "motto": null,
        "rookie_year": null
    },
    {
        "website": null,
        "name": "",
        "locality": "Sylmar",
        "nickname": "",
        "region": "CA",
        "team_number": 684,
        "location": "Sylmar, CA, USA",
        "key": "frc684",
        "country_name": "USA",
        "motto": null,
        "rookie_year": null
    },
    {
        "website": null,
        "name": "First Service Realty Int'l & Atlantic Technical Center Magnet High School",
        "locality": "Coconut Creek",
        "nickname": "",
        "region": "FL",
        "team_number": 685,
        "location": "Coconut Creek, FL, USA",
        "key": "frc685",
        "country_name": "USA",
        "motto": null,
        "rookie_year": 2001
    },
    {
        "website": "http://www.firstinspires.org/",
        "name": "Bechtel/Lockheed Martin/BAE Systems & Walkersville High & Linganore High & Oakdale High School",
        "locality": "Walkersville",
        "nickname": "Bovine Intervention",
        "region": "Maryland",
        "team_number": 686,
        "location": "Walkersville, Maryland 21793, USA",
        "key": "frc686",
        "country_name": "USA",
        "motto": null,
        "rookie_year": 2001
    },
    {
        "website": "http://www.camsrobotics.org",
        "name": "The Boeing Company/Northrop-Grumman/Raytheon/CAMS PTSO & California Academy of Mathematics and Science",
        "locality": "Carson",
        "nickname": "The Nerd Herd",
        "region": "California",
        "team_number": 687,
        "location": "Carson, California 90747, USA",
        "key": "frc687",
        "country_name": "USA",
        "motto": "Be a Nerd, Join the Herd. Go 687!",
        "rookie_year": 2001
    },
    {
        "website": null,
        "name": "",
        "locality": "Flint",
        "nickname": "",
        "region": "MI",
        "team_number": 688,
        "location": "Flint, MI, USA",
        "key": "frc688",
        "country_name": "USA",
        "motto": null,
        "rookie_year": null
    },
    {
        "website": null,
        "name": "",
        "locality": "Northampton",
        "nickname": "",
        "region": "MA",
        "team_number": 690,
        "location": "Northampton, MA, USA",
        "key": "frc690",
        "country_name": "USA",
        "motto": null,
        "rookie_year": null
    },
    {
        "website": "http://www.team691.org",
        "name": "Jet Propulsion Laboratory/St Jude Medical/Boston Scientific/NDFP&West Ranch High",
        "locality": "Valencia",
        "nickname": "Project 691",
        "region": "California",
        "team_number": 691,
        "location": "Valencia, California 91355, USA",
        "key": "frc691",
        "country_name": "USA",
        "motto": "That's Classified",
        "rookie_year": 2001
    },
    {
        "website": "http://www.sfrobotics.com",
        "name": "St Francis High School/The Brin Wojcicki Foundation/Bishop-Wisecarver Corporation/Blue Collar Supply & St Francis High School",
        "locality": "Sacramento",
        "nickname": "The Fembots",
        "region": "California",
        "team_number": 692,
        "location": "Sacramento, California 95819, USA",
        "key": "frc692",
        "country_name": "USA",
        "motto": "We Can Do It!",
        "rookie_year": 2001
    },
    {
        "website": "http://www.stuypulse.com",
        "name": "Stuyvesant High School Parents Association/DE Shaw/Bloomberg/Con Edison/Ann & Donovan Moore - Wallace Foundation/Abby & Tom Ferguson - Cox & Company/Dr. Joe Ricci/Justin Kim&Stuyvesant High School",
        "locality": "New York",
        "nickname": "StuyPulse",
        "region": "New York",
        "team_number": 694,
        "location": "New York, New York 10282, USA",
        "key": "frc694",
        "country_name": "USA",
        "motto": "Feel the Pulse!",
        "rookie_year": 2001
    },
    {
        "website": "http://www.team695.com",
        "name": "A-1 Manufacturing / The Metal Store / Sign-a-rama / Envision Radio Corporation & Beachwood High School",
        "locality": "Beachwood",
        "nickname": "FIRST Responders",
        "region": "Ohio",
        "team_number": 695,
        "location": "Beachwood, Ohio 44122, USA",
        "key": "frc695",
        "country_name": "USA",
        "motto": null,
        "rookie_year": 2001
    },
    {
        "website": "http://www.team696.org",
        "name": "NASA/JPL/Glendale Unified School District/Gene Haas Foundation/Arconic Foundation/Walt Disney Imagineering/Boeing/Honda R&D Americas/MathWorks/Electromotive&Anderson W. Clark Magnet High",
        "locality": "La Crescenta",
        "nickname": "Circuit Breakers",
        "region": "California",
        "team_number": 696,
        "location": "La Crescenta, California 91214, USA",
        "key": "frc696",
        "country_name": "USA",
        "motto": "Dream. Build. Excel.",
        "rookie_year": 2001
    },
    {
        "website": "http://www.pandarobotics.net",
        "name": "Immaculate Heart High School",
        "locality": "Los Angeles",
        "nickname": "Panda Robotics",
        "region": "CA",
        "team_number": 697,
        "location": "Los Angeles, CA, USA",
        "key": "frc697",
        "country_name": "USA",
        "motto": null,
        "rookie_year": 2001
    },
    {
        "website": "http://hhsrobotics698.weebly.com",
        "name": "2017 FRC Hardship Grant/Microchip Technology Inc./Image Craft/Industrial Metal Supply/Port Plastics/UnWired Engineering/Heatsync Labs/Tan Pants Media/SolidWorks&Hamilton High School",
        "locality": "Chandler",
        "nickname": "Hamilton Microbots",
        "region": "Arizona",
        "team_number": 698,
        "location": "Chandler, Arizona 85248, USA",
        "key": "frc698",
        "country_name": "USA",
        "motto": "Keep it simple sweetie.",
        "rookie_year": 2001
    },
    {
        "website": null,
        "name": "",
        "locality": "Chatsworth",
        "nickname": "",
        "region": "CA",
        "team_number": 699,
        "location": "Chatsworth, CA, USA",
        "key": "frc699",
        "country_name": "USA",
        "motto": null,
        "rookie_year": null
    },
    {
        "website": null,
        "name": "",
        "locality": "Los Angeles",
        "nickname": "",
        "region": "CA",
        "team_number": 700,
        "location": "Los Angeles, CA, USA",
        "key": "frc700",
        "country_name": "USA",
        "motto": null,
        "rookie_year": null
    },
    {
        "website": "http://www.vandenrobotics.com/",
        "name": "Travis USD / United Technologies Aerospace Systems / Solano County Office of Education / Genentech / Classic Powder Coating / Intuitive Surgical / BioMarin / Unitive / Paula Green / Pedron's Storage / Fairfield-Suisun Rotary / Vintage Paving Co. / Republic Services / Delta Grinding Co Inc. / TenCate / Vaca Valley Bingo Hall / Thrasher Law Office / Pirondini Family / Michael and Margaret Salvador / Dale Salvador / James Holtz / Vanden Robotics Foundation & Vanden High",
        "locality": "Fairfield",
        "nickname": "RoboVikes",
        "region": "California",
        "team_number": 701,
        "location": "Fairfield, California 94533, USA",
        "key": "frc701",
        "country_name": "USA",
        "motto": "Einstein 2016!",
        "rookie_year": 2001
    },
    {
        "website": "http://www.planet702.org",
        "name": "JPL/The Boeing Company/Raytheon/Cooler Master/Culver City Industrial Hardware/M&K Metals/Joey Davis/Mary C. Davis/CFP Studio Photography/Jane Ryan/Sawyer Family/Culver City Unified School District & Culver City High",
        "locality": "Culver City",
        "nickname": "Bagel Bytes",
        "region": "California",
        "team_number": 702,
        "location": "Culver City, California 90230, USA",
        "key": "frc702",
        "country_name": "USA",
        "motto": "It's supposed to do that",
        "rookie_year": 2001
    },
    {
        "website": "http://www.team703.com",
        "name": "Nexteer&Saginaw Career Complex",
        "locality": "Saginaw",
        "nickname": "Team Phoenix",
        "region": "Michigan",
        "team_number": 703,
        "location": "Saginaw, Michigan 48602, USA",
        "key": "frc703",
        "country_name": "USA",
        "motto": "Ignite the Future",
        "rookie_year": 2001
    },
    {
        "website": "http://www.sgprobotics.org",
        "name": "General Motors-Arlington Assembly / Lockheed Martin / Pratt & Whitney / Texas Workforce Commission / G-S Machine Shop / LR Cannon Enterprises / Decals Plus / Hill's Paint & Body / Control Products Corporation / Kirk England-State  Farm Insurance / Storm's Lawn and Garden & So Grand Prairie H S",
        "locality": "Grand Prairie",
        "nickname": "Warriors",
        "region": "Texas",
        "team_number": 704,
        "location": "Grand Prairie, Texas 75052, USA",
        "key": "frc704",
        "country_name": "USA",
        "motto": "Keepin' it simple",
        "rookie_year": 2001
    },
    {
        "website": "http://arrowheadrobotics.org/",
        "name": "Price Engineering / GE Volunteers / Revere Electric Supply / Rockwell Automation / Axis Automation & Arrowhead High",
        "locality": "Hartland",
        "nickname": "Cyberhawks",
        "region": "Wisconsin",
        "team_number": 706,
        "location": "Hartland, Wisconsin 53029, USA",
        "key": "frc706",
        "country_name": "USA",
        "motto": "Geared to Fly",
        "rookie_year": 2001
    },
    {
        "website": "http://www.team708.org/",
        "name": "Lockheed Martin/Hatboro-Horsham Education Foundation&Hatboro-Horsham Shs",
        "locality": "Horsham",
        "nickname": "Hatters Robotics",
        "region": "Pennsylvania",
        "team_number": 708,
        "location": "Horsham, Pennsylvania 19044, USA",
        "key": "frc708",
        "country_name": "USA",
        "motto": null,
        "rookie_year": 2001
    },
    {
        "website": "http://robotics.agnesirwin.org",
        "name": "The Boeing Company/Glaxo-Smith-Kline&Agnes Irwin School",
        "locality": "Bryn Mawr",
        "nickname": "Femme Tech Fatale",
        "region": "Pennsylvania",
        "team_number": 709,
        "location": "Bryn Mawr, Pennsylvania 19010, USA",
        "key": "frc709",
        "country_name": "USA",
        "motto": "Girls are the future of techology",
        "rookie_year": 2001
    },
    {
        "website": "http://www.ftl.pinecrest.edu/robotics",
        "name": "Pine Crest School",
        "locality": "Fort Lauderdale",
        "nickname": "Panther Bot",
        "region": "FL",
        "team_number": 710,
        "location": "Fort Lauderdale, FL, USA",
        "key": "frc710",
        "country_name": "USA",
        "motto": null,
        "rookie_year": 2001
    },
    {
        "website": null,
        "name": "Bezos Family/Citigroup  & Paul Robeson high School",
        "locality": "Brooklyn",
        "nickname": "Robeson full force",
        "region": "NY",
        "team_number": 711,
        "location": "Brooklyn, NY, USA",
        "key": "frc711",
        "country_name": "USA",
        "motto": null,
        "rookie_year": 2001
    },
    {
        "website": "http://www.ricehighschool.com",
        "name": "Con Edison/A&M Industrial Supply Company/City College of New York (CUNY) & Rice High School",
        "locality": "New York City",
        "nickname": "Steel Raiders",
        "region": "NY",
        "team_number": 713,
        "location": "New York City, NY, USA",
        "key": "frc713",
        "country_name": "USA",
        "motto": null,
        "rookie_year": 2001
    },
    {
        "website": "http://www.714robotics.com",
        "name": "CAROL FORD RACING & Technology High",
        "locality": "Newark",
        "nickname": "Panthera",
        "region": "New Jersey",
        "team_number": 714,
        "location": "Newark, New Jersey 07104, USA",
        "key": "frc714",
        "country_name": "USA",
        "motto": "panthera invicto ",
        "rookie_year": 2001
    },
    {
        "website": null,
        "name": "",
        "locality": "NY",
        "nickname": "",
        "region": "USA",
        "team_number": 715,
        "location": "NY, USA",
        "key": "frc715",
        "country_name": null,
        "motto": null,
        "rookie_year": null
    },
    {
        "website": "http://www.716robotics.com",
        "name": "BD/21st Century Fund/C. A. Lindell/Freund's Farm Market and Bakery/AVI International Inc & Housatonic Valley Regional High School",
        "locality": "Falls Village",
        "nickname": "Who'sCTEKS",
        "region": "Connecticut",
        "team_number": 716,
        "location": "Falls Village, Connecticut 06031, USA",
        "key": "frc716",
        "country_name": "USA",
        "motto": "Be the Frog..... Don't ever give up!",
        "rookie_year": 2001
    },
    {
        "website": null,
        "name": null,
        "locality": null,
        "nickname": null,
        "region": null,
        "team_number": 731,
        "location": "",
        "key": "frc731",
        "country_name": null,
        "motto": null,
        "rookie_year": null
    },
    {
        "website": "http://www.hscomputech.com",
        "name": "Sony/Bloomberg & High School of Computers and Technology",
        "locality": "Bronx",
        "nickname": "Technobots",
        "region": "New York",
        "team_number": 743,
        "location": "Bronx, New York 10467, USA",
        "key": "frc743",
        "country_name": "USA",
        "motto": null,
        "rookie_year": 2002
    },
    {
        "website": "http://www.sharkattack744.com",
        "name": "Apex Machine Co./Motorola Solutions Foundation/Loucks Engineering & BL Global Enterprises/United Technologies Corporation/The Anderson Family/Hill York Air Conditioning Services & Energy Solutions&Westminster Academy",
        "locality": "Fort Lauderdale",
        "nickname": "Shark Attack",
        "region": "Florida",
        "team_number": 744,
        "location": "Fort Lauderdale, Florida 33334, USA",
        "key": "frc744",
        "country_name": "USA",
        "motto": "Excellence in all things and all things to God's glory",
        "rookie_year": 2002
    },
    {
        "website": "http://www.firstinspires.org/",
        "name": "Toronto District School Board / Westview Centennial Secondary School / Argosy Fooundation / FIRST & Westview Centennial Secondary School & Westview centennial Secondary School",
        "locality": "North York",
        "nickname": "Gearheads",
        "region": "Ontario",
        "team_number": 746,
        "location": "North York, Ontario M3N 1W7, Canada",
        "key": "frc746",
        "country_name": "Canada",
        "motto": null,
        "rookie_year": 2002
    },
    {
        "website": "http://www.frc747.com",
        "name": "ANSUN Protective Metals/Picatinny Arsenal&Family/Community",
        "locality": "Middlesex",
        "nickname": "Flight Crew",
        "region": "New Jersey",
        "team_number": 747,
        "location": "Middlesex, New Jersey 08846, USA",
        "key": "frc747",
        "country_name": "USA",
        "motto": null,
        "rookie_year": 2002
    },
    {
        "website": null,
        "name": "KINGSVILLE DISTRICT HIGH SCHOOL",
        "locality": "Kingsville",
        "nickname": "Kingsville CavalGears",
        "region": "Ontario",
        "team_number": 748,
        "location": "Kingsville, Ontario, Canada",
        "key": "frc748",
        "country_name": "Canada",
        "motto": null,
        "rookie_year": 2002
    },
    {
        "website": null,
        "name": "NASA Stennis Space Center/Valspar/Exxon Oil Corp./Datastar, Inc./Picayune Industrial Supply/Q & G Supply/USM  Physics Dept & Picayune Career & Technology Center",
        "locality": "Picayune",
        "nickname": "",
        "region": "MS",
        "team_number": 750,
        "location": "Picayune, MS, USA",
        "key": "frc750",
        "country_name": "USA",
        "motto": null,
        "rookie_year": 2002
    },
    {
        "website": "http://team751.org/",
        "name": "Nvidia / Pentair & Woodside Priory School",
        "locality": "Portola Valley",
        "nickname": "barn2robotics",
        "region": "California",
        "team_number": 751,
        "location": "Portola Valley, California 94028, USA",
        "key": "frc751",
        "country_name": "USA",
        "motto": "",
        "rookie_year": 2002
    },
    {
        "website": "http://www.shsrobotix.com/website/home.php",
        "name": "Science High",
        "locality": "Newark",
        "nickname": "The Chargers",
        "region": "New Jersey",
        "team_number": 752,
        "location": "Newark, New Jersey 07103, USA",
        "key": "frc752",
        "country_name": "USA",
        "motto": null,
        "rookie_year": 2002
    },
    {
        "website": "http://www.team753.com/",
        "name": "Bend Research/Oregon Dept of Education/Microsemi & Mountain View Senior High School",
        "locality": "Bend",
        "nickname": "High Desert Droids",
        "region": "Oregon",
        "team_number": 753,
        "location": "Bend, Oregon 97701, USA",
        "key": "frc753",
        "country_name": "USA",
        "motto": "Waffle Bacon Waffle Bacon Seven Fifty Three",
        "rookie_year": 2002
    },
    {
        "website": "http://frostbyte754.com",
        "name": "NWTC/MMC/M&M Foundation & Marinette HS & Menominee HS & Peshtigo HS",
        "locality": "Marinette",
        "nickname": "FROSTBYTE",
        "region": "WI",
        "team_number": 754,
        "location": "Marinette, WI, USA",
        "key": "frc754",
        "country_name": "USA",
        "motto": null,
        "rookie_year": 2002
    },
    {
        "website": null,
        "name": "NASA/Kansas Space Grant Consortium & Washington High School",
        "locality": "Washington",
        "nickname": "",
        "region": "KS",
        "team_number": 755,
        "location": "Washington, KS, USA",
        "key": "frc755",
        "country_name": "USA",
        "motto": null,
        "rookie_year": 2002
    },
    {
        "website": "http://www.skyrobotics.ca",
        "name": "ArvinMeritor / Meritor Suspension Systems / Ridge Landfill Community Trust / Chathm-Kent Community Foundation & The High Schools of South Kent",
        "locality": "Blenheim",
        "nickname": "South-Kent Youth Robotics",
        "region": "ON",
        "team_number": 758,
        "location": "Blenheim, ON, Canada",
        "key": "frc758",
        "country_name": "Canada",
        "motto": null,
        "rookie_year": 2002
    },
    {
        "website": "http://www.systemetric.org",
        "name": "Sputnik LLC/Caterpillar/CITRIX Systems/ARM/metapurple Ltd. & Hills Road Sixth Form College",
        "locality": "Cambridge",
        "nickname": "Systemetric",
        "region": "ENG",
        "team_number": 759,
        "location": "Cambridge, ENG, Kingdom",
        "key": "frc759",
        "country_name": "Kingdom",
        "motto": null,
        "rookie_year": 2002
    },
    {
        "website": null,
        "name": null,
        "locality": null,
        "nickname": null,
        "region": null,
        "team_number": 760,
        "location": "",
        "key": "frc760",
        "country_name": null,
        "motto": null,
        "rookie_year": null
    },
    {
        "website": "http://www.lbhsrobotics.com",
        "name": "Disney/Metal Essence, Inc. & Lake Brantley High School",
        "locality": "Altamonte Springs",
        "nickname": "Patriots",
        "region": "FL",
        "team_number": 762,
        "location": "Altamonte Springs, FL, USA",
        "key": "frc762",
        "country_name": "USA",
        "motto": null,
        "rookie_year": 2002
    },
    {
        "website": "http://meade.k12.sd.us/robotics/home.html",
        "name": "South Dakota Space Grant Consortium & Sturgis Brown High School",
        "locality": "Sturgis",
        "nickname": "",
        "region": "SD",
        "team_number": 764,
        "location": "Sturgis, SD, USA",
        "key": "frc764",
        "country_name": "USA",
        "motto": null,
        "rookie_year": 2002
    },
    {
        "website": null,
        "name": "South Dakota Space Grant Consortium & Rapid City Central High School",
        "locality": "Rapid City",
        "nickname": "Cobblers",
        "region": "SD",
        "team_number": 765,
        "location": "Rapid City, SD, USA",
        "key": "frc765",
        "country_name": "USA",
        "motto": null,
        "rookie_year": 2002
    },
    {
        "website": "http://www.team766.com",
        "name": "Google/Abbott Fund/Apple/Sequoia Union High School District/Brin Wojcicki Foundation/ADI/MVCode Code/Levenson family&Menlo-Atherton High",
        "locality": "Atherton",
        "nickname": "M-A Bears",
        "region": "California",
        "team_number": 766,
        "location": "Atherton, California 94027, USA",
        "key": "frc766",
        "country_name": "USA",
        "motto": "From Concept to Reality",
        "rookie_year": 2002
    },
    {
        "website": null,
        "name": "Brauckman Family",
        "locality": "Baltimore",
        "nickname": "TechnoWarriors",
        "region": "MD",
        "team_number": 768,
        "location": "Baltimore, MD, USA",
        "key": "frc768",
        "country_name": "USA",
        "motto": null,
        "rookie_year": 2002
    },
    {
        "website": "http://www.landstownhs.vbschools.com/robotics2/index.html",
        "name": "ITT Tech & Landstown High School",
        "locality": "Virginia Beach",
        "nickname": "Eaglebotics",
        "region": "VA",
        "team_number": 769,
        "location": "Virginia Beach, VA, USA",
        "key": "frc769",
        "country_name": "USA",
        "motto": null,
        "rookie_year": 2002
    },
    {
        "website": null,
        "name": "NASA/South Dakota Space Grant Consortium & Rapid City Stevens High School",
        "locality": "Rapid City",
        "nickname": "",
        "region": "SD",
        "team_number": 770,
        "location": "Rapid City, SD, USA",
        "key": "frc770",
        "country_name": "USA",
        "motto": null,
        "rookie_year": 2002
    },
    {
        "website": "http://www.swat771.com",
        "name": "A.W.B. Charitable Foundation / Willson International / Shaw Almex Industries / NASA / UTC Aerospace Systems / St. Mildred's Lightbourn Parent Association & St. Mildred's Lightbourn School",
        "locality": "Oakville",
        "nickname": "SWAT",
        "region": "Ontario",
        "team_number": 771,
        "location": "Oakville, Ontario L6J 2L1, Canada",
        "key": "frc771",
        "country_name": "Canada",
        "motto": "St. Mildred's Women Advancing Technology",
        "rookie_year": 2002
    },
    {
        "website": "http://www.sabrerobotics.com",
        "name": "Centerline/General Motors of Canada/FCA Foundation/Brave Control Solutions/Bell Canada/St Clair College/Reaume Motors/Performance Ford&Sandwich Secondary School",
        "locality": "Windsor",
        "nickname": "Sabre Bytes",
        "region": "Ontario",
        "team_number": 772,
        "location": "Windsor, Ontario N9J 2T5, Canada",
        "key": "frc772",
        "country_name": "Canada",
        "motto": "Growing our Community and Globally in STEMB and Robotics",
        "rookie_year": 2002
    },
    {
        "website": "http://www.cavalgears773.ca",
        "name": "Fiat Chrysler Automotive Group/Centerline /St. Clair College&KINGSVILLE DISTRICT HIGH SCHOOL",
        "locality": "Kingsville",
        "nickname": "Kingsville CavalGears",
        "region": "Ontario",
        "team_number": 773,
        "location": "Kingsville, Ontario N9Y 1A6, Canada",
        "key": "frc773",
        "country_name": "Canada",
        "motto": null,
        "rookie_year": 2002
    },
    {
        "website": "http://www.mnsi.net/~stanne",
        "name": "Anchor Lamina Inc./Geo. T White Ltd./University of Windsor/St. Anne Parents Club & St Anne HS",
        "locality": "Tecumseh",
        "nickname": "SATech Saints",
        "region": "ON",
        "team_number": 776,
        "location": "Tecumseh, ON, Canada",
        "key": "frc776",
        "country_name": "Canada",
        "motto": null,
        "rookie_year": 2002
    },
    {
        "website": null,
        "name": "",
        "locality": "Cuyahoga Heights",
        "nickname": "",
        "region": "OH",
        "team_number": 779,
        "location": "Cuyahoga Heights, OH, USA",
        "key": "frc779",
        "country_name": "USA",
        "motto": null,
        "rookie_year": null
    },
    {
        "website": null,
        "name": "NASA Dryden Flight Research Center/Inter American University & Colegio La Salle & Academia Bautista & Francisco Gaztambide",
        "locality": "Bayamon",
        "nickname": "TigerBots",
        "region": "PR",
        "team_number": 780,
        "location": "Bayamon, PR, USA",
        "key": "frc780",
        "country_name": "USA",
        "motto": null,
        "rookie_year": 2002
    },
    {
        "website": "http://www.team781.com/",
        "name": "Bruce Power / Lake Huron Learning Centre & Kinetic Knights Robotics",
        "locality": "Kincardine",
        "nickname": "Kinetic Knights",
        "region": "Ontario",
        "team_number": 781,
        "location": "Kincardine, Ontario N2Z 2B9, Canada",
        "key": "frc781",
        "country_name": "Canada",
        "motto": "Setting Your Potential In Motion!",
        "rookie_year": 2002
    },
    {
        "website": "http://first.watkinson.org",
        "name": "University of Hartford/PKT Development Inc & The Watkinson School",
        "locality": "Hartford",
        "nickname": "Killawatz",
        "region": "CT",
        "team_number": 782,
        "location": "Hartford, CT, USA",
        "key": "frc782",
        "country_name": "USA",
        "motto": null,
        "rookie_year": 2002
    },
    {
        "website": "http://www.mobotics.ca",
        "name": "Mowat C.I.",
        "locality": "Toronto",
        "nickname": "Mobotics",
        "region": "ON",
        "team_number": 783,
        "location": "Toronto, ON, Canada",
        "key": "frc783",
        "country_name": "Canada",
        "motto": null,
        "rookie_year": 2002
    },
    {
        "website": null,
        "name": "NASA/Oregon Space Grant Consortium & Redmond High School",
        "locality": "Redmond",
        "nickname": "",
        "region": "OR",
        "team_number": 800,
        "location": "Redmond, OR, USA",
        "key": "frc800",
        "country_name": "USA",
        "motto": null,
        "rookie_year": 2002
    },
    {
        "website": "http://www.team801.com",
        "name": "Jacobs Technology/Lockheed Martin/Brevard Public Schools/Brevard County Fire Rescue Station 43/United Lanch Alliance (ULA)/GSDO/Precision, Fabrication, and Cleaning/Bansbach Easylift of N. America/Craig Technologies/Defense Suppliers of Electronic Components Inc./Defense Technologies Inc./LVX System/Millennium Engineering and Intergration Company/Stinger Ghaffarian Technologies (SGT Inc)/East Coast Lumber & Supply Co./Dittmer Air Conditional & Heating Services Inc./Premium Marine/Space Shirts/Crest Cleaners/Brevard Towing&Merritt Island High School&Edgewood Jr/Sr High School&Cocoa Beach Junior/Senior High School",
        "locality": "Merritt Island",
        "nickname": "Horsepower",
        "region": "Florida",
        "team_number": 801,
        "location": "Merritt Island, Florida 32953, USA",
        "key": "frc801",
        "country_name": "USA",
        "motto": " \"Here Comes the Stampede\"",
        "rookie_year": 2002
    },
    {
        "website": null,
        "name": "",
        "locality": "Sudbury",
        "nickname": "",
        "region": "MA",
        "team_number": 802,
        "location": "Sudbury, MA, USA",
        "key": "frc802",
        "country_name": "USA",
        "motto": null,
        "rookie_year": null
    },
    {
        "website": null,
        "name": "Hanahan High School & Goose Creek High School",
        "locality": "Berkeley County",
        "nickname": "Lowcountry Castaways",
        "region": "SC",
        "team_number": 803,
        "location": "Berkeley County, SC, USA",
        "key": "frc803",
        "country_name": "USA",
        "motto": null,
        "rookie_year": 2002
    },
    {
        "website": "http://www.rock-hill.k12.sc.us/Robotics",
        "name": "Chick-fil-A Dave Lyle/Williams and Fudge & Applied Technology Center & Rock Hill District 3 High Schools",
        "locality": "Rock Hill",
        "nickname": "MetalMorphosis/Mad Scientists",
        "region": "SC",
        "team_number": 804,
        "location": "Rock Hill, SC, USA",
        "key": "frc804",
        "country_name": "USA",
        "motto": null,
        "rookie_year": 2002
    },
    {
        "website": "http://www.angelfire.com/emo/SSHSrobotics",
        "name": "NASA /Oregon Space Grant Consortium/Zephyr Engineering & South Salem High School",
        "locality": "Salem",
        "nickname": "Igniters",
        "region": "OR",
        "team_number": 805,
        "location": "Salem, OR, USA",
        "key": "frc805",
        "country_name": "USA",
        "motto": null,
        "rookie_year": 2002
    },
    {
        "website": "http://xaverian.org/robotics",
        "name": "Empire Environmental Services/Riva Precision Manufacturing&Xaverian High School&Fontbonne Hall Academy",
        "locality": "Brooklyn",
        "nickname": "The Brooklyn Blacksmiths",
        "region": "New York",
        "team_number": 806,
        "location": "Brooklyn, New York 11209, USA",
        "key": "frc806",
        "country_name": "USA",
        "motto": "The anvil fears no blows.",
        "rookie_year": 2002
    },
    {
        "website": "http://www.first-team807.org",
        "name": "NASA/Digital Fusion, Inc./CFD Research Corporation & New Century Technology High School & Columbia High School",
        "locality": "Huntsville",
        "nickname": "Monster Mechanics",
        "region": "AL",
        "team_number": 807,
        "location": "Huntsville, AL, USA",
        "key": "frc807",
        "country_name": "USA",
        "motto": null,
        "rookie_year": 2002
    },
    {
        "website": "http://www.aviators.stark.k12.oh.us/ahs/Robotics/Home.htm ",
        "name": "Westmont, Inc./Lake Erie Electric Loomis Division/SES, LLC Steel Engineering Specialists/Sarchione Sales and Service/G Weimer/D & J Burdett/Hill's Heating and Cooling & Alliance High School",
        "locality": "Alliance",
        "nickname": "Mechanical Mayhem",
        "region": "OH",
        "team_number": 808,
        "location": "Alliance, OH, USA",
        "key": "frc808",
        "country_name": "USA",
        "motto": null,
        "rookie_year": 2002
    },
    {
        "website": "http://www.team809.org",
        "name": "Stanley Works/Pratt & Whitney/Cheney Tech PTO & Cheney Tech",
        "locality": "Manchester",
        "nickname": "The TechnoWizards",
        "region": "CT",
        "team_number": 809,
        "location": "Manchester, CT, USA",
        "key": "frc809",
        "country_name": "USA",
        "motto": null,
        "rookie_year": 2002
    },
    {
        "website": "http://www.smithtownrobotics.com",
        "name": "Smithtown Central School District/Ross & Company CPA, PLLC/Law Firm of Grace C. Guiffrida&Smithtown High School East&Smithtown High School-West",
        "locality": "Smithtown",
        "nickname": "The Mechanical Bulls",
        "region": "New York",
        "team_number": 810,
        "location": "Smithtown, New York 11787, USA",
        "key": "frc810",
        "country_name": "USA",
        "motto": "Reflecting on the past, working hard in the present, and building for the future",
        "rookie_year": 2002
    },
    {
        "website": "http://www.team811.com",
        "name": "PTC/Raytheon IDS/FIRST/BAE SYSTEMS/Nashua West Rotary International/MapleLeaf Construction Company/Synergy Resources/Specialty Kitchens&Bishop Guertin High School",
        "locality": "Nashua",
        "nickname": "Cardinals",
        "region": "New Hampshire",
        "team_number": 811,
        "location": "Nashua, New Hampshire 03060, USA",
        "key": "frc811",
        "country_name": "USA",
        "motto": "\"It's NOT just a robot thing!\"",
        "rookie_year": 2002
    },
    {
        "website": "http://www.midnightmechanics.org",
        "name": "General Motors Foundation / Qualcomm / LEIDOS / TE Connectivity / Irwin and Joan Jacobs / The University of California at San Diego / The San Diego County Fair & Preuss Sch Ucsd",
        "locality": "La Jolla",
        "nickname": "The Midnight Mechanics",
        "region": "California",
        "team_number": 812,
        "location": "La Jolla, California 92093, USA",
        "key": "frc812",
        "country_name": "USA",
        "motto": "Don't Panic, I'm a Midnight Mechanic!",
        "rookie_year": 2002
    },
    {
        "website": null,
        "name": "TBL Capital & RETURN OF 814",
        "locality": "Napa",
        "nickname": "Megaforce",
        "region": "CA",
        "team_number": 814,
        "location": "Napa, CA, USA",
        "key": "frc814",
        "country_name": "USA",
        "motto": null,
        "rookie_year": 2002
    },
    {
        "website": "http://www.team815advancedpower.org",
        "name": "Ford Motor Company/Telegraph Storage/DTE Energy/3M/Stop-N-Lock Storage/Tech Shop/DADARA & Allen Park High School & Cabrini High School",
        "locality": "Allen Park",
        "nickname": "Advanced Power",
        "region": "Michigan",
        "team_number": 815,
        "location": "Allen Park, Michigan 48101, USA",
        "key": "frc815",
        "country_name": "USA",
        "motto": "Building More Than Robots",
        "rookie_year": 2002
    },
    {
        "website": "http://www.bcit.cc/Domain/202",
        "name": "Lockheed Martin/Comcast&Inst of Tech  Westampton",
        "locality": "Mount Holly",
        "nickname": "Anomaly",
        "region": "New Jersey",
        "team_number": 816,
        "location": "Mount Holly, New Jersey 08060, USA",
        "key": "frc816",
        "country_name": "USA",
        "motto": null,
        "rookie_year": 2002
    },
    {
        "website": "http://www.thesteelarmadillosteam818frc.org/",
        "name": "General Motors/Fiat Chrysler Foundation/Warren Consolidated Schools/McNaughton-McKay/ThyssenKrupp/D & D Machinery Movers/Keykert/C & N Manufacturing/The Donahue Group/KGM Distributors/Whitlock Business Systems/Carl Ebbinghaus&Neighborhood Group",
        "locality": "Warren",
        "nickname": "Steel Armadillos",
        "region": "Michigan",
        "team_number": 818,
        "location": "Warren, Michigan 48093, USA",
        "key": "frc818",
        "country_name": "USA",
        "motto": "Roll With The Armadillos",
        "rookie_year": 2002
    },
    {
        "website": "http://DeltaTech.ca",
        "name": "iisnet networks/PEO-North Toronto Chapter/Ready Honda & North Toronto Collegiate Institute & Toronto District School Board",
        "locality": "Toronto",
        "nickname": "Team DeltaTech",
        "region": "ON",
        "team_number": 820,
        "location": "Toronto, ON, Canada",
        "key": "frc820",
        "country_name": "Canada",
        "motto": null,
        "rookie_year": 2002
    },
    {
        "website": null,
        "name": "Ford Motor Company & Mackenzie High School & Henry Ford High School",
        "locality": "Detroit",
        "nickname": "",
        "region": "MI",
        "team_number": 822,
        "location": "Detroit, MI, USA",
        "key": "frc822",
        "country_name": "USA",
        "motto": null,
        "rookie_year": 2002
    },
    {
        "website": "http://www.swatrobotics.org",
        "name": "University of Washington & Roosevelt High School",
        "locality": "Seattle",
        "nickname": "SWAT Robotics",
        "region": "WA",
        "team_number": 824,
        "location": "Seattle, WA, USA",
        "key": "frc824",
        "country_name": "USA",
        "motto": null,
        "rookie_year": 2002
    },
    {
        "website": "http://www.team825.com",
        "name": "Verizon Virginia Inc./Radford University & Southwest Virginia Governor School",
        "locality": "Dublin",
        "nickname": "SWiVaGus Maximus",
        "region": "VA",
        "team_number": 825,
        "location": "Dublin, VA, USA",
        "key": "frc825",
        "country_name": "USA",
        "motto": null,
        "rookie_year": 2002
    },
    {
        "website": "http://www.csdf.k12.ca.us/Robotics05",
        "name": "MCI & California School for the Deaf",
        "locality": "Fremont",
        "nickname": "Robotics Eagle",
        "region": "CA",
        "team_number": 827,
        "location": "Fremont, CA, USA",
        "key": "frc827",
        "country_name": "USA",
        "motto": null,
        "rookie_year": 2002
    },
    {
        "website": "http://www.warrenrobotics.org/",
        "name": "Rolls-Royce Corporation/Colors Inc/Waterjet Cutting of Indiana/Lafayette Steel and Aluminum&Walker Career Center",
        "locality": "Indianapolis",
        "nickname": "Digital Goats",
        "region": "Indiana",
        "team_number": 829,
        "location": "Indianapolis, Indiana 46229, USA",
        "key": "frc829",
        "country_name": "USA",
        "motto": null,
        "rookie_year": 2002
    },
    {
        "website": "http://ratpackrobotics.com",
        "name": "Toyota Technical Center/Maker Works/NXP/University of Michigan/Chrysler Foundation/A2 Geeks&Huron High School",
        "locality": "Ann Arbor",
        "nickname": "The RatPack",
        "region": "Michigan",
        "team_number": 830,
        "location": "Ann Arbor, Michigan 48108, USA",
        "key": "frc830",
        "country_name": "USA",
        "motto": null,
        "rookie_year": 2002
    },
    {
        "website": "http://www.mililanirobotics.org",
        "name": "Castle & Cooke/Leeward Community College & Mililani High School",
        "locality": "Mililani",
        "nickname": "Ka Mikini Hui O Mililani",
        "region": "HI",
        "team_number": 831,
        "location": "Mililani, HI, USA",
        "key": "frc831",
        "country_name": "USA",
        "motto": null,
        "rookie_year": 2002
    },
    {
        "website": "http://www.roswellrobotics.com",
        "name": "GE Volunteers / Siemens / Kennesaw State University & Roswell High School",
        "locality": "Roswell",
        "nickname": "Oscar",
        "region": "Georgia",
        "team_number": 832,
        "location": "Roswell, Georgia 30075, USA",
        "key": "frc832",
        "country_name": "USA",
        "motto": "Outstanding Students Creating Awesome Robots",
        "rookie_year": 2002
    },
    {
        "website": "http://www.hpa.edu",
        "name": "Hawaii Preparatory Academy",
        "locality": "Kamuela",
        "nickname": "HPA Robotics",
        "region": "HI",
        "team_number": 833,
        "location": "Kamuela, HI, USA",
        "key": "frc833",
        "country_name": "USA",
        "motto": null,
        "rookie_year": 2002
    },
    {
        "website": "http://team834.org",
        "name": "Lutron Electronics, Inc/Langan /CHL Systems/Pennsylvania Steel Company, Inc. & Southern Lehigh Shs",
        "locality": "Center Valley",
        "nickname": "SparTechs",
        "region": "Pennsylvania",
        "team_number": 834,
        "location": "Center Valley, Pennsylvania 18034, USA",
        "key": "frc834",
        "country_name": "USA",
        "motto": "Put a wrench in it",
        "rookie_year": 2002
    },
    {
        "website": "http://bluegold.dcds.edu/Upper%20School/US%20Club%20pages/Robotics.htm",
        "name": "DENSO & Detroit Country Day School",
        "locality": "Beverly Hills",
        "nickname": "The Sting",
        "region": "Michigan",
        "team_number": 835,
        "location": "Beverly Hills, Michigan 48025, USA",
        "key": "frc835",
        "country_name": "USA",
        "motto": "mens sana in fabricato sano",
        "rookie_year": 2002
    },
    {
        "website": "http://www.robobees.org/",
        "name": "BAE Systems/The Patuxent Partnership/Susan Stachelczyk - Century 21/Best Buy/Northrop Gruman/Naval Air Systems Command/DOD STEM/growingSTEMS/Rotary International of St. Mary's County/Boothe's Heating and Air Conditioning/Rollout Systems/SMECO/Air Tech/Precise Systems/Smartronix/Mil Corp/Sheetz & Neighborhood Group",
        "locality": "Hollywood",
        "nickname": "The RoboBees",
        "region": "Maryland",
        "team_number": 836,
        "location": "Hollywood, Maryland 20636, USA",
        "key": "frc836",
        "country_name": "USA",
        "motto": "Conceive, Believe, Achieve; Desire to Succeed.",
        "rookie_year": 2002
    },
    {
        "website": "http://users.gloryroad.net/~webbinators",
        "name": "Plastic Ingenuity & Granville County Schools",
        "locality": "Oxford",
        "nickname": "Webbinators",
        "region": "NC",
        "team_number": 837,
        "location": "Oxford, NC, USA",
        "key": "frc837",
        "country_name": "USA",
        "motto": null,
        "rookie_year": 2002
    },
    {
        "website": "http://rosie.agawamrobotics.org/",
        "name": "United Technologies Aerospace Systems/G & L Tool/PTC/Kaman Specialty Bearings and Engineered Products/Agawam Robotics Education Association Inc./Agawam Lions Club/TW Metals&Agawam High",
        "locality": "Agawam",
        "nickname": "Rosie Robotics",
        "region": "Massachusetts",
        "team_number": 839,
        "location": "Agawam, Massachusetts 01001, USA",
        "key": "frc839",
        "country_name": "USA",
        "motto": "\"No drama, just results\"",
        "rookie_year": 2002
    },
    {
        "website": "http://www.aragonrobotics.org",
        "name": "Jim Minkey Remax Today & Aragon High School",
        "locality": "San Mateo",
        "nickname": "ART",
        "region": "California",
        "team_number": 840,
        "location": "San Mateo, California 94402, USA",
        "key": "frc840",
        "country_name": "USA",
        "motto": "No Bleeding on Machines!",
        "rookie_year": 2002
    },
    {
        "website": "http://www.team841.com",
        "name": "Chevron/BAE Systems/Intuitive Surgical/Brin Wojcicki Foundation/Applied Lasers LLC/SunPower/M. Welding Creations and Industrial Finishing & Richmond High",
        "locality": "Richmond",
        "nickname": "The BioMechs",
        "region": "California",
        "team_number": 841,
        "location": "Richmond, California 94804, USA",
        "key": "frc841",
        "country_name": "USA",
        "motto": "Changing the world one robot at a time.",
        "rookie_year": 2002
    },
    {
        "website": "http://coachfredi.wix.com/falconrobotics",
        "name": "The Butler Family Foundation / The Boeing Company / Microchip / 50 Eggs Films / Intel / Arizona Charitable Tax Credit Donors / Craig and Barbara Barrett Foundation / MarZee Water Jet Services / Science Foundation Arizona / Bank of America / Sling Rings / Critical Mass Communications / Fast Signs / Southwest Fasteners & Carl Hayden High School",
        "locality": "Phoenix",
        "nickname": "Falcon Robotics",
        "region": "Arizona",
        "team_number": 842,
        "location": "Phoenix, Arizona 85009, USA",
        "key": "frc842",
        "country_name": "USA",
        "motto": "There Is No Spoon",
        "rookie_year": 2002
    },
    {
        "website": "http://wos.hdsb.ca/robotics2004/index.html",
        "name": "Davis Web LLP / BMP Metals / Baumeier Corp. / Sheridan College / BMP Metals / Enable Training and Consulting & Pathways & SHSM & White Oaks Secondary School & Halton District School Board",
        "locality": "Oakville",
        "nickname": "Wildcats",
        "region": "ON",
        "team_number": 843,
        "location": "Oakville, ON, Canada",
        "key": "frc843",
        "country_name": "Canada",
        "motto": null,
        "rookie_year": 2002
    },
    {
        "website": "http://www.anderson4.k12.sc.us/schools/phs/robotics/index.htm",
        "name": "Accu Tech & Pendleton High School",
        "locality": "Pendleton",
        "nickname": "Cutting Edge",
        "region": "SC",
        "team_number": 845,
        "location": "Pendleton, SC, USA",
        "key": "frc845",
        "country_name": "USA",
        "motto": null,
        "rookie_year": 2002
    },
    {
        "website": "http://www.lynbrookrobotics.com/",
        "name": "FUHS Foundation/Apple/Western Digital/Boston Scientific/Qualcomm/The Brin Wojcicki Foundation/Lightbend/EDSFund/Intuitive Surgical Inc/Silicon Valley Education Foundation & Wells Fargo/NASA/Society of Women Engineers & ExxonMobil/Therma Corp./Vander-Bend Manufacturing&Lynbrook High",
        "locality": "San Jose",
        "nickname": "The Funky Monkeys",
        "region": "California",
        "team_number": 846,
        "location": "San Jose, California 95129, USA",
        "key": "frc846",
        "country_name": "USA",
        "motto": "Build. Learn. Inspire.",
        "rookie_year": 2002
    },
    {
        "website": "http://www.team847.com",
        "name": "Autodesk/IBEW Local 280/Oregon Department of Education/Maxfield Family Foundation/Tripwire/Philomath Lions Club/Microchip/Paul and Stefanie Dickey/Corvallis Clinic/Philomath Figaro's/Ram-Z Fab/Applebee's/Pastini Pastaria&Philomath High School",
        "locality": "Philomath",
        "nickname": "PHRED",
        "region": "Oregon",
        "team_number": 847,
        "location": "Philomath, Oregon 97370, USA",
        "key": "frc847",
        "country_name": "USA",
        "motto": "Partnerships Under Construction",
        "rookie_year": 2002
    },
    {
        "website": "http://www.huskyrobotics.org",
        "name": "The Boeing Company/MDA Information Systems/Roncelli Plastics/Conoco Phillips & Rolling Hills Prep School",
        "locality": "San Pedro",
        "nickname": "ROBOHUSKIES",
        "region": "California",
        "team_number": 848,
        "location": "San Pedro, California 90732, USA",
        "key": "frc848",
        "country_name": "USA",
        "motto": "Teamwork makes the robot work",
        "rookie_year": 2002
    },
    {
        "website": "http://www.uhsrobotics.ca",
        "name": "PowerStream & Unionville High School",
        "locality": "Unionville",
        "nickname": "Wolfpack",
        "region": "ON",
        "team_number": 849,
        "location": "Unionville, ON, Canada",
        "key": "frc849",
        "country_name": "Canada",
        "motto": null,
        "rookie_year": 2002
    },
    {
        "website": null,
        "name": "",
        "locality": "La Canada",
        "nickname": "",
        "region": "CA",
        "team_number": 850,
        "location": "La Canada, CA, USA",
        "key": "frc850",
        "country_name": "USA",
        "motto": null,
        "rookie_year": null
    },
    {
        "website": "http://www.JTAcademy.org",
        "name": "JT Academy",
        "locality": "Torrance",
        "nickname": "Froggers",
        "region": "CA",
        "team_number": 851,
        "location": "Torrance, CA, USA",
        "key": "frc851",
        "country_name": "USA",
        "motto": null,
        "rookie_year": 2002
    },
    {
        "website": "http://www.athenianrobotics.org",
        "name": "Abbott Laboratories / GoPro / SolidWorks / Shane's Water Cutting / Ray McKenzie-Wilson / Eldridge Family / Braddock & Logan & the Athenian School",
        "locality": "Danville",
        "nickname": "The Athenian Robotics Collective",
        "region": "California",
        "team_number": 852,
        "location": "Danville, California 94506, USA",
        "key": "frc852",
        "country_name": "USA",
        "motto": "What can I do to help?",
        "rookie_year": 2002
    },
    {
        "website": null,
        "name": "",
        "locality": "Phoenix",
        "nickname": "",
        "region": "AZ",
        "team_number": 853,
        "location": "Phoenix, AZ, USA",
        "key": "frc853",
        "country_name": "USA",
        "motto": null,
        "rookie_year": null
    },
    {
        "website": "http://www.team854.com",
        "name": "TDSB & Martingrove Collegiate Institute",
        "locality": "Toronto",
        "nickname": "The Iron Bears",
        "region": "Ontario",
        "team_number": 854,
        "location": "Toronto, Ontario M9B 3G7, Canada",
        "key": "frc854",
        "country_name": "Canada",
        "motto": null,
        "rookie_year": 2002
    },
    {
        "website": "http://www.first857.org",
        "name": "General Motors/Copper Country Robotics/GS Engineering/Saavedra Family/Leoni Engineering Products and Services Inc./DS Solidworks/State of Michigan/GLSV/Michigan Tech Mechanical Engineering Dept/Xeratec Corporation/U.P. Engineers & Architects, Inc.&Houghton Central High School",
        "locality": "Houghton",
        "nickname": "Superior Roboworks",
        "region": "Michigan",
        "team_number": 857,
        "location": "Houghton, Michigan 49931, USA",
        "key": "frc857",
        "country_name": "USA",
        "motto": "Spreading FIRST to the Ends of the Earth",
        "rookie_year": 2002
    },
    {
        "website": "http://www.Demonsrobotics.com",
        "name": "GE Aviation & Wyoming High School",
        "locality": "Wyoming",
        "nickname": "Demons",
        "region": "Michigan",
        "team_number": 858,
        "location": "Wyoming, Michigan 49509, USA",
        "key": "frc858",
        "country_name": "USA",
        "motto": "Team work will get it done",
        "rookie_year": 2002
    },
    {
        "website": "http://mhsrobotics.org",
        "name": "West Virginia University & Monongalia County Board of Education & Morgantown High School",
        "locality": "Morgantown",
        "nickname": "BOING",
        "region": "WV",
        "team_number": 859,
        "location": "Morgantown, WV, USA",
        "key": "frc859",
        "country_name": "USA",
        "motto": null,
        "rookie_year": 2002
    },
    {
        "website": "http://www.venicerobotics.tk",
        "name": "USC & Venice High School",
        "locality": "Los Angeles",
        "nickname": "Gondobots",
        "region": "CA",
        "team_number": 861,
        "location": "Los Angeles, CA, USA",
        "key": "frc861",
        "country_name": "USA",
        "motto": null,
        "rookie_year": 2002
    },
    {
        "website": "http://www.lightningrobotics.com/",
        "name": "BOSCH/Jabil/Schuler/Continental/Ford & Canton High School & Salem High School & Plymouth High School",
        "locality": "Canton",
        "nickname": "Lightning Robotics",
        "region": "Michigan",
        "team_number": 862,
        "location": "Canton, Michigan 48187, USA",
        "key": "frc862",
        "country_name": "USA",
        "motto": "STRIKE : Student leadership Teamwork Resilience Inspiration Knowledge Engagement",
        "rookie_year": 2002
    },
    {
        "website": null,
        "name": "",
        "locality": "Toronto",
        "nickname": "",
        "region": "ON",
        "team_number": 863,
        "location": "Toronto, ON, Canada",
        "key": "frc863",
        "country_name": "Canada",
        "motto": null,
        "rookie_year": null
    },
    {
        "website": "http://warp7.org",
        "name": "Toronto District School Board/Martinrea/RL Solutions/Western Parent Council/Battery Boys/Next Level Projects/High Junction Gymnastics&Western Technical-Commercial School",
        "locality": "Toronto",
        "nickname": "WARP7",
        "region": "Ontario",
        "team_number": 865,
        "location": "Toronto, Ontario M6P 3E3, Canada",
        "key": "frc865",
        "country_name": "Canada",
        "motto": null,
        "rookie_year": 2002
    },
    {
        "website": "http://www.turabohurricanes.com",
        "name": "NASA/Nypro Puerto Rico/Autoware Corporation & SmartTeens",
        "locality": "Caguas",
        "nickname": "The SmartTeens of the Turabo Valley",
        "region": "PR",
        "team_number": 866,
        "location": "Caguas, PR, USA",
        "key": "frc866",
        "country_name": "USA",
        "motto": null,
        "rookie_year": 2002
    },
    {
        "website": "http://frc-team-867.ahs.ausd.net/",
        "name": "NASA JPL/Arcadia Unified School District&Arcadia High",
        "locality": "Arcadia",
        "nickname": "Absolute Value",
        "region": "California",
        "team_number": 867,
        "location": "Arcadia, California 91007, USA",
        "key": "frc867",
        "country_name": "USA",
        "motto": "Taking robotics to the Absolute Limit !",
        "rookie_year": 2002
    },
    {
        "website": "http://www.techhounds.com",
        "name": "Boeing/Delphi Foundation/Rolls Royce & Carmel High School",
        "locality": "Carmel",
        "nickname": "TechHOUNDS",
        "region": "Indiana",
        "team_number": 868,
        "location": "Carmel, Indiana 46032, USA",
        "key": "frc868",
        "country_name": "USA",
        "motto": "Invent the Future",
        "rookie_year": 2002
    },
    {
        "website": "http://www.frc869.com",
        "name": "Ansun Protective Metals / Micro / Veolia & Middlesex High School",
        "locality": "Middlesex",
        "nickname": "PowerCord",
        "region": "New Jersey",
        "team_number": 869,
        "location": "Middlesex, New Jersey 08846, USA",
        "key": "frc869",
        "country_name": "USA",
        "motto": "We got the power!",
        "rookie_year": 2002
    },
    {
        "website": "http://www.rice870.com",
        "name": "Miller Environmental/Charles & Helen Reichert Family Foundation, Inc./STIDD Systems, Inc./Scott DeSimone P.C./Bridgehampton National Bank/Saporita Sweets/Joseph Silvestro Construction/Suffolk Times Newspaper/Woodside Orchards/Ultra Motion LLC/Creative Environmental Design/East End Cardiology, P.C./SoundSide Landscaping, Inc./SeaTow/Southold PBA/Suffolk Security/Condon Engineering/North Fork Sanitation, Inc./Chick's Southold Agway/Albertson Marine/Mullen Motors/Southold ACE Hardware/Southold Fish Market/Roy H. Reeve Insurance Agency/We Can Do It Preschool!/Young & Young Engineering/Peconic Landing/Twomey, Latham, Shea, Kelley, Dubin & Quartararo LLP/Thomas J. McCarthy Real Estate, Inc./BodySmart Training and Fitness Studio/Roman's Tile & Marble, Inc./HETRO LLC/Quarty Construction/DJK Heating & Cooling/Suffolk County Police Conference/Burts Reliable/Grissom Fuel Oil Company, Inc.&Southold Junior-Senior High School",
        "locality": "Southold",
        "nickname": "TEAM  R. I. C. E.  ",
        "region": "New York",
        "team_number": 870,
        "location": "Southold, New York 11971, USA",
        "key": "frc870",
        "country_name": "USA",
        "motto": null,
        "rookie_year": 2002
    },
    {
        "website": "http://www.westisliprobotics.com/",
        "name": "West Islip Robotics Booster Club, Inc./Motorola/Lockheed Martin/West Islip Country Fair/UL/EnerSys & West Islip Senior High School",
        "locality": "West Islip",
        "nickname": "Robotechs",
        "region": "New York",
        "team_number": 871,
        "location": "West Islip, New York 11795, USA",
        "key": "frc871",
        "country_name": "USA",
        "motto": "Left over parts are proof you made it better",
        "rookie_year": 2002
    },
    {
        "website": "http://www.techno-devils.50megs.com",
        "name": "columbus state community college & marion franklin boosters",
        "locality": "Columbus",
        "nickname": "Techno-Devils",
        "region": "OH",
        "team_number": 872,
        "location": "Columbus, OH, USA",
        "key": "frc872",
        "country_name": "USA",
        "motto": null,
        "rookie_year": 2002
    },
    {
        "website": null,
        "name": "",
        "locality": "Dickinson",
        "nickname": "",
        "region": "ND",
        "team_number": 873,
        "location": "Dickinson, ND, USA",
        "key": "frc873",
        "country_name": "USA",
        "motto": null,
        "rookie_year": null
    },
    {
        "website": "http://www.alexander.k12.nd.us",
        "name": "Alexander Public School",
        "locality": "Alexander",
        "nickname": "Isis",
        "region": "ND",
        "team_number": 874,
        "location": "Alexander, ND, USA",
        "key": "frc874",
        "country_name": "USA",
        "motto": null,
        "rookie_year": 2002
    },
    {
        "website": "http://www.hatton.k12.nd.us/robotpage.htm",
        "name": "NASA /North Dakota Space Grant Consortium & Hatton Public School",
        "locality": "Hatton",
        "nickname": "Team FrostByte",
        "region": "ND",
        "team_number": 875,
        "location": "Hatton, ND, USA",
        "key": "frc875",
        "country_name": "USA",
        "motto": null,
        "rookie_year": 2002
    },
    {
        "website": "https://sites.google.com/a/northwoodk12.com/thunder-robotic/home",
        "name": "ND Space Grant/John Deere/Brent Pederson/Dr. Mary Aaland/Aneta Whitetail/Nrthwd Amer. Legion/Amer. Crystal Sugar/Nrthwd Mens Club/Ed and Sue Lloyd/Hatton Mens Club/Citizen's State Bank/Phil and Trish Gisi/ND CTEd/Msgt. Gary Kimball&Northwood High School&Hatton High School",
        "locality": "Northwood",
        "nickname": "Thunder Robotics",
        "region": "North Dakota",
        "team_number": 876,
        "location": "Northwood, North Dakota 58267, USA",
        "key": "frc876",
        "country_name": "USA",
        "motto": "\"Opportunities don't happen. You create them.\"",
        "rookie_year": 2002
    },
    {
        "website": "http://blogs.edutech.nodak.edu/frcteam877/",
        "name": "UND Space Grant Consortium & North Star High School",
        "locality": "Cando",
        "nickname": "North Star",
        "region": "North Dakota",
        "team_number": 877,
        "location": "Cando, North Dakota 58324, USA",
        "key": "frc877",
        "country_name": "USA",
        "motto": "\"We Can Do It\"",
        "rookie_year": 2002
    },
    {
        "website": "http://www.hs.rugby.k12.nd.us/team878/index.htm",
        "name": "North Dakota Space Grant Consortium / Rugby Welding & Machine / Rugby Truck Bodies & Equipment / Dakota Prairie Supply / Rugby Eagles Aerie #3834 & Rugby High School",
        "locality": "Rugby",
        "nickname": "Metal Gear",
        "region": "ND",
        "team_number": 878,
        "location": "Rugby, ND, USA",
        "key": "frc878",
        "country_name": "USA",
        "motto": null,
        "rookie_year": 2002
    },
    {
        "website": null,
        "name": "NASA/North Dakota Space Grant Consortium/Cenex of New Town/Northrop Grumman - New Town Site/DJ Consulting & New Town High School",
        "locality": "New Town",
        "nickname": "",
        "region": "ND",
        "team_number": 879,
        "location": "New Town, ND, USA",
        "key": "frc879",
        "country_name": "USA",
        "motto": null,
        "rookie_year": 2002
    },
    {
        "website": "http://www.fairmount.k12.nd.us",
        "name": "Fairmount Public School",
        "locality": "Fairmount",
        "nickname": "Border Patrol",
        "region": "ND",
        "team_number": 880,
        "location": "Fairmount, ND, USA",
        "key": "frc880",
        "country_name": "USA",
        "motto": null,
        "rookie_year": 2002
    },
    {
        "website": null,
        "name": "",
        "locality": "Bismarck",
        "nickname": "",
        "region": "ND",
        "team_number": 881,
        "location": "Bismarck, ND, USA",
        "key": "frc881",
        "country_name": "USA",
        "motto": null,
        "rookie_year": null
    },
    {
        "website": "http://centralcatholichs.org",
        "name": "Cleveland Central Catholic High School",
        "locality": "Cleveland",
        "nickname": "Ironmen",
        "region": "OH",
        "team_number": 883,
        "location": "Cleveland, OH, USA",
        "key": "frc883",
        "country_name": "USA",
        "motto": null,
        "rookie_year": 2002
    },
    {
        "website": "http://www.malverne.k12.ny.us/180420921145138820/site/default.asp",
        "name": "Malverne Senior High School",
        "locality": "Malverne",
        "nickname": "Mechanical Mules",
        "region": "New York",
        "team_number": 884,
        "location": "Malverne, New York 11565, USA",
        "key": "frc884",
        "country_name": "USA",
        "motto": "Every accomplishment starts with the decision to try",
        "rookie_year": 2002
    },
    {
        "website": "http://frcteam885.com/",
        "name": "Vermont Technical College/GW Plastics & Neighborhood Group & The Sharon Academy & Randolph Union High School",
        "locality": "Randolph Center",
        "nickname": "THE GREEN TEAM",
        "region": "Vermont",
        "team_number": 885,
        "location": "Randolph Center, Vermont 05061, USA",
        "key": "frc885",
        "country_name": "USA",
        "motto": "You can't get there from here",
        "rookie_year": 2002
    },
    {
        "website": "http://westview.tdsb.on.ca",
        "name": "Toronto District School Board / Westview Centennial Secondary School / Rockwell Automation & Westview Centennial Secondary School",
        "locality": "North York",
        "nickname": "Wildcats",
        "region": "Ontario",
        "team_number": 886,
        "location": "North York, Ontario M3N 1W7, Canada",
        "key": "frc886",
        "country_name": "Canada",
        "motto": "Deficio Est Non An Bene",
        "rookie_year": 2002
    },
    {
        "website": null,
        "name": "",
        "locality": "Goffstown",
        "nickname": "",
        "region": "NH",
        "team_number": 887,
        "location": "Goffstown, NH, USA",
        "key": "frc887",
        "country_name": "USA",
        "motto": null,
        "rookie_year": null
    },
    {
        "website": "http://www.robotiators888.org",
        "name": "NASA/Department of Defense & Glenelg High",
        "locality": "Glenelg",
        "nickname": "Robotiators",
        "region": "Maryland",
        "team_number": 888,
        "location": "Glenelg, Maryland 21737, USA",
        "key": "frc888",
        "country_name": "USA",
        "motto": null,
        "rookie_year": 2002
    },
    {
        "website": null,
        "name": "",
        "locality": "West Islip",
        "nickname": "",
        "region": "NY",
        "team_number": 889,
        "location": "West Islip, NY, USA",
        "key": "frc889",
        "country_name": "USA",
        "motto": null,
        "rookie_year": null
    },
    {
        "website": "http://www.neverendingchaos.com",
        "name": "Syracuse Research Corporation & Central Tech Vocational School",
        "locality": "Syracuse",
        "nickname": "Neverending Chaos",
        "region": "NY",
        "team_number": 891,
        "location": "Syracuse, NY, USA",
        "key": "frc891",
        "country_name": "USA",
        "motto": null,
        "rookie_year": 2002
    },
    {
        "website": "http://www.geocities.com/team892ascii",
        "name": "American Electric Power/SAVvy Engineering LLC/David's United Church of Christ & Canal Winchester High School",
        "locality": "Canal Winchester",
        "nickname": "Team ASCII",
        "region": "OH",
        "team_number": 892,
        "location": "Canal Winchester, OH, USA",
        "key": "frc892",
        "country_name": "USA",
        "motto": null,
        "rookie_year": 2002
    },
    {
        "website": "http:// ",
        "name": "General Motors/Flexible automation/Phillips Welding/Kettering University&POWERS CATHOLIC HIGH SCHOOL",
        "locality": "Flint",
        "nickname": "THE POWER CHARGERS",
        "region": "Michigan",
        "team_number": 894,
        "location": "Flint, Michigan 48503, USA",
        "key": "frc894",
        "country_name": "USA",
        "motto": " ",
        "rookie_year": 2002
    },
    {
        "website": "http://centralrobotics.tk/",
        "name": "CENTRAL & CENTRAL",
        "locality": "Newark",
        "nickname": "Blue Steel",
        "region": "New Jersey",
        "team_number": 896,
        "location": "Newark, New Jersey, USA",
        "key": "frc896",
        "country_name": "USA",
        "motto": "Pick Up, Stand Up, Own Up. Respect the Blue Steel. ",
        "rookie_year": 2002
    },
    {
        "website": null,
        "name": "",
        "locality": "Toronto",
        "nickname": "",
        "region": "ON",
        "team_number": 897,
        "location": "Toronto, ON, Canada",
        "key": "frc897",
        "country_name": "Canada",
        "motto": null,
        "rookie_year": null
    },
    {
        "website": "http://clubweb.peoriaud.k12.az.us/Ironwood_Robotics",
        "name": "Ironwood High School",
        "locality": "Glendale",
        "nickname": "Team Desert Storm",
        "region": "AZ",
        "team_number": 898,
        "location": "Glendale, AZ, USA",
        "key": "frc898",
        "country_name": "USA",
        "motto": null,
        "rookie_year": 2002
    },
    {
        "website": null,
        "name": "",
        "locality": "Houston",
        "nickname": "",
        "region": "TX",
        "team_number": 899,
        "location": "Houston, TX, USA",
        "key": "frc899",
        "country_name": "USA",
        "motto": null,
        "rookie_year": null
    },
    {
        "website": "http://team900.org/",
        "name": "Qualcomm/United Therapeutics/IBM/Teleflex/Nvidia/Google/Lockheed Martin/Lenovo & North Carolina School of Science and Mathematics & Durham Public Schools & Local Home Schools",
        "locality": "Durham",
        "nickname": "\u265eThe Zebracorns\u265e",
        "region": "North Carolina",
        "team_number": 900,
        "location": "Durham, North Carolina 27705, USA",
        "key": "frc900",
        "country_name": "USA",
        "motto": null,
        "rookie_year": 2002
    },
    {
        "website": null,
        "name": "",
        "locality": "Miami",
        "nickname": "",
        "region": "FL",
        "team_number": 901,
        "location": "Miami, FL, USA",
        "key": "frc901",
        "country_name": "USA",
        "motto": null,
        "rookie_year": null
    },
    {
        "website": "http://www.stcs.org/heritage/robotics",
        "name": "Delphi Saginaw Steering Systems & Heritage High School",
        "locality": "Saginaw",
        "nickname": "Delphi Heritage RoboHawks",
        "region": "MI",
        "team_number": 902,
        "location": "Saginaw, MI, USA",
        "key": "frc902",
        "country_name": "USA",
        "motto": null,
        "rookie_year": 2002
    },
    {
        "website": "http://www.geocities.com/melissa_fayall/chadsey_index.html",
        "name": "University of Michigan/Skillman Foundation/Marathon Oil Company/General Motors Foundation/Ford Motor Company/PTC & Detroit Public Schools & Southwestern High School",
        "locality": "Detroit",
        "nickname": "RoboTroopers",
        "region": "MI",
        "team_number": 903,
        "location": "Detroit, MI, USA",
        "key": "frc903",
        "country_name": "USA",
        "motto": null,
        "rookie_year": 2002
    },
    {
        "website": "http://www.firstteam904.weebly.com",
        "name": "Grand Rapids Public Schools/General Motors/Autodie LLC/Steelcase/Gill Industries/FCA/Consumers Energy/PADNOS/State of Michigan&Central High School",
        "locality": "Grand Rapids",
        "nickname": "D cubed",
        "region": "Michigan",
        "team_number": 904,
        "location": "Grand Rapids, Michigan 49503, USA",
        "key": "frc904",
        "country_name": "USA",
        "motto": "Desire times dedication times determination equals success",
        "rookie_year": 2002
    },
    {
        "website": null,
        "name": "Platt Tech Parent Faculty Organization & Platt Technical High School",
        "locality": "Milford",
        "nickname": "Platt Tech Panthers",
        "region": "CT",
        "team_number": 905,
        "location": "Milford, CT, USA",
        "key": "frc905",
        "country_name": "USA",
        "motto": null,
        "rookie_year": 2002
    },
    {
        "website": "http://www.umr.edu/~robot",
        "name": "The University of Missouri - Rolla Robotics Competition Team & Rolla High School",
        "locality": "Rolla",
        "nickname": "UMR",
        "region": "MO",
        "team_number": 906,
        "location": "Rolla, MO, USA",
        "key": "frc906",
        "country_name": "USA",
        "motto": null,
        "rookie_year": 2002
    },
    {
        "website": "http://team907.ca/",
        "name": "Qualcomm Canada Inc./Toronto District School Board/East York Collegiate Institute/Clearpath Robotics Inc.&East York Collegiate Institute",
        "locality": "East York",
        "nickname": "East York Cybernetics \"The Cybernauts\"",
        "region": "Ontario",
        "team_number": 907,
        "location": "East York, Ontario M4C 2V2, Canada",
        "key": "frc907",
        "country_name": "Canada",
        "motto": "skill without knowledge is nothing",
        "rookie_year": 2002
    },
    {
        "website": null,
        "name": "Charleston County School District & Garrett Academy of Technology & Wando High School",
        "locality": "North Charleston",
        "nickname": "Botz of Prey",
        "region": "SC",
        "team_number": 908,
        "location": "North Charleston, SC, USA",
        "key": "frc908",
        "country_name": "USA",
        "motto": null,
        "rookie_year": 2002
    },
    {
        "website": "http://www.team909.com",
        "name": "Ewing Marion Kauffman Foundation & Lawrence High School",
        "locality": "Lawrence",
        "nickname": "Junkyard Crew",
        "region": "KS",
        "team_number": 909,
        "location": "Lawrence, KS, USA",
        "key": "frc909",
        "country_name": "USA",
        "motto": null,
        "rookie_year": 2002
    },
    {
        "website": "http://www.foleyfreeze.com/",
        "name": "General Motors/FCA Foundation & Bishop Foley Catholic High School",
        "locality": "Madison Heights",
        "nickname": "The Foley Freeze",
        "region": "Michigan",
        "team_number": 910,
        "location": "Madison Heights, Michigan 48071, USA",
        "key": "frc910",
        "country_name": "USA",
        "motto": "Spreading the Inspiration, Creativity and Enthusiasm",
        "rookie_year": 2002
    },
    {
        "website": "http://ironlyons.com",
        "name": "TDSB & William Lyon Mackenzie CI",
        "locality": "Toronto",
        "nickname": "Iron Lyons",
        "region": "ON",
        "team_number": 912,
        "location": "Toronto, ON, Canada",
        "key": "frc912",
        "country_name": "Canada",
        "motto": null,
        "rookie_year": 2002
    },
    {
        "website": null,
        "name": "Bendale BTI",
        "locality": "Toronto",
        "nickname": "Bendale Robotics",
        "region": "ON",
        "team_number": 913,
        "location": "Toronto, ON, Canada",
        "key": "frc913",
        "country_name": "Canada",
        "motto": null,
        "rookie_year": 2002
    },
    {
        "website": null,
        "name": "Toronto District School Board/RONA & Ursula Franklin Academy",
        "locality": "Toronto",
        "nickname": "",
        "region": "ON",
        "team_number": 914,
        "location": "Toronto, ON, Canada",
        "key": "frc914",
        "country_name": "Canada",
        "motto": null,
        "rookie_year": 2002
    },
    {
        "website": null,
        "name": "",
        "locality": "Toronto",
        "nickname": "",
        "region": "ON",
        "team_number": 915,
        "location": "Toronto, ON, Canada",
        "key": "frc915",
        "country_name": "Canada",
        "motto": null,
        "rookie_year": null
    },
    {
        "website": null,
        "name": "Dishon Limited/Toronto District School Board & Lawrence Park Collegiate",
        "locality": "Toronto",
        "nickname": "",
        "region": "ON",
        "team_number": 917,
        "location": "Toronto, ON, Canada",
        "key": "frc917",
        "country_name": "Canada",
        "motto": null,
        "rookie_year": 2002
    },
    {
        "website": null,
        "name": "",
        "locality": "Toronto",
        "nickname": "",
        "region": "ON",
        "team_number": 918,
        "location": "Toronto, ON, Canada",
        "key": "frc918",
        "country_name": "Canada",
        "motto": null,
        "rookie_year": null
    },
    {
        "website": "http://www.harbordci.ca",
        "name": "TDSB & Harbord Collegiate Institute",
        "locality": "Toronto",
        "nickname": "Tiger Techs",
        "region": "Ontario",
        "team_number": 919,
        "location": "Toronto, Ontario M6G 1G5, Canada",
        "key": "frc919",
        "country_name": "Canada",
        "motto": "Virtus Et Doctrina",
        "rookie_year": 2002
    },
    {
        "website": null,
        "name": "",
        "locality": "Philadelphia",
        "nickname": "",
        "region": "PA",
        "team_number": 920,
        "location": "Philadelphia, PA, USA",
        "key": "frc920",
        "country_name": "USA",
        "motto": null,
        "rookie_year": null
    },
    {
        "website": "http://ultimaterobotics.org/FRC",
        "name": "Texas Workforce Commission/AEP/jcpenney/TxDOT",
        "locality": "Laredo",
        "nickname": "ULTIMATE: United Longhorn Team Inspiring Mental Attitude Towards Engineering",
        "region": "TX",
        "team_number": 922,
        "location": "Laredo, TX, USA",
        "key": "frc922",
        "country_name": "USA",
        "motto": null,
        "rookie_year": 2002
    },
    {
        "website": null,
        "name": "",
        "locality": "China Grove",
        "nickname": "",
        "region": "NC",
        "team_number": 925,
        "location": "China Grove, NC, USA",
        "key": "frc925",
        "country_name": "USA",
        "motto": null,
        "rookie_year": null
    },
    {
        "website": "http://www.freewebs.com/bhsfirst",
        "name": "Cisco Systems/ABB/GSK & Broughton HS",
        "locality": "Raleigh",
        "nickname": "The Capacitors",
        "region": "NC",
        "team_number": 926,
        "location": "Raleigh, NC, USA",
        "key": "frc926",
        "country_name": "USA",
        "motto": null,
        "rookie_year": 2002
    },
    {
        "website": null,
        "name": "",
        "locality": "Reston",
        "nickname": "",
        "region": "VA",
        "team_number": 927,
        "location": "Reston, VA, USA",
        "key": "frc927",
        "country_name": "USA",
        "motto": null,
        "rookie_year": null
    },
    {
        "website": "http://www.benjaminbanneker.org",
        "name": "Motorola Foundation & Benjamin Banneker Academic HS",
        "locality": "Washington",
        "nickname": "Hounds of Steel",
        "region": "DC",
        "team_number": 928,
        "location": "Washington, DC, USA",
        "key": "frc928",
        "country_name": "USA",
        "motto": null,
        "rookie_year": 2002
    },
    {
        "website": "http://team930.com/",
        "name": "Touchpad Electronics/Joy Global/GE Volunteers/RTA Automation/Rockford Toolcraft/Milwaukee School of Engineering/Northwestern Mutual Life Foundation/PTC/UEI & Mukwonago High",
        "locality": "Mukwonago",
        "nickname": "Mukwonago BEARs",
        "region": "Wisconsin",
        "team_number": 930,
        "location": "Mukwonago, Wisconsin 53149, USA",
        "key": "frc930",
        "country_name": "USA",
        "motto": "Make it work",
        "rookie_year": 2002
    },
    {
        "website": "http://www.slps.org/domain/7813",
        "name": "Ranken Technical College/Boeing/Rockwell Automation/Shapiro Supply/Verizon/Belleville Kiwanis/WaterJet Tech/Bates Sales/Ethical Society/Monsanto/Copper Bend Pharmacy/Hartwig, Inc./Tech Manufacturing/Saint Louis Public Schools&Gateway High",
        "locality": "Saint Louis",
        "nickname": "Perpetual Chaos",
        "region": "Missouri",
        "team_number": 931,
        "location": "Saint Louis, Missouri 63110, USA",
        "key": "frc931",
        "country_name": "USA",
        "motto": "Explore Robotics",
        "rookie_year": 2002
    },
    {
        "website": "facebook: Tulsa Engineering Academy at Memorial",
        "name": "DOD STEM/Refractory Testing and Inspection/Allied Fence Company/Memorial Robotics Booster Club/Delta Lodge #425&Memorial Hs",
        "locality": "Tulsa",
        "nickname": "Circuit Chargers",
        "region": "Oklahoma",
        "team_number": 932,
        "location": "Tulsa, Oklahoma 74135, USA",
        "key": "frc932",
        "country_name": "USA",
        "motto": "Inspiring Today, Engineering Tomorrow",
        "rookie_year": 2002
    },
    {
        "website": "http://www.trigos.org",
        "name": "IEEE/Hamilton Sundstrand & Christian Life High Schools",
        "locality": "Rockford",
        "nickname": "Trigos",
        "region": "IL",
        "team_number": 933,
        "location": "Rockford, IL, USA",
        "key": "frc933",
        "country_name": "USA",
        "motto": null,
        "rookie_year": 2002
    },
    {
        "website": null,
        "name": "",
        "locality": "Lawrence",
        "nickname": "",
        "region": "KS",
        "team_number": 934,
        "location": "Lawrence, KS, USA",
        "key": "frc934",
        "country_name": "USA",
        "motto": null,
        "rookie_year": null
    },
    {
        "website": "http://team935.com",
        "name": "The Boeing Company/Higgs Tech Consulting/SRES/SME/James Allen & Newton Sr High",
        "locality": "Newton",
        "nickname": "RaileRobotics",
        "region": "Kansas",
        "team_number": 935,
        "location": "Newton, Kansas 67114, USA",
        "key": "frc935",
        "country_name": "USA",
        "motto": "Inspiration of today technology of tommorow",
        "rookie_year": 2002
    },
    {
        "website": "http://osborne-robotics.homeip.net",
        "name": "NASA/Kansas Space Grant Consortium/Osborne Industries, Inc./Don Moore Electric & Osborne High School",
        "locality": "Osborne",
        "nickname": "Big Dogs",
        "region": "KS",
        "team_number": 936,
        "location": "Osborne, KS, USA",
        "key": "frc936",
        "country_name": "USA",
        "motto": null,
        "rookie_year": 2002
    },
    {
        "website": "http://smnorthrobotics.com",
        "name": "KC STEM Alliance/Clarcor Industrial Air/DeVry University/Garmin/Honeywell/Shawnee Mission North Booster Club/Lanmarx Graphix INC./Shawnee Mission North PTSA/McDonald's Corporation/Cowtown Computer Congress of Kansas City/Ewing Marion Kaufmann Foundation/DST/Google Fiber/Black & Veatch/Burns & McDonnell/Cerner/US Engineering & Shawnee Mission North High",
        "locality": "Mission",
        "nickname": "Robo Tribe",
        "region": "Kansas",
        "team_number": 937,
        "location": "Mission, Kansas 66202, USA",
        "key": "frc937",
        "country_name": "USA",
        "motto": "Dream, Build, Succeed!",
        "rookie_year": 2002
    },
    {
        "website": "http://www.teambotman.org/",
        "name": "The Boeing Company/Maier Family/Google/Suffron Glass/Wettstein Auto Repair and Welding&Central Heights High",
        "locality": "Richmond",
        "nickname": "Team Botman",
        "region": "Kansas",
        "team_number": 938,
        "location": "Richmond, Kansas 66080, USA",
        "key": "frc938",
        "country_name": "USA",
        "motto": "Saving the world one mind at a time.",
        "rookie_year": 2002
    },
    {
        "website": null,
        "name": "Sisseton High School",
        "locality": "Sisseton",
        "nickname": "Hiphopanonymous",
        "region": "SD",
        "team_number": 939,
        "location": "Sisseton, SD, USA",
        "key": "frc939",
        "country_name": "USA",
        "motto": null,
        "rookie_year": 2002
    },
    {
        "website": "http://js046.k12.sd.us/Brookings%20High%20School.htm",
        "name": "NASA/South Dakota Space Grant Consortium/Larson Manufacturing & Brookings High School",
        "locality": "Brookings",
        "nickname": "Digital Demolition",
        "region": "SD",
        "team_number": 940,
        "location": "Brookings, SD, USA",
        "key": "frc940",
        "country_name": "USA",
        "motto": null,
        "rookie_year": 2002
    },
    {
        "website": "http://arrowrobotics.homestead.com",
        "name": "NASA /South Dakota Space Grant Consortium/Lake Area Technical Institute & Watertown High School",
        "locality": "Watertown",
        "nickname": "Arrow Robotics",
        "region": "SD",
        "team_number": 941,
        "location": "Watertown, SD, USA",
        "key": "frc941",
        "country_name": "USA",
        "motto": null,
        "rookie_year": 2002
    },
    {
        "website": "http://jv030.k12.sd.us",
        "name": "NASA/South Dakota Space Grant Consortium & Woonsocket  High School",
        "locality": "Woonsocket",
        "nickname": "Roboteers",
        "region": "SD",
        "team_number": 942,
        "location": "Woonsocket, SD, USA",
        "key": "frc942",
        "country_name": "USA",
        "motto": null,
        "rookie_year": 2002
    },
    {
        "website": null,
        "name": "South Dakota Space Grant Consortium & Sioux Valley High School",
        "locality": "Volga",
        "nickname": "Great Balls of Fire",
        "region": "SD",
        "team_number": 943,
        "location": "Volga, SD, USA",
        "key": "frc943",
        "country_name": "USA",
        "motto": null,
        "rookie_year": 2002
    },
    {
        "website": "http://teacherpress.ocps.net/cynthiaandrews/?page_id=219",
        "name": "Lockheed Martin / NEPD / Walt Disney World / Fluid Power Society & Colonial High",
        "locality": "Orlando",
        "nickname": "Team Banana",
        "region": "Florida",
        "team_number": 945,
        "location": "Orlando, Florida 32807, USA",
        "key": "frc945",
        "country_name": "USA",
        "motto": "We A Peel to All",
        "rookie_year": 2002
    },
    {
        "website": null,
        "name": "",
        "locality": "Coral Springs",
        "nickname": "",
        "region": "FL",
        "team_number": 946,
        "location": "Coral Springs, FL, USA",
        "key": "frc946",
        "country_name": "USA",
        "motto": null,
        "rookie_year": null
    },
    {
        "website": null,
        "name": "",
        "locality": "Daytona Beach",
        "nickname": "",
        "region": "FL",
        "team_number": 947,
        "location": "Daytona Beach, FL, USA",
        "key": "frc947",
        "country_name": "USA",
        "motto": null,
        "rookie_year": null
    },
    {
        "website": "http://www.nrg948.com",
        "name": "The Boeing Company/Microsoft/Wicresoft/Bellevue Schools Foundation & Newport Senior High School",
        "locality": "Bellevue",
        "nickname": "NRG (Newport Robotics Group)",
        "region": "Washington",
        "team_number": 948,
        "location": "Bellevue, Washington 98006, USA",
        "key": "frc948",
        "country_name": "USA",
        "motto": "Team eNeRGy: We have awesome potential",
        "rookie_year": 2002
    },
    {
        "website": "http://wolverinerobotics949.com/",
        "name": "The Boeing Company/Intellectual Ventures/Microsoft Store/Microsoft & Bellevue High School",
        "locality": "Bellevue",
        "nickname": "Wolverine Robotics",
        "region": "Washington",
        "team_number": 949,
        "location": "Bellevue, Washington 98004, USA",
        "key": "frc949",
        "country_name": "USA",
        "motto": "It if doesn't work, hit it harder.",
        "rookie_year": 2002
    },
    {
        "website": null,
        "name": "NASA /Nevada Space Grant Consortium & Reed High School",
        "locality": "Reno",
        "nickname": "",
        "region": "NV",
        "team_number": 950,
        "location": "Reno, NV, USA",
        "key": "frc950",
        "country_name": "USA",
        "motto": null,
        "rookie_year": 2002
    },
    {
        "website": "http://www.rhsrobotics.4mg.com",
        "name": "NASA/Nevada Space Grant Consortium & Reno High School",
        "locality": "Reno",
        "nickname": "Team Illuminati",
        "region": "NV",
        "team_number": 953,
        "location": "Reno, NV, USA",
        "key": "frc953",
        "country_name": "USA",
        "motto": null,
        "rookie_year": 2002
    },
    {
        "website": "http://www.sageridge.org/robotics/index.htm",
        "name": "NASA/Nevada Space Grant Consortium & Sage Ridge School",
        "locality": "Reno",
        "nickname": "Scorpion Robotics",
        "region": "NV",
        "team_number": 954,
        "location": "Reno, NV, USA",
        "key": "frc954",
        "country_name": "USA",
        "motto": null,
        "rookie_year": 2002
    },
    {
        "website": "http://www.team955.org",
        "name": "Autodesk/Intel/Solidworks/Tripwire/Linn-Benton Community College/Hytek Plastics/Kohls /HP/Corvallis School District/Mentor Graphics/Anderson Neurological Pain Solutions/Tunnel Radio/Korvis Automation Inc./Microchip/Running Princess/Griffo Brothers Inc./CG Industries&Crescent Valley High School",
        "locality": "Corvallis",
        "nickname": "CV Robotics",
        "region": "Oregon",
        "team_number": 955,
        "location": "Corvallis, Oregon 97330, USA",
        "key": "frc955",
        "country_name": "USA",
        "motto": "Design to compete; compete to win",
        "rookie_year": 2002
    },
    {
        "website": "http://www.santiamchristian.org/home/Activities/Robotics",
        "name": "Boeing / Burcham's Metals / State Farm-Justin Kruse / Society of Cable Telecommunication Engineers Cascade Range Chapter / MSS, Inc. Engineering / Robnett's Hardware & SANTIAM CHRISTIAN SCHOOL",
        "locality": "Adair Village",
        "nickname": "Eagle Cybertechnology",
        "region": "OR",
        "team_number": 956,
        "location": "Adair Village, OR, USA",
        "key": "frc956",
        "country_name": "USA",
        "motto": null,
        "rookie_year": 2002
    },
    {
        "website": "http://www.team957.com",
        "name": "Viper Northwest/Central Electric Training Facility/Oregon Freeze Dry/Autodesk/Oregon Department of Education/ATI/Xtreme Grafx/National Frozen Foods/Concept Systems Inc/South Albany High School/Trademark Transmission & Auto Repair/Sheet Metal Solutions/Prestige Hardwood Flooring/Benton County Schools Credit Union/North Coast Electical/Carolyn Howard & South Albany High School & West Albany High School",
        "locality": "Albany",
        "nickname": "SWARM",
        "region": "Oregon",
        "team_number": 957,
        "location": "Albany, Oregon 97321, USA",
        "key": "frc957",
        "country_name": "USA",
        "motto": "South West Albany Robotic Maniacs",
        "rookie_year": 2002
    },
    {
        "website": "http://phs.mat-su.k12.ak.us",
        "name": "Matanuska Telephone Association (MTA) & Palmer High School",
        "locality": "Palmer",
        "nickname": "",
        "region": "AK",
        "team_number": 959,
        "location": "Palmer, AK, USA",
        "key": "frc959",
        "country_name": "USA",
        "motto": null,
        "rookie_year": 2002
    },
    {
        "website": null,
        "name": "",
        "locality": "Anchorage",
        "nickname": "",
        "region": "AK",
        "team_number": 960,
        "location": "Anchorage, AK, USA",
        "key": "frc960",
        "country_name": "USA",
        "motto": null,
        "rookie_year": null
    },
    {
        "website": "http://www.humboldt.k12.nv.us/lhs",
        "name": "NASA & Lowry High School & Lowry High School",
        "locality": "Winnemucca",
        "nickname": "Buckaroo Brutes",
        "region": "NV",
        "team_number": 961,
        "location": "Winnemucca, NV, USA",
        "key": "frc961",
        "country_name": "USA",
        "motto": null,
        "rookie_year": 2002
    },
    {
        "website": "http://robotics.silverviewrvresort.com",
        "name": "BBC Industrial Supply CO & Mohave High School",
        "locality": "Bullhead City",
        "nickname": "Excidium",
        "region": "AZ",
        "team_number": 962,
        "location": "Bullhead City, AZ, USA",
        "key": "frc962",
        "country_name": "USA",
        "motto": null,
        "rookie_year": 2002
    },
    {
        "website": "http://southbulldogsrobotics.org",
        "name": "NASA/Ohio State University/jcpenney/AEP-American Electric Power & Columbus City Schools, South High School",
        "locality": "Columbus",
        "nickname": "South Bulldogs Robotics",
        "region": "OH",
        "team_number": 963,
        "location": "Columbus, OH, USA",
        "key": "frc963",
        "country_name": "USA",
        "motto": null,
        "rookie_year": 2002
    },
    {
        "website": "http://www.bedfordfoundation.net/Robotics",
        "name": "Bedford Schools Foundation & Bedford High School",
        "locality": "Bedford",
        "nickname": "Bearcat Robotics",
        "region": "OH",
        "team_number": 964,
        "location": "Bedford, OH, USA",
        "key": "frc964",
        "country_name": "USA",
        "motto": null,
        "rookie_year": 2002
    },
    {
        "website": "http://tech.chhs.chuh.org/tech.html",
        "name": "Cleveland Heights High School",
        "locality": "Cleveland Heights",
        "nickname": "Heights Tigers",
        "region": "OH",
        "team_number": 966,
        "location": "Cleveland Heights, OH, USA",
        "key": "frc966",
        "country_name": "USA",
        "motto": null,
        "rookie_year": 2002
    },
    {
        "website": "http://www.lmrobotics.com",
        "name": "Rockwell Collins/Linn-Mar Booster Club/EHA/Iowa Fluid Power/Lindahl Marine Contractors, Inc./Linn-Mar Foundation/Conveyor Engineering/Bentley Manufacturing/Master Tool Mfg/D.A.D. Mfg Inc/Cargill/Verizon/Intermec/Linn County REC/CIPCO/McElroy Trust & Linn-Mar High School",
        "locality": "Marion",
        "nickname": "Iron Lions",
        "region": "Iowa",
        "team_number": 967,
        "location": "Marion, Iowa 52302, USA",
        "key": "frc967",
        "country_name": "USA",
        "motto": null,
        "rookie_year": 2002
    },
    {
        "website": "http://team968.com",
        "name": "Ride and Show Engineering/Central Powder Coating/Vivid-Hosting/RM Industries/Tennant Foundation&West Covina High",
        "locality": "West Covina",
        "nickname": "RAWC (Robotics Alliance Of West Covina)",
        "region": "California",
        "team_number": 968,
        "location": "West Covina, California 91791, USA",
        "key": "frc968",
        "country_name": "USA",
        "motto": null,
        "rookie_year": 2002
    },
    {
        "website": null,
        "name": "",
        "locality": "Lebanon",
        "nickname": "",
        "region": "TN",
        "team_number": 969,
        "location": "Lebanon, TN, USA",
        "key": "frc969",
        "country_name": "USA",
        "motto": null,
        "rookie_year": null
    },
    {
        "website": "http://www.clevelandtechworks.org",
        "name": "Concept XXI/ECCS/21st Century CLC/Earthman's Education Services, Inc./R P Carbone & Shaw High School",
        "locality": "East Cleveland",
        "nickname": "The Cardinals",
        "region": "OH",
        "team_number": 970,
        "location": "East Cleveland, OH, USA",
        "key": "frc970",
        "country_name": "USA",
        "motto": null,
        "rookie_year": 2002
    },
    {
        "website": "http://frc971.org",
        "name": "NASA Ames Research Center/Google/St. Jude Medical Foundation/Apple/Brin Wojcicki Foundation/Abbott Fund/NVIDIA/DSS SolidWorks/Mountain View High School PTSA/Auris Surgical Robotics/The Crispie Family/Intuitive Surgical/Creative Manufacturing Solutions/Screen-Tech/Group Manufacturing Services/Givmar Precision Machining/West Coast Products/RDC Machine&Mountain View High",
        "locality": "Mountain View",
        "nickname": "Spartan Robotics",
        "region": "California",
        "team_number": 971,
        "location": "Mountain View, California 94040, USA",
        "key": "frc971",
        "country_name": "USA",
        "motto": "\"If you wanna build robots, you've got to break a few small appliances\"",
        "rookie_year": 2002
    },
    {
        "website": "http://www.ironclaw972.org",
        "name": "Iron Claw Team Families/Los Gatos High School New Millenium Foundation/Gene Haas Foundation/Apple Inc./SA Photonics/Los Gatos Saratoga Union High School District/Brin-Wojcicki Foundation/BAE P&S/Department of Defense/Plethora/Atlas Technologies/Intuitive Surgical/Kiwanis Club of Los Gatos/Now and Forever Generations Photography of Los Gatos/NVIDEA/Andy Mark/Cadence Design Systems/GitHub/Alain Pinel Realtors - Los Gatos/Pony Express Printing/Rural Supply Hardware/Home Depot&Los Gatos High",
        "locality": "Los Gatos",
        "nickname": "Iron Claw",
        "region": "California",
        "team_number": 972,
        "location": "Los Gatos, California 95030, USA",
        "key": "frc972",
        "country_name": "USA",
        "motto": null,
        "rookie_year": 2002
    },
    {
        "website": "http://www.greybots.com",
        "name": "Google/Centers for Applied Competitive Technologies, College of the Canyon/IQMS/JLP Enterprises LLC/Janssen Youth and Youth Sports Fund/Pacific Gas & Electric/Atascadero AAUW, Inc./Oak Country Lumber & Ranch/Cal Poly San Luis Obispo/SuperCharged Science&Atascadero High&Atascadero Education Foundation, Inc.",
        "locality": "Atascadero",
        "nickname": "Greybots",
        "region": "California",
        "team_number": 973,
        "location": "Atascadero, California 93422, USA",
        "key": "frc973",
        "country_name": "USA",
        "motto": "DESIGN,BUILD,COMPETE",
        "rookie_year": 2002
    },
    {
        "website": "http://lighthouse.mhs-la.org/cvivo/Robotics/HOMEPAGE.html",
        "name": "Mr. & Mrs. Stephen Petty/Gerald Oppenheimer Family Foundation/Raytheon & MARYMOUNT HIGH SCHOOL LOS ANGELES",
        "locality": "Los Angeles",
        "nickname": "Nautae",
        "region": "CA",
        "team_number": 974,
        "location": "Los Angeles, CA, USA",
        "key": "frc974",
        "country_name": "USA",
        "motto": "\"Can't sink this ship!\"",
        "rookie_year": 2002
    },
    {
        "website": "http://couillard.wikispaces.com/SYNERGY",
        "name": "Dominion/PEER Tech Prep Consortium/John Tyler Community College & James River High School",
        "locality": "Midlothian",
        "nickname": "Synergy Robotics",
        "region": "VA",
        "team_number": 975,
        "location": "Midlothian, VA, USA",
        "key": "frc975",
        "country_name": "USA",
        "motto": null,
        "rookie_year": 2002
    },
    {
        "website": "http://nottowaynt.k12.nottoway.state.va.us/nhs/robot/default.htm",
        "name": "AB's Welding/Longwood ITTTIP/Virginia Business Education Partnership & Nottoway High School",
        "locality": "Nottoway",
        "nickname": "Circuit Breakers",
        "region": "VA",
        "team_number": 976,
        "location": "Nottoway, VA, USA",
        "key": "frc976",
        "country_name": "USA",
        "motto": null,
        "rookie_year": 2002
    },
    {
        "website": "http://www.halifax.k12.va.us/team977",
        "name": "Halifax County High",
        "locality": "South Boston",
        "nickname": "Cometbots",
        "region": "Virginia",
        "team_number": 977,
        "location": "South Boston, Virginia 24592, USA",
        "key": "frc977",
        "country_name": "USA",
        "motto": "Knowledge, the final frontier.",
        "rookie_year": 2002
    },
    {
        "website": "http://TBA",
        "name": "NASA Glenn Research Center/Delphi Automative Systems Dayton Technical Center/Sinclair Community College/Wright Patterson Air Force Base & Dayton Public School District & Trotwood Madison City School District & Kettering City School District & Jefferson Township School District & Dayton Christian School District & Northridge School District & Miamisburg Public School District & Springfield City School District",
        "locality": "Dayton",
        "nickname": "",
        "region": "OH",
        "team_number": 979,
        "location": "Dayton, OH, USA",
        "key": "frc979",
        "country_name": "USA",
        "motto": null,
        "rookie_year": 2002
    },
    {
        "website": "http://www.team980.com",
        "name": "Walt Disney Imagineering/NASA-JPL/Boeing/Solutions for Automation/Lingua Machining Solutions/Tweed Financial Services/Neighbors Empowering Youth&FRC Team 980 ThunderBots",
        "locality": "Sylmar",
        "nickname": "ThunderBots",
        "region": "California",
        "team_number": 980,
        "location": "Sylmar, California 91342, USA",
        "key": "frc980",
        "country_name": "USA",
        "motto": "Strive for Excellence!",
        "rookie_year": 2002
    },
    {
        "website": "http://snobotics.org",
        "name": "NASA JPL/Boston Scientific/International Society of Automation&Frazier Mountain High",
        "locality": "Lebec",
        "nickname": "Snobotics",
        "region": "California",
        "team_number": 981,
        "location": "Lebec, California 93243, USA",
        "key": "frc981",
        "country_name": "USA",
        "motto": "When we build a robot it snows!",
        "rookie_year": 2002
    },
    {
        "website": "http://www.sfcss.org/OgormanHS/Departments/robotics",
        "name": "South Dakota Space Grant Consortium/NASA/Augustana College & O'Gorman High School",
        "locality": "Sioux Falls",
        "nickname": "The Knights",
        "region": "SD",
        "team_number": 982,
        "location": "Sioux Falls, SD, USA",
        "key": "frc982",
        "country_name": "USA",
        "motto": null,
        "rookie_year": 2002
    },
    {
        "website": null,
        "name": "",
        "locality": "Wellesley",
        "nickname": "",
        "region": "MA",
        "team_number": 984,
        "location": "Wellesley, MA, USA",
        "key": "frc984",
        "country_name": "USA",
        "motto": null,
        "rookie_year": null
    },
    {
        "website": "http://www.team987.com",
        "name": "Steve and Susan Philpott / Innovation First International / Purvis Industries / Bearing Belt Chain / Nevada YESCO LLC. / Albertsons / Lowes / Lenovo & Cimarron Memorial High School",
        "locality": "Las Vegas",
        "nickname": "HIGHROLLERS",
        "region": "Nevada",
        "team_number": 987,
        "location": "Las Vegas, Nevada 89128, USA",
        "key": "frc987",
        "country_name": "USA",
        "motto": "\"It's not enough!\"",
        "rookie_year": 2002
    },
    {
        "website": "http://team988steelphoenix.weebly.com/",
        "name": "NASA/The Gene Haas Foundation&Ed W Clark High School",
        "locality": "Las Vegas",
        "nickname": "Steel Phoenix",
        "region": "Nevada",
        "team_number": 988,
        "location": "Las Vegas, Nevada 89102, USA",
        "key": "frc988",
        "country_name": "USA",
        "motto": "Our team always rises from the ashes",
        "rookie_year": 2002
    },
    {
        "website": "http://www.paloverde.org/paulus/robotics",
        "name": "Palo Verde High School Science &Technology Club",
        "locality": "Las Vegas",
        "nickname": "Palo",
        "region": "NV",
        "team_number": 989,
        "location": "Las Vegas, NV, USA",
        "key": "frc989",
        "country_name": "USA",
        "motto": null,
        "rookie_year": 2002
    },
    {
        "website": "http://www.atech.org/faculty/gauthier/robot",
        "name": "Bechtel Nevada/University Nevada Las Vegas & Advanced Technologies Academy",
        "locality": "Las Vegas",
        "nickname": "The Deadly Viper Assassination Squad",
        "region": "NV",
        "team_number": 990,
        "location": "Las Vegas, NV, USA",
        "key": "frc990",
        "country_name": "USA",
        "motto": null,
        "rookie_year": 2002
    },
    {
        "website": "http://www.broncobotics.org/",
        "name": "Brophy College Preparatory",
        "locality": "Phoenix",
        "nickname": "BroncoBotics",
        "region": "Arizona",
        "team_number": 991,
        "location": "Phoenix, Arizona 85012, USA",
        "key": "frc991",
        "country_name": "USA",
        "motto": "Together to Create",
        "rookie_year": 2002
    },
    {
        "website": "http://www.oakwoodrobotics.com",
        "name": "NASA & Oakwood School",
        "locality": "North Hollywood",
        "nickname": "Oakwood Robotics",
        "region": "CA",
        "team_number": 992,
        "location": "North Hollywood, CA, USA",
        "key": "frc992",
        "country_name": "USA",
        "motto": null,
        "rookie_year": 2002
    },
    {
        "website": "http://www.firstinspires.org/",
        "name": "NASA/Beckman Coulter & MARK KEPPEL HIGH",
        "locality": "Alhambra",
        "nickname": "Monkey Wrenchers",
        "region": "California",
        "team_number": 995,
        "location": "Alhambra, California, USA",
        "key": "frc995",
        "country_name": "USA",
        "motto": "LET'S DO THIS!",
        "rookie_year": 2002
    },
    {
        "website": "http://www.firstinspires.org/",
        "name": "Nissan Technical Center North America/Avnet/Abbott Fund/NASA&Casa Grande Union High School",
        "locality": "Casa Grande",
        "nickname": "Mecha Knights",
        "region": "Arizona",
        "team_number": 996,
        "location": "Casa Grande, Arizona 85122, USA",
        "key": "frc996",
        "country_name": "USA",
        "motto": "\"Pass the duct tape!\"",
        "rookie_year": 2002
    },
    {
        "website": "http://www.chsrobotics.org",
        "name": "Autodesk/Oregon Depaartment of Education/Tripwire/Corvallis High School/Microchip Technologies/Nikon Precision/First Tech Federal Credit Union/SolidWorks/STH Machining/Royal T Manufacturing/Knight Design/Best in The West Events/Pastini's Pastaria/AutoZone/Burgerville&Corvallis High School",
        "locality": "Corvallis",
        "nickname": "Spartan Robotics",
        "region": "Oregon",
        "team_number": 997,
        "location": "Corvallis, Oregon 97330, USA",
        "key": "frc997",
        "country_name": "USA",
        "motto": "Incito Futuri",
        "rookie_year": 2002
    },
    {
        "website": "http://www.kpbsd.k12.ak.us/sohi/robotics",
        "name": "The Challenger Learning Center of Alaska/British Petroleum & Soldotna High School",
        "locality": "Soldotna",
        "nickname": "The Overcookers",
        "region": "AK",
        "team_number": 998,
        "location": "Soldotna, AK, USA",
        "key": "frc998",
        "country_name": "USA",
        "motto": null,
        "rookie_year": 2002
    },
    {
        "website": "http://FRCTeam999.com",
        "name": "Cheshire Public Schools/UTC/Lockheed Martin&Cheshire High School",
        "locality": "Cheshire",
        "nickname": "MechaRAMS",
        "region": "Connecticut",
        "team_number": 999,
        "location": "Cheshire, Connecticut 06410, USA",
        "key": "frc999",
        "country_name": "USA",
        "motto": null,
        "rookie_year": 2002
    }
]